[
  {
    "name": "Avshar",
    "country": "AM",
    "lat": 39.85388,
    "lng": 44.68016
  },
  {
    "name": "Avan",
    "country": "AM",
    "lat": 40.21436,
    "lng": 44.57846
  },
  {
    "name": "Avellaneda",
    "country": "AR",
    "lat": -29.11761,
    "lng": -59.65834
  },
  {
    "name": "Avia Terai",
    "country": "AR",
    "lat": -26.68665,
    "lng": -60.72803
  },
  {
    "name": "Avellaneda",
    "country": "AR",
    "lat": -34.66018,
    "lng": -58.36744
  },
  {
    "name": "Avoca Beach",
    "country": "AU",
    "lat": -33.46818,
    "lng": 151.4339
  },
  {
    "name": "Avoca",
    "country": "AU",
    "lat": -37.09044,
    "lng": 143.47365
  },
  {
    "name": "Avenel",
    "country": "AU",
    "lat": -36.90088,
    "lng": 145.23367
  },
  {
    "name": "Avondale Heights",
    "country": "AU",
    "lat": -37.76155,
    "lng": 144.86261
  },
  {
    "name": "Avenell Heights",
    "country": "AU",
    "lat": -24.8896,
    "lng": 152.36786
  },
  {
    "name": "Aveley",
    "country": "AU",
    "lat": -31.78132,
    "lng": 115.98959
  },
  {
    "name": "Avoca",
    "country": "AU",
    "lat": -24.87822,
    "lng": 152.30794
  },
  {
    "name": "Avondale",
    "country": "AU",
    "lat": -34.5175,
    "lng": 150.7501
  },
  {
    "name": "Avşar",
    "country": "AZ",
    "lat": 39.97389,
    "lng": 47.42389
  },
  {
    "name": "Averbode",
    "country": "BE",
    "lat": 51.02887,
    "lng": 4.98067
  },
  {
    "name": "Avelgem",
    "country": "BE",
    "lat": 50.77618,
    "lng": 3.44502
  },
  {
    "name": "Avrankou",
    "country": "BJ",
    "lat": 6.55591,
    "lng": 2.65123
  },
  {
    "name": "Avakpa",
    "country": "BJ",
    "lat": 6.66239,
    "lng": 2.04249
  },
  {
    "name": "Aveiro",
    "country": "BR",
    "lat": -3.60556,
    "lng": -55.33167
  },
  {
    "name": "Avelinópolis",
    "country": "BR",
    "lat": -16.46583,
    "lng": -49.75778
  },
  {
    "name": "Avaré",
    "country": "BR",
    "lat": -23.09861,
    "lng": -48.92583
  },
  {
    "name": "Avanhandava",
    "country": "BR",
    "lat": -21.46083,
    "lng": -49.94972
  },
  {
    "name": "Avaí",
    "country": "BR",
    "lat": -22.14667,
    "lng": -49.33306
  },
  {
    "name": "Avelino Lopes",
    "country": "BR",
    "lat": -10.13667,
    "lng": -43.94861
  },
  {
    "name": "Avry-sur-Matran",
    "country": "CH",
    "lat": 46.78753,
    "lng": 7.06735
  },
  {
    "name": "Avenches",
    "country": "CH",
    "lat": 46.88004,
    "lng": 7.04071
  },
  {
    "name": "Avagou",
    "country": "CI",
    "lat": 5.21132,
    "lng": -4.32612
  },
  {
    "name": "Avarua",
    "country": "CK",
    "lat": -21.2075,
    "lng": -159.77546
  },
  {
    "name": "Avgórou",
    "country": "CY",
    "lat": 35.03615,
    "lng": 33.83918
  },
  {
    "name": "Avlum",
    "country": "DK",
    "lat": 56.26539,
    "lng": 8.79256
  },
  {
    "name": "Avedøre",
    "country": "DK",
    "lat": 55.62722,
    "lng": 12.45644
  },
  {
    "name": "Avión",
    "country": "ES",
    "lat": 42.38333,
    "lng": -8.25
  },
  {
    "name": "Avinyonet del Penedès",
    "country": "ES",
    "lat": 41.35,
    "lng": 1.78333
  },
  {
    "name": "Avinyó",
    "country": "ES",
    "lat": 41.86367,
    "lng": 1.97095
  },
  {
    "name": "Avinyonet de Puigventós",
    "country": "ES",
    "lat": 42.24984,
    "lng": 2.91509
  },
  {
    "name": "Avilés",
    "country": "ES",
    "lat": 43.55473,
    "lng": -5.92483
  },
  {
    "name": "Avià",
    "country": "ES",
    "lat": 42.06667,
    "lng": 1.85
  },
  {
    "name": "Avellanosa de Muñó",
    "country": "ES",
    "lat": 41.98349,
    "lng": -3.82553
  },
  {
    "name": "Avellaneda",
    "country": "ES",
    "lat": 43.22942,
    "lng": -3.16172
  },
  {
    "name": "Avellaneda",
    "country": "ES",
    "lat": 40.38909,
    "lng": -5.38811
  },
  {
    "name": "Aveinte",
    "country": "ES",
    "lat": 40.78227,
    "lng": -4.83649
  },
  {
    "name": "Avrillé",
    "country": "FR",
    "lat": 47.50663,
    "lng": -0.58955
  },
  {
    "name": "Avrillé",
    "country": "FR",
    "lat": 46.46921,
    "lng": -1.4927
  },
  {
    "name": "Avrechy",
    "country": "FR",
    "lat": 49.44796,
    "lng": 2.4271
  },
  {
    "name": "Avranches",
    "country": "FR",
    "lat": 48.68436,
    "lng": -1.35686
  },
  {
    "name": "Avord",
    "country": "FR",
    "lat": 47.03514,
    "lng": 2.65295
  },
  {
    "name": "Avon",
    "country": "FR",
    "lat": 48.40219,
    "lng": 2.72022
  },
  {
    "name": "Avoine",
    "country": "FR",
    "lat": 47.20533,
    "lng": 0.18253
  },
  {
    "name": "Avize",
    "country": "FR",
    "lat": 48.97352,
    "lng": 4.01438
  },
  {
    "name": "Aviron",
    "country": "FR",
    "lat": 49.05,
    "lng": 1.11667
  },
  {
    "name": "Avion",
    "country": "FR",
    "lat": 50.41038,
    "lng": 2.83053
  },
  {
    "name": "Avilly-Saint-Léonard",
    "country": "FR",
    "lat": 49.19449,
    "lng": 2.54148
  },
  {
    "name": "Avignonet-Lauragais",
    "country": "FR",
    "lat": 43.36672,
    "lng": 1.78619
  },
  {
    "name": "Avignon",
    "country": "FR",
    "lat": 43.94834,
    "lng": 4.80892
  },
  {
    "name": "Avèze",
    "country": "FR",
    "lat": 43.97165,
    "lng": 3.6002
  },
  {
    "name": "Avessac",
    "country": "FR",
    "lat": 47.65341,
    "lng": -1.9895
  },
  {
    "name": "Avesnes-sur-Helpe",
    "country": "FR",
    "lat": 50.12372,
    "lng": 3.9257
  },
  {
    "name": "Avesnes-le-Sec",
    "country": "FR",
    "lat": 50.251,
    "lng": 3.37768
  },
  {
    "name": "Avesnes-les-Aubert",
    "country": "FR",
    "lat": 50.2,
    "lng": 3.38333
  },
  {
    "name": "Avesnes-le-Comte",
    "country": "FR",
    "lat": 50.27767,
    "lng": 2.52957
  },
  {
    "name": "Avesnelles",
    "country": "FR",
    "lat": 50.11782,
    "lng": 3.94674
  },
  {
    "name": "Avermes",
    "country": "FR",
    "lat": 46.58774,
    "lng": 3.3072
  },
  {
    "name": "Avensan",
    "country": "FR",
    "lat": 45.03632,
    "lng": -0.75751
  },
  {
    "name": "Avelin",
    "country": "FR",
    "lat": 50.53968,
    "lng": 3.08222
  },
  {
    "name": "Aveizieux",
    "country": "FR",
    "lat": 45.565,
    "lng": 4.37071
  },
  {
    "name": "Aveize",
    "country": "FR",
    "lat": 45.68243,
    "lng": 4.47786
  },
  {
    "name": "Avanton",
    "country": "FR",
    "lat": 46.66295,
    "lng": 0.30327
  },
  {
    "name": "Avanne-Aveney",
    "country": "FR",
    "lat": 47.2,
    "lng": 5.96667
  },
  {
    "name": "Avallon",
    "country": "FR",
    "lat": 47.49002,
    "lng": 3.90832
  },
  {
    "name": "Availles-Limouzine",
    "country": "FR",
    "lat": 46.12112,
    "lng": 0.65529
  },
  {
    "name": "Aviemore",
    "country": "GB",
    "lat": 57.19553,
    "lng": -3.8259
  },
  {
    "name": "Avening",
    "country": "GB",
    "lat": 51.6801,
    "lng": -2.16903
  },
  {
    "name": "Aveley",
    "country": "GB",
    "lat": 51.49987,
    "lng": 0.25174
  },
  {
    "name": "Avebury",
    "country": "GB",
    "lat": 51.41667,
    "lng": -1.86667
  },
  {
    "name": "Avlónas",
    "country": "GR",
    "lat": 38.25149,
    "lng": 23.69554
  },
  {
    "name": "Aversa",
    "country": "IN",
    "lat": 14.73333,
    "lng": 74.3
  },
  {
    "name": "Avanigadda",
    "country": "IN",
    "lat": 16.02148,
    "lng": 80.91808
  },
  {
    "name": "Avinashi",
    "country": "IN",
    "lat": 11.19297,
    "lng": 77.26865
  },
  {
    "name": "Avadi",
    "country": "IN",
    "lat": 13.1147,
    "lng": 80.10981
  },
  {
    "name": "Avanoor",
    "country": "IN",
    "lat": 10.60826,
    "lng": 76.1762
  },
  {
    "name": "Avalēpalli",
    "country": "IN",
    "lat": 12.77137,
    "lng": 77.85941
  },
  {
    "name": "Avalpūndurai",
    "country": "IN",
    "lat": 11.23105,
    "lng": 77.71819
  },
  {
    "name": "Avaniyāpuram",
    "country": "IN",
    "lat": 9.88179,
    "lng": 78.11255
  },
  {
    "name": "Avilala",
    "country": "IN",
    "lat": 13.61106,
    "lng": 79.4208
  },
  {
    "name": "Avinissery",
    "country": "IN",
    "lat": 10.46994,
    "lng": 76.23005
  },
  {
    "name": "Avola",
    "country": "IT",
    "lat": 36.9084,
    "lng": 15.13937
  },
  {
    "name": "Aviano-Castello",
    "country": "IT",
    "lat": 46.06759,
    "lng": 12.58324
  },
  {
    "name": "Avio",
    "country": "IT",
    "lat": 45.73396,
    "lng": 10.93938
  },
  {
    "name": "Avigliano Umbro",
    "country": "IT",
    "lat": 42.65303,
    "lng": 12.42571
  },
  {
    "name": "Avigliano",
    "country": "IT",
    "lat": 40.73291,
    "lng": 15.72004
  },
  {
    "name": "Avigliana",
    "country": "IT",
    "lat": 45.07978,
    "lng": 7.39647
  },
  {
    "name": "Aviano",
    "country": "IT",
    "lat": 46.07056,
    "lng": 12.59472
  },
  {
    "name": "Avezzano",
    "country": "IT",
    "lat": 42.02896,
    "lng": 13.42641
  },
  {
    "name": "Avetrana",
    "country": "IT",
    "lat": 40.3507,
    "lng": 17.7326
  },
  {
    "name": "Aversa",
    "country": "IT",
    "lat": 40.97259,
    "lng": 14.20745
  },
  {
    "name": "Averara",
    "country": "IT",
    "lat": 45.98847,
    "lng": 9.6316
  },
  {
    "name": "Avellino",
    "country": "IT",
    "lat": 40.91494,
    "lng": 14.79103
  },
  {
    "name": "Avella",
    "country": "IT",
    "lat": 40.95995,
    "lng": 14.60087
  },
  {
    "name": "Avelengo",
    "country": "IT",
    "lat": 46.64557,
    "lng": 11.22419
  },
  {
    "name": "Avegno",
    "country": "IT",
    "lat": 44.38285,
    "lng": 9.15797
  },
  {
    "name": "Avolasca",
    "country": "IT",
    "lat": 44.80315,
    "lng": 8.96545
  },
  {
    "name": "Aviatico",
    "country": "IT",
    "lat": 45.79758,
    "lng": 9.77145
  },
  {
    "name": "Avise",
    "country": "IT",
    "lat": 45.70886,
    "lng": 7.1399
  },
  {
    "name": "Avane",
    "country": "IT",
    "lat": 43.79049,
    "lng": 10.40982
  },
  {
    "name": "Avvocata",
    "country": "IT",
    "lat": 40.85432,
    "lng": 14.24325
  },
  {
    "name": "Avraga",
    "country": "MN",
    "lat": 47.17851,
    "lng": 109.18968
  },
  {
    "name": "Avdzaga",
    "country": "MN",
    "lat": 47.63333,
    "lng": 103.51667
  },
  {
    "name": "Avenhorn",
    "country": "NL",
    "lat": 52.6175,
    "lng": 4.95139
  },
  {
    "name": "Avondale",
    "country": "NZ",
    "lat": -36.88333,
    "lng": 174.7
  },
  {
    "name": "Avenal",
    "country": "NZ",
    "lat": -46.39842,
    "lng": 168.34009
  },
  {
    "name": "Avonhead",
    "country": "NZ",
    "lat": -43.50833,
    "lng": 172.55013
  },
  {
    "name": "Avonside",
    "country": "NZ",
    "lat": -43.51833,
    "lng": 172.66013
  },
  {
    "name": "Avondale",
    "country": "NZ",
    "lat": -43.49833,
    "lng": 172.69013
  },
  {
    "name": "Avalon",
    "country": "NZ",
    "lat": -41.19827,
    "lng": 174.92019
  },
  {
    "name": "Ave María",
    "country": "PA",
    "lat": 7.32481,
    "lng": -80.45361
  },
  {
    "name": "Avila",
    "country": "PH",
    "lat": 10.692,
    "lng": 122.709
  },
  {
    "name": "Avis",
    "country": "PT",
    "lat": 39.05391,
    "lng": -7.89156
  },
  {
    "name": "Avelar",
    "country": "PT",
    "lat": 39.92373,
    "lng": -8.3583
  },
  {
    "name": "Aveiras de Cima",
    "country": "PT",
    "lat": 39.13796,
    "lng": -8.89932
  },
  {
    "name": "Avintes",
    "country": "PT",
    "lat": 41.10711,
    "lng": -8.55131
  },
  {
    "name": "Aves",
    "country": "PT",
    "lat": 41.37034,
    "lng": -8.4101
  },
  {
    "name": "Aver-o-Mar",
    "country": "PT",
    "lat": 41.40607,
    "lng": -8.77958
  },
  {
    "name": "Aveleda",
    "country": "PT",
    "lat": 41.52113,
    "lng": -8.46682
  },
  {
    "name": "Aveiro",
    "country": "PT",
    "lat": 40.64575,
    "lng": -8.64643
  },
  {
    "name": "Avanca",
    "country": "PT",
    "lat": 40.80771,
    "lng": -8.5722
  },
  {
    "name": "Avrig",
    "country": "RO",
    "lat": 45.71667,
    "lng": 24.38333
  },
  {
    "name": "Avram Iancu",
    "country": "RO",
    "lat": 46.38333,
    "lng": 22.78333
  },
  {
    "name": "Avram Iancu",
    "country": "RO",
    "lat": 46.66944,
    "lng": 21.52417
  },
  {
    "name": "Avrămeşti",
    "country": "RO",
    "lat": 46.33333,
    "lng": 25.01667
  },
  {
    "name": "Avrămeni",
    "country": "RO",
    "lat": 48.01667,
    "lng": 26.95
  },
  {
    "name": "Avtury",
    "country": "RU",
    "lat": 43.16345,
    "lng": 46.00152
  },
  {
    "name": "Avtovo",
    "country": "RU",
    "lat": 59.87167,
    "lng": 30.26583
  },
  {
    "name": "Avsyunino",
    "country": "RU",
    "lat": 55.56516,
    "lng": 39.12324
  },
  {
    "name": "Avdon",
    "country": "RU",
    "lat": 54.66667,
    "lng": 55.71667
  },
  {
    "name": "Avtopoligon",
    "country": "RU",
    "lat": 56.34984,
    "lng": 37.32296
  },
  {
    "name": "Avesta",
    "country": "SE",
    "lat": 60.14274,
    "lng": 16.16295
  },
  {
    "name": "Avzikent",
    "country": "TJ",
    "lat": 37.80333,
    "lng": 69.27722
  },
  {
    "name": "Avine",
    "country": "TR",
    "lat": 37.57373,
    "lng": 40.73252
  },
  {
    "name": "Avsuyu",
    "country": "TR",
    "lat": 36.19355,
    "lng": 36.31347
  },
  {
    "name": "Avsallar",
    "country": "TR",
    "lat": 36.62448,
    "lng": 31.76941
  },
  {
    "name": "Avanos",
    "country": "TR",
    "lat": 38.715,
    "lng": 34.84667
  },
  {
    "name": "Avhustivka",
    "country": "UA",
    "lat": 46.63989,
    "lng": 30.64891
  },
  {
    "name": "Avdiivka",
    "country": "UA",
    "lat": 51.7766,
    "lng": 32.79988
  },
  {
    "name": "Avdiivka",
    "country": "UA",
    "lat": 48.14019,
    "lng": 37.75008
  },
  {
    "name": "Avanhard",
    "country": "UA",
    "lat": 46.46871,
    "lng": 30.61551
  },
  {
    "name": "Aviatorske",
    "country": "UA",
    "lat": 48.36844,
    "lng": 35.08028
  },
  {
    "name": "Aventura",
    "country": "US",
    "lat": 25.95648,
    "lng": -80.13921
  },
  {
    "name": "Avon Park",
    "country": "US",
    "lat": 27.59587,
    "lng": -81.50619
  },
  {
    "name": "Avondale Estates",
    "country": "US",
    "lat": 33.77149,
    "lng": -84.26714
  },
  {
    "name": "Aviston",
    "country": "US",
    "lat": 38.60672,
    "lng": -89.60759
  },
  {
    "name": "Avon",
    "country": "US",
    "lat": 39.76282,
    "lng": -86.39972
  },
  {
    "name": "Avondale",
    "country": "US",
    "lat": 29.91298,
    "lng": -90.20369
  },
  {
    "name": "Ava",
    "country": "US",
    "lat": 36.952,
    "lng": -92.66045
  },
  {
    "name": "Avery Creek",
    "country": "US",
    "lat": 35.46345,
    "lng": -82.58262
  },
  {
    "name": "Avalon",
    "country": "US",
    "lat": 39.10122,
    "lng": -74.71766
  },
  {
    "name": "Avondale",
    "country": "US",
    "lat": 39.82344,
    "lng": -75.78327
  },
  {
    "name": "Avoca",
    "country": "US",
    "lat": 41.47666,
    "lng": -95.33805
  },
  {
    "name": "Avondale",
    "country": "US",
    "lat": 41.93892,
    "lng": -87.71117
  },
  {
    "name": "Avilla",
    "country": "US",
    "lat": 41.36588,
    "lng": -85.23886
  },
  {
    "name": "Avon",
    "country": "US",
    "lat": 42.13066,
    "lng": -71.04116
  },
  {
    "name": "Avoca",
    "country": "US",
    "lat": 43.06197,
    "lng": -82.69104
  },
  {
    "name": "Avon",
    "country": "US",
    "lat": 45.60913,
    "lng": -94.45167
  },
  {
    "name": "Avenel",
    "country": "US",
    "lat": 40.58038,
    "lng": -74.28515
  },
  {
    "name": "Avon-by-the-Sea",
    "country": "US",
    "lat": 40.19234,
    "lng": -74.01597
  },
  {
    "name": "Averill Park",
    "country": "US",
    "lat": 42.63397,
    "lng": -73.55373
  },
  {
    "name": "Avon",
    "country": "US",
    "lat": 42.91201,
    "lng": -77.74556
  },
  {
    "name": "Avon",
    "country": "US",
    "lat": 41.45171,
    "lng": -82.03542
  },
  {
    "name": "Avon Center",
    "country": "US",
    "lat": 41.45976,
    "lng": -82.01959
  },
  {
    "name": "Avon Lake",
    "country": "US",
    "lat": 41.50532,
    "lng": -82.0282
  },
  {
    "name": "Avalon",
    "country": "US",
    "lat": 40.5009,
    "lng": -80.06756
  },
  {
    "name": "Avis",
    "country": "US",
    "lat": 41.18479,
    "lng": -77.31386
  },
  {
    "name": "Avoca",
    "country": "US",
    "lat": 41.3398,
    "lng": -75.7363
  },
  {
    "name": "Avon",
    "country": "US",
    "lat": 40.34565,
    "lng": -76.38996
  },
  {
    "name": "Avonia",
    "country": "US",
    "lat": 42.04561,
    "lng": -80.26979
  },
  {
    "name": "Avon",
    "country": "US",
    "lat": 41.80982,
    "lng": -72.83065
  },
  {
    "name": "Avalon",
    "country": "US",
    "lat": 33.34281,
    "lng": -118.32785
  },
  {
    "name": "Avenal",
    "country": "US",
    "lat": 36.00412,
    "lng": -120.12903
  },
  {
    "name": "Avila Beach",
    "country": "US",
    "lat": 35.17998,
    "lng": -120.73184
  },
  {
    "name": "Avocado Heights",
    "country": "US",
    "lat": 34.03612,
    "lng": -117.99118
  },
  {
    "name": "Avon",
    "country": "US",
    "lat": 39.63137,
    "lng": -106.52225
  },
  {
    "name": "Avondale",
    "country": "US",
    "lat": 33.4356,
    "lng": -112.3496
  },
  {
    "name": "Avra Valley",
    "country": "US",
    "lat": 32.43785,
    "lng": -111.31539
  },
  {
    "name": "Avenue B and C",
    "country": "US",
    "lat": 32.71904,
    "lng": -114.66005
  }
]