[
  {
    "name": "Awirs",
    "country": "BE",
    "lat": 50.60014,
    "lng": 5.40627
  },
  {
    "name": "Awans",
    "country": "BE",
    "lat": 50.66774,
    "lng": 5.46329
  },
  {
    "name": "Awahikro",
    "country": "CI",
    "lat": 8.30037,
    "lng": -3.95188
  },
  {
    "name": "Awalézo",
    "country": "CI",
    "lat": 5.54602,
    "lng": -5.20729
  },
  {
    "name": "Awat",
    "country": "CN",
    "lat": 40.64092,
    "lng": 80.39151
  },
  {
    "name": "Awancang",
    "country": "CN",
    "lat": 33.77093,
    "lng": 101.69716
  },
  {
    "name": "Awu",
    "country": "CN",
    "lat": 34.28654,
    "lng": 104.14893
  },
  {
    "name": "Awati",
    "country": "CN",
    "lat": 38.60838,
    "lng": 77.3964
  },
  {
    "name": "Awuliya",
    "country": "CN",
    "lat": 43.93033,
    "lng": 81.69317
  },
  {
    "name": "Awsīm",
    "country": "EG",
    "lat": 30.12303,
    "lng": 31.13571
  },
  {
    "name": "Awlād Şaqr",
    "country": "EG",
    "lat": 30.93055,
    "lng": 31.69864
  },
  {
    "name": "Awasa",
    "country": "ET",
    "lat": 7.06205,
    "lng": 38.47635
  },
  {
    "name": "Awsworth",
    "country": "GB",
    "lat": 52.98912,
    "lng": -1.28354
  },
  {
    "name": "Awala-Yalimapo",
    "country": "GF",
    "lat": 5.73636,
    "lng": -53.90869
  },
  {
    "name": "Awoshi",
    "country": "GH",
    "lat": 5.58385,
    "lng": -0.27787
  },
  {
    "name": "Awayan",
    "country": "ID",
    "lat": -2.4622,
    "lng": 115.6538
  },
  {
    "name": "Awantipur",
    "country": "IN",
    "lat": 33.91978,
    "lng": 75.01515
  },
  {
    "name": "Awara",
    "country": "JP",
    "lat": 36.22309,
    "lng": 136.19236
  },
  {
    "name": "Awano",
    "country": "JP",
    "lat": 35.35,
    "lng": 137.8
  },
  {
    "name": "Awa",
    "country": "JP",
    "lat": 34.09205,
    "lng": 134.28452
  },
  {
    "name": "Awaji",
    "country": "JP",
    "lat": 34.47769,
    "lng": 134.93065
  },
  {
    "name": "Awendo",
    "country": "KE",
    "lat": -0.90711,
    "lng": 34.52895
  },
  {
    "name": "Awasi",
    "country": "KE",
    "lat": -0.16769,
    "lng": 35.08239
  },
  {
    "name": "Awendo",
    "country": "KE",
    "lat": -0.5,
    "lng": 34.4
  },
  {
    "name": "Awjilah",
    "country": "LY",
    "lat": 29.10806,
    "lng": 21.28694
  },
  {
    "name": "Awo-Idemili",
    "country": "NG",
    "lat": 5.82648,
    "lng": 6.93374
  },
  {
    "name": "Awo",
    "country": "NG",
    "lat": 7.76767,
    "lng": 4.39528
  },
  {
    "name": "Awka",
    "country": "NG",
    "lat": 6.21269,
    "lng": 7.07199
  },
  {
    "name": "Awgu",
    "country": "NG",
    "lat": 6.07278,
    "lng": 7.47739
  },
  {
    "name": "Awe",
    "country": "NG",
    "lat": 8.10445,
    "lng": 9.14011
  },
  {
    "name": "Awarua Plains",
    "country": "NZ",
    "lat": -46.48333,
    "lng": 168.38333
  },
  {
    "name": "Awakeri",
    "country": "NZ",
    "lat": -38.0,
    "lng": 176.9
  },
  {
    "name": "Awapuni",
    "country": "NZ",
    "lat": -40.37624,
    "lng": 175.58384
  },
  {
    "name": "Awang",
    "country": "PH",
    "lat": 7.15306,
    "lng": 124.22111
  },
  {
    "name": "Awallan",
    "country": "PH",
    "lat": 17.92439,
    "lng": 121.91305
  },
  {
    "name": "Awaran",
    "country": "PK",
    "lat": 26.45677,
    "lng": 65.23144
  },
  {
    "name": "Aweil",
    "country": "SS",
    "lat": 8.76194,
    "lng": 27.39194
  },
  {
    "name": "Awendaw",
    "country": "US",
    "lat": 33.03767,
    "lng": -79.61313
  }
]