[
  {
    "name": "Axams",
    "country": "AT",
    "lat": 47.23111,
    "lng": 11.27892
  },
  {
    "name": "Axixá do Tocantins",
    "country": "BR",
    "lat": -5.6145,
    "lng": -47.76884
  },
  {
    "name": "Axixá",
    "country": "BR",
    "lat": -2.83694,
    "lng": -44.05333
  },
  {
    "name": "Axixá do Tocantins",
    "country": "BR",
    "lat": -5.61639,
    "lng": -47.78611
  },
  {
    "name": "Axia",
    "country": "CN",
    "lat": 33.82122,
    "lng": 103.75009
  },
  {
    "name": "Axstedt",
    "country": "DE",
    "lat": 53.35466,
    "lng": 8.77485
  },
  {
    "name": "Axpe-San Bartolome",
    "country": "ES",
    "lat": 43.38355,
    "lng": -2.69772
  },
  {
    "name": "Ax-les-Thermes",
    "country": "FR",
    "lat": 42.72016,
    "lng": 1.83937
  },
  {
    "name": "Axminster",
    "country": "GB",
    "lat": 50.78259,
    "lng": -2.99787
  },
  {
    "name": "Axbridge",
    "country": "GB",
    "lat": 51.28466,
    "lng": -2.82078
  },
  {
    "name": "Axós",
    "country": "GR",
    "lat": 40.80223,
    "lng": 22.36158
  },
  {
    "name": "Axioúpoli",
    "country": "GR",
    "lat": 40.98582,
    "lng": 22.54165
  },
  {
    "name": "Axutla",
    "country": "MX",
    "lat": 18.18938,
    "lng": -98.38935
  },
  {
    "name": "Axochío",
    "country": "MX",
    "lat": 18.37175,
    "lng": -95.29985
  },
  {
    "name": "Axochiapan",
    "country": "MX",
    "lat": 18.50246,
    "lng": -98.75358
  },
  {
    "name": "Axixintla",
    "country": "MX",
    "lat": 18.60222,
    "lng": -99.51806
  },
  {
    "name": "Axapusco",
    "country": "MX",
    "lat": 19.72456,
    "lng": -98.75863
  },
  {
    "name": "Axtla de Terrazas",
    "country": "MX",
    "lat": 21.43923,
    "lng": -98.87508
  },
  {
    "name": "Axuxco",
    "country": "MX",
    "lat": 18.23045,
    "lng": -97.20739
  },
  {
    "name": "Axaxacualco",
    "country": "MX",
    "lat": 17.80387,
    "lng": -99.46175
  },
  {
    "name": "Axotlán",
    "country": "MX",
    "lat": 19.69417,
    "lng": -99.23944
  },
  {
    "name": "Axel",
    "country": "NL",
    "lat": 51.26667,
    "lng": 3.90833
  },
  {
    "name": "Axintele",
    "country": "RO",
    "lat": 44.6,
    "lng": 26.78333
  },
  {
    "name": "Axente Sever",
    "country": "RO",
    "lat": 46.1,
    "lng": 24.21667
  },
  {
    "name": "Axvall",
    "country": "SE",
    "lat": 58.38333,
    "lng": 13.56667
  }
]