[
  {
    "name": "Bjni",
    "country": "AM",
    "lat": 40.45382,
    "lng": 44.64841
  },
  {
    "name": "Bjæverskov",
    "country": "DK",
    "lat": 55.45756,
    "lng": 12.03651
  },
  {
    "name": "Bjerringbro",
    "country": "DK",
    "lat": 56.37797,
    "lng": 9.66065
  },
  {
    "name": "Bjelovar",
    "country": "HR",
    "lat": 45.89789,
    "lng": 16.85071
  },
  {
    "name": "Bjørnevatn",
    "country": "NO",
    "lat": 69.66745,
    "lng": 29.98722
  },
  {
    "name": "Bjørkelangen",
    "country": "NO",
    "lat": 59.88357,
    "lng": 11.56396
  },
  {
    "name": "Bjerkvik",
    "country": "NO",
    "lat": 68.54917,
    "lng": 17.55709
  },
  {
    "name": "Björklinge",
    "country": "SE",
    "lat": 60.03004,
    "lng": 17.55203
  },
  {
    "name": "Bjuv",
    "country": "SE",
    "lat": 56.08372,
    "lng": 12.91914
  },
  {
    "name": "Bjursås",
    "country": "SE",
    "lat": 60.73726,
    "lng": 15.45291
  },
  {
    "name": "Bjurholm",
    "country": "SE",
    "lat": 63.93027,
    "lng": 19.21369
  },
  {
    "name": "Björneborg",
    "country": "SE",
    "lat": 59.24122,
    "lng": 14.24942
  },
  {
    "name": "Björlanda",
    "country": "SE",
    "lat": 57.76667,
    "lng": 11.83333
  },
  {
    "name": "Björkö",
    "country": "SE",
    "lat": 57.73221,
    "lng": 11.67916
  },
  {
    "name": "Björboholm",
    "country": "SE",
    "lat": 57.87096,
    "lng": 12.32546
  },
  {
    "name": "Bjästa",
    "country": "SE",
    "lat": 63.2,
    "lng": 18.5
  },
  {
    "name": "Bjärred",
    "country": "SE",
    "lat": 55.71667,
    "lng": 13.01667
  },
  {
    "name": "Bjärnum",
    "country": "SE",
    "lat": 56.29032,
    "lng": 13.71128
  },
  {
    "name": "Björkskatan",
    "country": "SE",
    "lat": 65.61373,
    "lng": 22.17702
  }
]