[
  {
    "name": "Blowing Point Village",
    "country": "AI",
    "lat": 18.17648,
    "lng": -63.09375
  },
  {
    "name": "Blinisht",
    "country": "AL",
    "lat": 41.86139,
    "lng": 20.0
  },
  {
    "name": "Blerim",
    "country": "AL",
    "lat": 42.16056,
    "lng": 20.19194
  },
  {
    "name": "Bludesch",
    "country": "AT",
    "lat": 47.2,
    "lng": 9.73306
  },
  {
    "name": "Bludenz",
    "country": "AT",
    "lat": 47.15476,
    "lng": 9.82255
  },
  {
    "name": "Blons",
    "country": "AT",
    "lat": 47.22327,
    "lng": 9.83414
  },
  {
    "name": "Blindenmarkt",
    "country": "AT",
    "lat": 48.12749,
    "lng": 14.98647
  },
  {
    "name": "Bleiburg/Pliberk",
    "country": "AT",
    "lat": 46.59,
    "lng": 14.79889
  },
  {
    "name": "Blaindorf",
    "country": "AT",
    "lat": 47.17498,
    "lng": 15.86795
  },
  {
    "name": "Blackwood",
    "country": "AU",
    "lat": -35.02139,
    "lng": 138.61429
  },
  {
    "name": "Bli Bli",
    "country": "AU",
    "lat": -26.61724,
    "lng": 153.03665
  },
  {
    "name": "Blayney",
    "country": "AU",
    "lat": -33.53233,
    "lng": 149.25367
  },
  {
    "name": "Blaxland",
    "country": "AU",
    "lat": -33.75,
    "lng": 150.6
  },
  {
    "name": "Blair Athol",
    "country": "AU",
    "lat": -30.65,
    "lng": 150.2
  },
  {
    "name": "Blackwater",
    "country": "AU",
    "lat": -23.58351,
    "lng": 148.87912
  },
  {
    "name": "Blackwall",
    "country": "AU",
    "lat": -33.50252,
    "lng": 151.32786
  },
  {
    "name": "Blacktown",
    "country": "AU",
    "lat": -33.76667,
    "lng": 150.91667
  },
  {
    "name": "Blacks Beach",
    "country": "AU",
    "lat": -21.05466,
    "lng": 149.18971
  },
  {
    "name": "Blackmans Bay",
    "country": "AU",
    "lat": -43.00311,
    "lng": 147.31694
  },
  {
    "name": "Black Hill",
    "country": "AU",
    "lat": -37.55,
    "lng": 143.86667
  },
  {
    "name": "Blackheath",
    "country": "AU",
    "lat": -33.63567,
    "lng": 150.28318
  },
  {
    "name": "Blackall",
    "country": "AU",
    "lat": -24.42327,
    "lng": 145.46303
  },
  {
    "name": "Blakehurst",
    "country": "AU",
    "lat": -33.99152,
    "lng": 151.10876
  },
  {
    "name": "Blairgowrie",
    "country": "AU",
    "lat": -38.36131,
    "lng": 144.77955
  },
  {
    "name": "Blair Athol",
    "country": "AU",
    "lat": -34.85889,
    "lng": 138.59656
  },
  {
    "name": "Blackburn",
    "country": "AU",
    "lat": -37.81901,
    "lng": 145.15326
  },
  {
    "name": "Blackburn North",
    "country": "AU",
    "lat": -37.80931,
    "lng": 145.1518
  },
  {
    "name": "Blackburn South",
    "country": "AU",
    "lat": -37.83975,
    "lng": 145.15549
  },
  {
    "name": "Black Rock",
    "country": "AU",
    "lat": -37.97357,
    "lng": 145.01636
  },
  {
    "name": "Blue Haven",
    "country": "AU",
    "lat": -33.21106,
    "lng": 151.50351
  },
  {
    "name": "Blackalls Park",
    "country": "AU",
    "lat": -32.99893,
    "lng": 151.58018
  },
  {
    "name": "Bluff Point",
    "country": "AU",
    "lat": -28.7374,
    "lng": 114.62278
  },
  {
    "name": "Black Forest",
    "country": "AU",
    "lat": -34.96028,
    "lng": 138.57668
  },
  {
    "name": "Blind Bight",
    "country": "AU",
    "lat": -38.21427,
    "lng": 145.3377
  },
  {
    "name": "Blakeview",
    "country": "AU",
    "lat": -34.67566,
    "lng": 138.7101
  },
  {
    "name": "Blue Bay",
    "country": "AU",
    "lat": -33.35413,
    "lng": 151.50024
  },
  {
    "name": "Bligh Park",
    "country": "AU",
    "lat": -33.63985,
    "lng": 150.80248
  },
  {
    "name": "Blackstone Heights",
    "country": "AU",
    "lat": -41.45977,
    "lng": 147.08407
  },
  {
    "name": "Blackbutt",
    "country": "AU",
    "lat": -34.57164,
    "lng": 150.83804
  },
  {
    "name": "Blair Athol",
    "country": "AU",
    "lat": -34.0621,
    "lng": 150.80144
  },
  {
    "name": "Bluewater",
    "country": "AU",
    "lat": -19.18157,
    "lng": 146.5582
  },
  {
    "name": "Blacksmiths",
    "country": "AU",
    "lat": -33.07167,
    "lng": 151.65533
  },
  {
    "name": "Blackett",
    "country": "AU",
    "lat": -33.73792,
    "lng": 150.81812
  },
  {
    "name": "Black Mountain",
    "country": "AU",
    "lat": -26.39886,
    "lng": 152.87561
  },
  {
    "name": "Black River",
    "country": "AU",
    "lat": -19.22517,
    "lng": 146.61787
  },
  {
    "name": "Blatnica",
    "country": "BA",
    "lat": 44.48677,
    "lng": 17.82278
  },
  {
    "name": "Blagaj",
    "country": "BA",
    "lat": 43.25892,
    "lng": 17.88815
  },
  {
    "name": "Bléharies",
    "country": "BE",
    "lat": 50.51256,
    "lng": 3.41251
  },
  {
    "name": "Blégny",
    "country": "BE",
    "lat": 50.67255,
    "lng": 5.72508
  },
  {
    "name": "Blauwput",
    "country": "BE",
    "lat": 50.88587,
    "lng": 4.72415
  },
  {
    "name": "Blaugies",
    "country": "BE",
    "lat": 50.37218,
    "lng": 3.80582
  },
  {
    "name": "Blaton",
    "country": "BE",
    "lat": 50.50038,
    "lng": 3.66008
  },
  {
    "name": "Blankenberge",
    "country": "BE",
    "lat": 51.31306,
    "lng": 3.13227
  },
  {
    "name": "Blanden",
    "country": "BE",
    "lat": 50.82622,
    "lng": 4.71022
  },
  {
    "name": "Blaasveld",
    "country": "BE",
    "lat": 51.05585,
    "lng": 4.37668
  },
  {
    "name": "Blagoevgrad",
    "country": "BG",
    "lat": 42.01457,
    "lng": 23.09804
  },
  {
    "name": "Blumenau",
    "country": "BR",
    "lat": -26.91944,
    "lng": -49.06611
  },
  {
    "name": "Black Point",
    "country": "BS",
    "lat": 24.1,
    "lng": -76.38333
  },
  {
    "name": "Blon’",
    "country": "BY",
    "lat": 53.5269,
    "lng": 28.1732
  },
  {
    "name": "Blackburn Hamlet",
    "country": "CA",
    "lat": 45.43671,
    "lng": -75.56462
  },
  {
    "name": "Black Diamond",
    "country": "CA",
    "lat": 50.68771,
    "lng": -114.23241
  },
  {
    "name": "Blackfalds",
    "country": "CA",
    "lat": 52.38342,
    "lng": -113.7853
  },
  {
    "name": "Blainville",
    "country": "CA",
    "lat": 45.66678,
    "lng": -73.88249
  },
  {
    "name": "Blairmore",
    "country": "CA",
    "lat": 49.60002,
    "lng": -114.4353
  },
  {
    "name": "Blind Bay",
    "country": "CA",
    "lat": 50.88311,
    "lng": -119.38569
  },
  {
    "name": "Blind River",
    "country": "CA",
    "lat": 46.18336,
    "lng": -82.95817
  },
  {
    "name": "Blueridge",
    "country": "CA",
    "lat": 49.32917,
    "lng": -122.99167
  },
  {
    "name": "Bluewater",
    "country": "CA",
    "lat": 43.46679,
    "lng": -81.59977
  },
  {
    "name": "Blake-Jones",
    "country": "CA",
    "lat": 43.67617,
    "lng": -79.33739
  },
  {
    "name": "Black Creek",
    "country": "CA",
    "lat": 43.76489,
    "lng": -79.52198
  },
  {
    "name": "Blundell",
    "country": "CA",
    "lat": 49.15531,
    "lng": -123.15706
  },
  {
    "name": "Blumenstein",
    "country": "CH",
    "lat": 46.7421,
    "lng": 7.52136
  },
  {
    "name": "Blonay",
    "country": "CH",
    "lat": 46.46778,
    "lng": 6.89615
  },
  {
    "name": "Blécherette",
    "country": "CH",
    "lat": 46.53932,
    "lng": 6.62227
  },
  {
    "name": "Blotilé",
    "country": "CI",
    "lat": 7.04902,
    "lng": -7.69201
  },
  {
    "name": "Bloleu",
    "country": "CI",
    "lat": 6.87043,
    "lng": -8.27073
  },
  {
    "name": "Bloléquin",
    "country": "CI",
    "lat": 6.56913,
    "lng": -8.00253
  },
  {
    "name": "Blolé",
    "country": "CI",
    "lat": 7.31877,
    "lng": -7.51321
  },
  {
    "name": "Blodi",
    "country": "CI",
    "lat": 6.79396,
    "lng": -7.2972
  },
  {
    "name": "Blinleu",
    "country": "CI",
    "lat": 7.04997,
    "lng": -8.10786
  },
  {
    "name": "Blésségue",
    "country": "CI",
    "lat": 10.19833,
    "lng": -6.40778
  },
  {
    "name": "Blésséoua",
    "country": "CI",
    "lat": 6.24477,
    "lng": -6.46216
  },
  {
    "name": "Blépleu",
    "country": "CI",
    "lat": 7.39013,
    "lng": -7.82972
  },
  {
    "name": "Blékoum",
    "country": "CI",
    "lat": 6.39068,
    "lng": -3.53685
  },
  {
    "name": "Blékoua",
    "country": "CI",
    "lat": 6.32364,
    "lng": -5.64239
  },
  {
    "name": "Blédiéméné",
    "country": "CI",
    "lat": 9.76917,
    "lng": -6.58417
  },
  {
    "name": "Blédi Diéya",
    "country": "CI",
    "lat": 6.58627,
    "lng": -8.06722
  },
  {
    "name": "Blédi",
    "country": "CI",
    "lat": 7.49894,
    "lng": -5.09463
  },
  {
    "name": "Bléanianda",
    "country": "CI",
    "lat": 6.3072,
    "lng": -5.70499
  },
  {
    "name": "Blawara",
    "country": "CI",
    "lat": 9.49843,
    "lng": -5.72837
  },
  {
    "name": "Blapleu",
    "country": "CI",
    "lat": 7.63918,
    "lng": -7.73705
  },
  {
    "name": "Blanoufla",
    "country": "CI",
    "lat": 6.79583,
    "lng": -6.03671
  },
  {
    "name": "Blonleu",
    "country": "CI",
    "lat": 7.12843,
    "lng": -8.06468
  },
  {
    "name": "Bloteu",
    "country": "CI",
    "lat": 7.2612,
    "lng": -7.80331
  },
  {
    "name": "Blagouin",
    "country": "CI",
    "lat": 7.69521,
    "lng": -7.70049
  },
  {
    "name": "Bla",
    "country": "CI",
    "lat": 6.72663,
    "lng": -6.47568
  },
  {
    "name": "Bloma",
    "country": "CI",
    "lat": 7.80638,
    "lng": -8.05912
  },
  {
    "name": "Blenfla",
    "country": "CI",
    "lat": 6.85648,
    "lng": -5.76379
  },
  {
    "name": "Blaguiéhi",
    "country": "CI",
    "lat": 6.95799,
    "lng": -7.66503
  },
  {
    "name": "Bléniméouin",
    "country": "CI",
    "lat": 7.13333,
    "lng": -7.18333
  },
  {
    "name": "Bloho",
    "country": "CI",
    "lat": 4.88198,
    "lng": -7.02052
  },
  {
    "name": "Blagbanié",
    "country": "CI",
    "lat": 5.35286,
    "lng": -6.58816
  },
  {
    "name": "Blédouagui",
    "country": "CI",
    "lat": 5.65583,
    "lng": -6.76744
  },
  {
    "name": "Blahou",
    "country": "CI",
    "lat": 4.93107,
    "lng": -6.55781
  },
  {
    "name": "Bléoulékro",
    "country": "CI",
    "lat": 5.17531,
    "lng": -2.94004
  },
  {
    "name": "Blita",
    "country": "CI",
    "lat": 7.52791,
    "lng": -7.94613
  },
  {
    "name": "Blablata",
    "country": "CI",
    "lat": 7.28616,
    "lng": -6.2456
  },
  {
    "name": "Blé",
    "country": "CI",
    "lat": 6.82036,
    "lng": -5.85306
  },
  {
    "name": "Blagounon",
    "country": "CI",
    "lat": 9.75622,
    "lng": -6.16507
  },
  {
    "name": "Blangwa",
    "country": "CM",
    "lat": 12.77515,
    "lng": 14.55328
  },
  {
    "name": "Bludov",
    "country": "CZ",
    "lat": 49.9408,
    "lng": 16.92849
  },
  {
    "name": "Blučina",
    "country": "CZ",
    "lat": 49.05497,
    "lng": 16.6445
  },
  {
    "name": "Blovice",
    "country": "CZ",
    "lat": 49.5822,
    "lng": 13.54009
  },
  {
    "name": "Blížkovice",
    "country": "CZ",
    "lat": 48.99976,
    "lng": 15.83482
  },
  {
    "name": "Blížejov",
    "country": "CZ",
    "lat": 49.5,
    "lng": 12.98926
  },
  {
    "name": "Blažovice",
    "country": "CZ",
    "lat": 49.16569,
    "lng": 16.78611
  },
  {
    "name": "Blatnice pod Svatým Antonínkem",
    "country": "CZ",
    "lat": 48.94714,
    "lng": 17.46401
  },
  {
    "name": "Blatná",
    "country": "CZ",
    "lat": 49.42489,
    "lng": 13.88176
  },
  {
    "name": "Blansko",
    "country": "CZ",
    "lat": 49.36304,
    "lng": 16.64446
  },
  {
    "name": "Blumberg",
    "country": "DE",
    "lat": 47.84058,
    "lng": 8.53329
  },
  {
    "name": "Blowatz",
    "country": "DE",
    "lat": 53.98972,
    "lng": 11.5336
  },
  {
    "name": "Blomberg",
    "country": "DE",
    "lat": 51.94331,
    "lng": 9.09067
  },
  {
    "name": "Blomberg",
    "country": "DE",
    "lat": 53.57678,
    "lng": 7.55824
  },
  {
    "name": "Blindheim",
    "country": "DE",
    "lat": 48.63138,
    "lng": 10.61992
  },
  {
    "name": "Blieskastel",
    "country": "DE",
    "lat": 49.23724,
    "lng": 7.25617
  },
  {
    "name": "Bliesdorf",
    "country": "DE",
    "lat": 52.69298,
    "lng": 14.15949
  },
  {
    "name": "Bliedersdorf",
    "country": "DE",
    "lat": 53.48229,
    "lng": 9.57063
  },
  {
    "name": "Blender",
    "country": "DE",
    "lat": 52.91667,
    "lng": 9.13333
  },
  {
    "name": "Blekendorf",
    "country": "DE",
    "lat": 54.28211,
    "lng": 10.6582
  },
  {
    "name": "Bleicherode",
    "country": "DE",
    "lat": 51.44026,
    "lng": 10.57202
  },
  {
    "name": "Bleialf",
    "country": "DE",
    "lat": 50.23333,
    "lng": 6.28333
  },
  {
    "name": "Bleckede",
    "country": "DE",
    "lat": 53.28972,
    "lng": 10.73372
  },
  {
    "name": "Blaufelden",
    "country": "DE",
    "lat": 49.29778,
    "lng": 9.97389
  },
  {
    "name": "Blaubeuren",
    "country": "DE",
    "lat": 48.41215,
    "lng": 9.78427
  },
  {
    "name": "Blasewitz",
    "country": "DE",
    "lat": 51.05305,
    "lng": 13.79831
  },
  {
    "name": "Blankensee",
    "country": "DE",
    "lat": 53.4039,
    "lng": 13.26836
  },
  {
    "name": "Blankenrath",
    "country": "DE",
    "lat": 50.03898,
    "lng": 7.30214
  },
  {
    "name": "Blankenheim",
    "country": "DE",
    "lat": 51.50717,
    "lng": 11.42878
  },
  {
    "name": "Blankenheim",
    "country": "DE",
    "lat": 50.43333,
    "lng": 6.65
  },
  {
    "name": "Blankenhain",
    "country": "DE",
    "lat": 50.85993,
    "lng": 11.3439
  },
  {
    "name": "Blankenfelde",
    "country": "DE",
    "lat": 52.61863,
    "lng": 13.39057
  },
  {
    "name": "Blankenfelde",
    "country": "DE",
    "lat": 52.33722,
    "lng": 13.41205
  },
  {
    "name": "Blankenese",
    "country": "DE",
    "lat": 53.55698,
    "lng": 9.8059
  },
  {
    "name": "Blankenburg",
    "country": "DE",
    "lat": 52.59293,
    "lng": 13.45516
  },
  {
    "name": "Blankenburg",
    "country": "DE",
    "lat": 51.79025,
    "lng": 10.95509
  },
  {
    "name": "Blaichach",
    "country": "DE",
    "lat": 47.54208,
    "lng": 10.25846
  },
  {
    "name": "Blaibach",
    "country": "DE",
    "lat": 49.16667,
    "lng": 12.81667
  },
  {
    "name": "Blankenbach",
    "country": "DE",
    "lat": 50.06667,
    "lng": 9.23333
  },
  {
    "name": "Blankenfelde-Mahlow",
    "country": "DE",
    "lat": 52.33645,
    "lng": 13.41316
  },
  {
    "name": "Blovstrød",
    "country": "DK",
    "lat": 55.87038,
    "lng": 12.3864
  },
  {
    "name": "Blida",
    "country": "DZ",
    "lat": 36.47004,
    "lng": 2.8277
  },
  {
    "name": "Blanca",
    "country": "ES",
    "lat": 38.1791,
    "lng": -1.37473
  },
  {
    "name": "Bliecos",
    "country": "ES",
    "lat": 41.5279,
    "lng": -2.27135
  },
  {
    "name": "Blesa",
    "country": "ES",
    "lat": 41.0515,
    "lng": -0.885
  },
  {
    "name": "Blascosancho",
    "country": "ES",
    "lat": 40.87744,
    "lng": -4.63743
  },
  {
    "name": "Blascomillán",
    "country": "ES",
    "lat": 40.80146,
    "lng": -5.08703
  },
  {
    "name": "Blanes",
    "country": "ES",
    "lat": 41.67419,
    "lng": 2.79036
  },
  {
    "name": "Blancos",
    "country": "ES",
    "lat": 41.99652,
    "lng": -7.75175
  },
  {
    "name": "Blancas",
    "country": "ES",
    "lat": 40.81392,
    "lng": -1.48208
  },
  {
    "name": "Blacos",
    "country": "ES",
    "lat": 41.6809,
    "lng": -2.85826
  },
  {
    "name": "Blancafort",
    "country": "ES",
    "lat": 41.4374,
    "lng": 1.15983
  },
  {
    "name": "Blimea",
    "country": "ES",
    "lat": 43.27247,
    "lng": -5.58984
  },
  {
    "name": "Blaye",
    "country": "FR",
    "lat": 45.12764,
    "lng": -0.66225
  },
  {
    "name": "Blotzheim",
    "country": "FR",
    "lat": 47.6026,
    "lng": 7.49654
  },
  {
    "name": "Blonville-sur-Mer",
    "country": "FR",
    "lat": 49.33709,
    "lng": 0.02709
  },
  {
    "name": "Blois",
    "country": "FR",
    "lat": 47.59432,
    "lng": 1.32912
  },
  {
    "name": "Blodelsheim",
    "country": "FR",
    "lat": 47.88538,
    "lng": 7.53635
  },
  {
    "name": "Bligny-lès-Beaune",
    "country": "FR",
    "lat": 46.98631,
    "lng": 4.8262
  },
  {
    "name": "Bliesbruck",
    "country": "FR",
    "lat": 49.11543,
    "lng": 7.18112
  },
  {
    "name": "Bletterans",
    "country": "FR",
    "lat": 46.74673,
    "lng": 5.45444
  },
  {
    "name": "Bléré",
    "country": "FR",
    "lat": 47.32738,
    "lng": 0.99186
  },
  {
    "name": "Blérancourt",
    "country": "FR",
    "lat": 49.51667,
    "lng": 3.15
  },
  {
    "name": "Blénod-lès-Toul",
    "country": "FR",
    "lat": 48.59882,
    "lng": 5.83685
  },
  {
    "name": "Blénod-lès-Pont-à-Mousson",
    "country": "FR",
    "lat": 48.88487,
    "lng": 6.04844
  },
  {
    "name": "Bléneau",
    "country": "FR",
    "lat": 47.7,
    "lng": 2.95
  },
  {
    "name": "Blendecques",
    "country": "FR",
    "lat": 50.71843,
    "lng": 2.28601
  },
  {
    "name": "Blaye-les-Mines",
    "country": "FR",
    "lat": 44.03072,
    "lng": 2.13129
  },
  {
    "name": "Blavozy",
    "country": "FR",
    "lat": 45.0572,
    "lng": 3.97993
  },
  {
    "name": "Blauzac",
    "country": "FR",
    "lat": 43.96305,
    "lng": 4.36749
  },
  {
    "name": "Blausasc",
    "country": "FR",
    "lat": 43.80572,
    "lng": 7.36477
  },
  {
    "name": "Blaringhem",
    "country": "FR",
    "lat": 50.6911,
    "lng": 2.40321
  },
  {
    "name": "Blanzy",
    "country": "FR",
    "lat": 46.70012,
    "lng": 4.38833
  },
  {
    "name": "Blanzat",
    "country": "FR",
    "lat": 45.82975,
    "lng": 3.07794
  },
  {
    "name": "Blanquefort",
    "country": "FR",
    "lat": 44.91065,
    "lng": -0.63758
  },
  {
    "name": "Blangy-sur-Bresle",
    "country": "FR",
    "lat": 49.93211,
    "lng": 1.62514
  },
  {
    "name": "Blancafort",
    "country": "FR",
    "lat": 47.53219,
    "lng": 2.52981
  },
  {
    "name": "Blamont",
    "country": "FR",
    "lat": 47.38513,
    "lng": 6.848
  },
  {
    "name": "Blaison-Gohier",
    "country": "FR",
    "lat": 47.39951,
    "lng": -0.37723
  },
  {
    "name": "Blainville-sur-Orne",
    "country": "FR",
    "lat": 49.22913,
    "lng": -0.30061
  },
  {
    "name": "Blainville-sur-Mer",
    "country": "FR",
    "lat": 49.06599,
    "lng": -1.5834
  },
  {
    "name": "Blainville-Crevon",
    "country": "FR",
    "lat": 49.50395,
    "lng": 1.29952
  },
  {
    "name": "Blaincourt-lès-Précy",
    "country": "FR",
    "lat": 49.23333,
    "lng": 2.35
  },
  {
    "name": "Blain",
    "country": "FR",
    "lat": 47.47563,
    "lng": -1.76449
  },
  {
    "name": "Blagny",
    "country": "FR",
    "lat": 49.62167,
    "lng": 5.19194
  },
  {
    "name": "Blagnac",
    "country": "FR",
    "lat": 43.63675,
    "lng": 1.38971
  },
  {
    "name": "Blaesheim",
    "country": "FR",
    "lat": 48.50648,
    "lng": 7.60923
  },
  {
    "name": "Blacé",
    "country": "FR",
    "lat": 46.03152,
    "lng": 4.64448
  },
  {
    "name": "Blyton",
    "country": "GB",
    "lat": 53.44384,
    "lng": -0.71753
  },
  {
    "name": "Blyth",
    "country": "GB",
    "lat": 55.12708,
    "lng": -1.50856
  },
  {
    "name": "Bluntisham",
    "country": "GB",
    "lat": 52.35479,
    "lng": 0.00854
  },
  {
    "name": "Blunham",
    "country": "GB",
    "lat": 52.14695,
    "lng": -0.32178
  },
  {
    "name": "Bloxwich",
    "country": "GB",
    "lat": 52.61806,
    "lng": -2.00431
  },
  {
    "name": "Bloxham",
    "country": "GB",
    "lat": 52.02039,
    "lng": -1.37321
  },
  {
    "name": "Blockley",
    "country": "GB",
    "lat": 52.0122,
    "lng": -1.76268
  },
  {
    "name": "Blisworth",
    "country": "GB",
    "lat": 52.17498,
    "lng": -0.94131
  },
  {
    "name": "Blindley Heath",
    "country": "GB",
    "lat": 51.19344,
    "lng": -0.05116
  },
  {
    "name": "Blidworth",
    "country": "GB",
    "lat": 53.09849,
    "lng": -1.11689
  },
  {
    "name": "Blewbury",
    "country": "GB",
    "lat": 51.5688,
    "lng": -1.23261
  },
  {
    "name": "Bletchley",
    "country": "GB",
    "lat": 51.99334,
    "lng": -0.73471
  },
  {
    "name": "Bletchingley",
    "country": "GB",
    "lat": 51.24059,
    "lng": -0.10038
  },
  {
    "name": "Blean",
    "country": "GB",
    "lat": 51.30679,
    "lng": 1.04301
  },
  {
    "name": "Bleadon",
    "country": "GB",
    "lat": 51.30861,
    "lng": -2.9475
  },
  {
    "name": "Blaydon-on-Tyne",
    "country": "GB",
    "lat": 54.96461,
    "lng": -1.71392
  },
  {
    "name": "Blandford Forum",
    "country": "GB",
    "lat": 50.86073,
    "lng": -2.16174
  },
  {
    "name": "Blairgowrie and Rattray",
    "country": "GB",
    "lat": 56.59157,
    "lng": -3.34045
  },
  {
    "name": "Blagdon",
    "country": "GB",
    "lat": 51.32688,
    "lng": -2.71731
  },
  {
    "name": "Blaenavon",
    "country": "GB",
    "lat": 51.77402,
    "lng": -3.08537
  },
  {
    "name": "Blaenau-Ffestiniog",
    "country": "GB",
    "lat": 52.99464,
    "lng": -3.93697
  },
  {
    "name": "Blackwood",
    "country": "GB",
    "lat": 55.66667,
    "lng": -3.91667
  },
  {
    "name": "Blackwell",
    "country": "GB",
    "lat": 53.11667,
    "lng": -1.33333
  },
  {
    "name": "Blackwall",
    "country": "GB",
    "lat": 51.50971,
    "lng": -0.0016
  },
  {
    "name": "Blackrod",
    "country": "GB",
    "lat": 53.59229,
    "lng": -2.58026
  },
  {
    "name": "Blackpool",
    "country": "GB",
    "lat": 53.81667,
    "lng": -3.05
  },
  {
    "name": "Black Notley",
    "country": "GB",
    "lat": 51.85301,
    "lng": 0.56846
  },
  {
    "name": "Blackburn",
    "country": "GB",
    "lat": 57.20376,
    "lng": -2.28842
  },
  {
    "name": "Blackburn",
    "country": "GB",
    "lat": 55.86667,
    "lng": -3.63333
  },
  {
    "name": "Blackburn",
    "country": "GB",
    "lat": 53.75,
    "lng": -2.48333
  },
  {
    "name": "Blaby",
    "country": "GB",
    "lat": 52.57577,
    "lng": -1.16403
  },
  {
    "name": "Blackwood",
    "country": "GB",
    "lat": 51.66778,
    "lng": -3.2075
  },
  {
    "name": "Blaengwynfi",
    "country": "GB",
    "lat": 51.65623,
    "lng": -3.60371
  },
  {
    "name": "Blackmoorfoot",
    "country": "GB",
    "lat": 53.61423,
    "lng": -1.85588
  },
  {
    "name": "Blackley",
    "country": "GB",
    "lat": 53.51765,
    "lng": -2.21443
  },
  {
    "name": "Blacon",
    "country": "GB",
    "lat": 53.20832,
    "lng": -2.9253
  },
  {
    "name": "Blackheath",
    "country": "GB",
    "lat": 51.4647,
    "lng": 0.0079
  },
  {
    "name": "Blantyre",
    "country": "GB",
    "lat": 55.79634,
    "lng": -4.09485
  },
  {
    "name": "Blackridge",
    "country": "GB",
    "lat": 55.88523,
    "lng": -3.77479
  },
  {
    "name": "Blackheath Westcombe",
    "country": "GB",
    "lat": 51.47471,
    "lng": 0.01669
  },
  {
    "name": "Blato",
    "country": "HR",
    "lat": 42.94083,
    "lng": 16.79167
  },
  {
    "name": "Blato",
    "country": "HR",
    "lat": 42.7625,
    "lng": 17.48222
  },
  {
    "name": "Blangpidie",
    "country": "ID",
    "lat": 3.73956,
    "lng": 96.83608
  },
  {
    "name": "Blangkejeren",
    "country": "ID",
    "lat": 3.9971,
    "lng": 97.3384
  },
  {
    "name": "Bluto",
    "country": "ID",
    "lat": -7.10334,
    "lng": 113.80964
  },
  {
    "name": "Blora",
    "country": "ID",
    "lat": -6.9698,
    "lng": 111.4186
  },
  {
    "name": "Blitar",
    "country": "ID",
    "lat": -8.0983,
    "lng": 112.1681
  },
  {
    "name": "Blambangan Umpu",
    "country": "ID",
    "lat": -4.50263,
    "lng": 104.51926
  },
  {
    "name": "Blang Ara",
    "country": "ID",
    "lat": 4.28175,
    "lng": 96.37087
  },
  {
    "name": "Blang Mane",
    "country": "ID",
    "lat": 5.0174,
    "lng": 96.77214
  },
  {
    "name": "Blang Dalam",
    "country": "ID",
    "lat": 4.89615,
    "lng": 95.61974
  },
  {
    "name": "Blang Ara",
    "country": "ID",
    "lat": 5.11088,
    "lng": 97.02958
  },
  {
    "name": "Blangpulo",
    "country": "ID",
    "lat": 5.2068,
    "lng": 97.07743
  },
  {
    "name": "Blessington",
    "country": "IE",
    "lat": 53.17,
    "lng": -6.5325
  },
  {
    "name": "Blarney",
    "country": "IE",
    "lat": 51.93333,
    "lng": -8.56667
  },
  {
    "name": "Blanchardstown",
    "country": "IE",
    "lat": 53.38806,
    "lng": -6.37556
  },
  {
    "name": "Blackrock",
    "country": "IE",
    "lat": 53.96405,
    "lng": -6.36514
  },
  {
    "name": "Blackrock",
    "country": "IE",
    "lat": 53.3015,
    "lng": -6.1778
  },
  {
    "name": "Blera",
    "country": "IT",
    "lat": 42.27293,
    "lng": 12.03016
  },
  {
    "name": "Blessagno",
    "country": "IT",
    "lat": 45.95908,
    "lng": 9.09754
  },
  {
    "name": "Blevio",
    "country": "IT",
    "lat": 45.84218,
    "lng": 9.10514
  },
  {
    "name": "Bleggio Superiore",
    "country": "IT",
    "lat": 46.0248,
    "lng": 10.83837
  },
  {
    "name": "Blufi",
    "country": "IT",
    "lat": 37.75205,
    "lng": 14.07296
  },
  {
    "name": "Blello",
    "country": "IT",
    "lat": 45.83778,
    "lng": 9.57105
  },
  {
    "name": "Bluefields",
    "country": "JM",
    "lat": 18.16602,
    "lng": -78.02702
  },
  {
    "name": "Black River",
    "country": "JM",
    "lat": 18.02636,
    "lng": -77.84873
  },
  {
    "name": "Blakes",
    "country": "KY",
    "lat": 19.30338,
    "lng": -81.09753
  },
  {
    "name": "Blatec",
    "country": "MK",
    "lat": 41.83668,
    "lng": 22.57909
  },
  {
    "name": "Bla",
    "country": "ML",
    "lat": 12.95007,
    "lng": -5.76024
  },
  {
    "name": "Blantyre",
    "country": "MW",
    "lat": -15.78499,
    "lng": 35.00854
  },
  {
    "name": "Blasillo 1ra. Sección (Nicolás Bravo)",
    "country": "MX",
    "lat": 18.07861,
    "lng": -93.91833
  },
  {
    "name": "Blanca Espuma",
    "country": "MX",
    "lat": 19.58117,
    "lng": -96.68819
  },
  {
    "name": "Bledos",
    "country": "MX",
    "lat": 21.84148,
    "lng": -101.11651
  },
  {
    "name": "Blue Valley",
    "country": "MY",
    "lat": 4.58293,
    "lng": 101.41418
  },
  {
    "name": "Bluefields",
    "country": "NI",
    "lat": 12.01292,
    "lng": -83.76449
  },
  {
    "name": "Blokzijl",
    "country": "NL",
    "lat": 52.72667,
    "lng": 5.96111
  },
  {
    "name": "Bloemhof",
    "country": "NL",
    "lat": 51.89723,
    "lng": 4.49943
  },
  {
    "name": "Bloemendaal",
    "country": "NL",
    "lat": 52.02878,
    "lng": 4.6944
  },
  {
    "name": "Bloemendaal",
    "country": "NL",
    "lat": 52.4025,
    "lng": 4.62222
  },
  {
    "name": "Blitterswijck",
    "country": "NL",
    "lat": 51.53083,
    "lng": 6.10833
  },
  {
    "name": "Blijham",
    "country": "NL",
    "lat": 53.10917,
    "lng": 7.07639
  },
  {
    "name": "Bleskensgraaf",
    "country": "NL",
    "lat": 51.8725,
    "lng": 4.78333
  },
  {
    "name": "Bleiswijk",
    "country": "NL",
    "lat": 52.01083,
    "lng": 4.53194
  },
  {
    "name": "Bleijerheide",
    "country": "NL",
    "lat": 50.85538,
    "lng": 6.06789
  },
  {
    "name": "Blaricum",
    "country": "NL",
    "lat": 52.2725,
    "lng": 5.24167
  },
  {
    "name": "Bladel",
    "country": "NL",
    "lat": 51.36833,
    "lng": 5.22083
  },
  {
    "name": "Blaarthem",
    "country": "NL",
    "lat": 51.42501,
    "lng": 5.45784
  },
  {
    "name": "Blakstad",
    "country": "NO",
    "lat": 59.8191,
    "lng": 10.4645
  },
  {
    "name": "Blakstad",
    "country": "NO",
    "lat": 58.5046,
    "lng": 8.64648
  },
  {
    "name": "Bluff",
    "country": "NZ",
    "lat": -46.6,
    "lng": 168.33333
  },
  {
    "name": "Blockhouse Bay",
    "country": "NZ",
    "lat": -36.9182,
    "lng": 174.70019
  },
  {
    "name": "Blenheim",
    "country": "NZ",
    "lat": -41.51603,
    "lng": 173.9528
  },
  {
    "name": "Blinsung",
    "country": "PH",
    "lat": 7.01806,
    "lng": 124.18056
  },
  {
    "name": "Blingkong",
    "country": "PH",
    "lat": 6.58808,
    "lng": 124.88951
  },
  {
    "name": "Bliżyn",
    "country": "PL",
    "lat": 51.10778,
    "lng": 20.75935
  },
  {
    "name": "Blizne",
    "country": "PL",
    "lat": 49.75332,
    "lng": 21.97351
  },
  {
    "name": "Blizanów",
    "country": "PL",
    "lat": 51.90372,
    "lng": 18.01003
  },
  {
    "name": "Bledzew",
    "country": "PL",
    "lat": 52.51711,
    "lng": 15.41382
  },
  {
    "name": "Blachownia",
    "country": "PL",
    "lat": 50.78015,
    "lng": 18.96389
  },
  {
    "name": "Blânzi",
    "country": "RO",
    "lat": 45.93575,
    "lng": 27.65063
  },
  {
    "name": "Blândiana",
    "country": "RO",
    "lat": 45.97943,
    "lng": 23.38543
  },
  {
    "name": "Blândeşti",
    "country": "RO",
    "lat": 47.7,
    "lng": 26.86667
  },
  {
    "name": "Blideşti",
    "country": "RO",
    "lat": 46.3,
    "lng": 23.13333
  },
  {
    "name": "Blejoi",
    "country": "RO",
    "lat": 45.0,
    "lng": 26.01667
  },
  {
    "name": "Blejeşti",
    "country": "RO",
    "lat": 44.3,
    "lng": 25.46667
  },
  {
    "name": "Blăjeni",
    "country": "RO",
    "lat": 46.23333,
    "lng": 22.9
  },
  {
    "name": "Blăjel",
    "country": "RO",
    "lat": 46.21667,
    "lng": 24.31667
  },
  {
    "name": "Blăjani",
    "country": "RO",
    "lat": 45.31667,
    "lng": 26.81667
  },
  {
    "name": "Blaj",
    "country": "RO",
    "lat": 46.17508,
    "lng": 23.91578
  },
  {
    "name": "Blăgeşti",
    "country": "RO",
    "lat": 46.68333,
    "lng": 26.65
  },
  {
    "name": "Blăgeşti",
    "country": "RO",
    "lat": 46.13722,
    "lng": 28.01306
  },
  {
    "name": "Blace",
    "country": "RS",
    "lat": 43.29528,
    "lng": 21.28583
  },
  {
    "name": "Blizhne-Pesochnoye",
    "country": "RU",
    "lat": 55.3456,
    "lng": 42.1015
  },
  {
    "name": "Blechepsin",
    "country": "RU",
    "lat": 44.82028,
    "lng": 40.50028
  },
  {
    "name": "Blagoyevo",
    "country": "RU",
    "lat": 63.4231,
    "lng": 47.9646
  },
  {
    "name": "Blagoveshchensk",
    "country": "RU",
    "lat": 55.0352,
    "lng": 55.97703
  },
  {
    "name": "Blagodatnoye",
    "country": "RU",
    "lat": 45.39972,
    "lng": 42.58667
  },
  {
    "name": "Blagodarnyy",
    "country": "RU",
    "lat": 45.09778,
    "lng": 43.43639
  },
  {
    "name": "Blagoveshchenka",
    "country": "RU",
    "lat": 52.834,
    "lng": 79.87514
  },
  {
    "name": "Blagoveshchensk",
    "country": "RU",
    "lat": 50.27593,
    "lng": 127.52637
  },
  {
    "name": "Blagodatnoye",
    "country": "RU",
    "lat": 44.32297,
    "lng": 132.09248
  },
  {
    "name": "Blyasino",
    "country": "RU",
    "lat": 56.94565,
    "lng": 28.30621
  },
  {
    "name": "Blagovetschenskaya",
    "country": "RU",
    "lat": 45.0553,
    "lng": 37.13276
  },
  {
    "name": "Blomstermåla",
    "country": "SE",
    "lat": 56.98333,
    "lng": 16.33333
  },
  {
    "name": "Blentarp",
    "country": "SE",
    "lat": 55.58333,
    "lng": 13.6
  },
  {
    "name": "Bled",
    "country": "SI",
    "lat": 46.36859,
    "lng": 14.11652
  },
  {
    "name": "Blatné",
    "country": "SK",
    "lat": 48.2666,
    "lng": 17.41919
  },
  {
    "name": "Blama",
    "country": "SL",
    "lat": 7.87481,
    "lng": -11.34548
  },
  {
    "name": "Blitta",
    "country": "TG",
    "lat": 8.32335,
    "lng": 0.98595
  },
  {
    "name": "Blahodatne",
    "country": "UA",
    "lat": 50.66365,
    "lng": 24.24918
  },
  {
    "name": "Blahovishchenske",
    "country": "UA",
    "lat": 48.32822,
    "lng": 30.23619
  },
  {
    "name": "Blyzniuky",
    "country": "UA",
    "lat": 48.85655,
    "lng": 36.55331
  },
  {
    "name": "Blizhneye",
    "country": "UA",
    "lat": 45.05694,
    "lng": 35.33056
  },
  {
    "name": "Blahodatne",
    "country": "UA",
    "lat": 47.99414,
    "lng": 31.14662
  },
  {
    "name": "Blahodatne",
    "country": "UA",
    "lat": 47.88121,
    "lng": 38.48377
  },
  {
    "name": "Blahodatne",
    "country": "UA",
    "lat": 47.70041,
    "lng": 37.41925
  },
  {
    "name": "Blountsville",
    "country": "US",
    "lat": 34.08149,
    "lng": -86.5911
  },
  {
    "name": "Blue Ridge",
    "country": "US",
    "lat": 32.49264,
    "lng": -86.19052
  },
  {
    "name": "Blytheville",
    "country": "US",
    "lat": 35.9273,
    "lng": -89.91898
  },
  {
    "name": "Bloomingdale",
    "country": "US",
    "lat": 38.91678,
    "lng": -77.01137
  },
  {
    "name": "Blades",
    "country": "US",
    "lat": 38.63567,
    "lng": -75.60993
  },
  {
    "name": "Black Diamond",
    "country": "US",
    "lat": 28.91248,
    "lng": -82.48593
  },
  {
    "name": "Bloomingdale",
    "country": "US",
    "lat": 27.89364,
    "lng": -82.24037
  },
  {
    "name": "Blountstown",
    "country": "US",
    "lat": 30.44379,
    "lng": -85.04744
  },
  {
    "name": "Blackshear",
    "country": "US",
    "lat": 31.30605,
    "lng": -82.24207
  },
  {
    "name": "Blairsville",
    "country": "US",
    "lat": 34.8762,
    "lng": -83.95824
  },
  {
    "name": "Blakely",
    "country": "US",
    "lat": 31.37768,
    "lng": -84.93409
  },
  {
    "name": "Bloomingdale",
    "country": "US",
    "lat": 32.13242,
    "lng": -81.299
  },
  {
    "name": "Blue Ridge",
    "country": "US",
    "lat": 34.86397,
    "lng": -84.32409
  },
  {
    "name": "Blue Mound",
    "country": "US",
    "lat": 39.70115,
    "lng": -89.12314
  },
  {
    "name": "Bloomfield",
    "country": "US",
    "lat": 39.02699,
    "lng": -86.93751
  },
  {
    "name": "Bloomington",
    "country": "US",
    "lat": 39.16533,
    "lng": -86.52639
  },
  {
    "name": "Bloomfield",
    "country": "US",
    "lat": 37.91034,
    "lng": -85.31662
  },
  {
    "name": "Blanchard",
    "country": "US",
    "lat": 32.58098,
    "lng": -93.89268
  },
  {
    "name": "Bladensburg",
    "country": "US",
    "lat": 38.93928,
    "lng": -76.93386
  },
  {
    "name": "Black Jack",
    "country": "US",
    "lat": 38.79338,
    "lng": -90.26733
  },
  {
    "name": "Bloomfield",
    "country": "US",
    "lat": 36.88589,
    "lng": -89.92926
  },
  {
    "name": "Blue Springs",
    "country": "US",
    "lat": 39.01695,
    "lng": -94.28161
  },
  {
    "name": "Black Mountain",
    "country": "US",
    "lat": 35.6179,
    "lng": -82.32123
  },
  {
    "name": "Bladenboro",
    "country": "US",
    "lat": 34.53878,
    "lng": -78.78752
  },
  {
    "name": "Blowing Rock",
    "country": "US",
    "lat": 36.13513,
    "lng": -81.67761
  },
  {
    "name": "Blackwood",
    "country": "US",
    "lat": 39.80234,
    "lng": -75.06406
  },
  {
    "name": "Blacklick Estates",
    "country": "US",
    "lat": 39.90506,
    "lng": -82.86434
  },
  {
    "name": "Blanchester",
    "country": "US",
    "lat": 39.29312,
    "lng": -83.98882
  },
  {
    "name": "Blue Ash",
    "country": "US",
    "lat": 39.232,
    "lng": -84.37827
  },
  {
    "name": "Blackwell",
    "country": "US",
    "lat": 36.80448,
    "lng": -97.28282
  },
  {
    "name": "Blanchard",
    "country": "US",
    "lat": 35.13784,
    "lng": -97.65809
  },
  {
    "name": "Blackville",
    "country": "US",
    "lat": 33.35793,
    "lng": -81.27066
  },
  {
    "name": "Blacksburg",
    "country": "US",
    "lat": 35.12124,
    "lng": -81.51592
  },
  {
    "name": "Bluffton",
    "country": "US",
    "lat": 32.23715,
    "lng": -80.86039
  },
  {
    "name": "Blythewood",
    "country": "US",
    "lat": 34.21432,
    "lng": -80.97398
  },
  {
    "name": "Blaine",
    "country": "US",
    "lat": 36.15425,
    "lng": -83.70407
  },
  {
    "name": "Bloomingdale",
    "country": "US",
    "lat": 36.58455,
    "lng": -82.48932
  },
  {
    "name": "Blountville",
    "country": "US",
    "lat": 36.53316,
    "lng": -82.32681
  },
  {
    "name": "Bluff City",
    "country": "US",
    "lat": 36.47427,
    "lng": -82.26097
  },
  {
    "name": "Blanco",
    "country": "US",
    "lat": 30.09799,
    "lng": -98.42141
  },
  {
    "name": "Bloomington",
    "country": "US",
    "lat": 28.64777,
    "lng": -96.89249
  },
  {
    "name": "Blossom",
    "country": "US",
    "lat": 33.6615,
    "lng": -95.38579
  },
  {
    "name": "Blue Mound",
    "country": "US",
    "lat": 32.85652,
    "lng": -97.33891
  },
  {
    "name": "Blackstone",
    "country": "US",
    "lat": 37.08043,
    "lng": -77.99723
  },
  {
    "name": "Blacksburg",
    "country": "US",
    "lat": 37.22957,
    "lng": -80.41394
  },
  {
    "name": "Bland",
    "country": "US",
    "lat": 37.10206,
    "lng": -81.1162
  },
  {
    "name": "Blue Ridge",
    "country": "US",
    "lat": 37.37847,
    "lng": -79.80698
  },
  {
    "name": "Bluefield",
    "country": "US",
    "lat": 37.25262,
    "lng": -81.27121
  },
  {
    "name": "Blennerhassett",
    "country": "US",
    "lat": 39.26369,
    "lng": -81.62929
  },
  {
    "name": "Bluefield",
    "country": "US",
    "lat": 37.26984,
    "lng": -81.22232
  },
  {
    "name": "Bluewell",
    "country": "US",
    "lat": 37.31262,
    "lng": -81.25982
  },
  {
    "name": "Bloomfield",
    "country": "US",
    "lat": 40.75169,
    "lng": -92.41491
  },
  {
    "name": "Blue Grass",
    "country": "US",
    "lat": 41.50892,
    "lng": -90.76598
  },
  {
    "name": "Bloomingdale",
    "country": "US",
    "lat": 41.95753,
    "lng": -88.0809
  },
  {
    "name": "Bloomington",
    "country": "US",
    "lat": 40.4842,
    "lng": -88.99369
  },
  {
    "name": "Blue Island",
    "country": "US",
    "lat": 41.65726,
    "lng": -87.68005
  },
  {
    "name": "Bluffton",
    "country": "US",
    "lat": 40.73866,
    "lng": -85.17164
  },
  {
    "name": "Blackstone",
    "country": "US",
    "lat": 42.01788,
    "lng": -71.54117
  },
  {
    "name": "Bliss Corner",
    "country": "US",
    "lat": 41.61177,
    "lng": -70.93837
  },
  {
    "name": "Blissfield",
    "country": "US",
    "lat": 41.83255,
    "lng": -83.86244
  },
  {
    "name": "Bloomfield Hills",
    "country": "US",
    "lat": 42.58364,
    "lng": -83.24549
  },
  {
    "name": "Blaine",
    "country": "US",
    "lat": 45.1608,
    "lng": -93.23495
  },
  {
    "name": "Blooming Prairie",
    "country": "US",
    "lat": 43.86663,
    "lng": -93.05103
  },
  {
    "name": "Bloomington",
    "country": "US",
    "lat": 44.8408,
    "lng": -93.29828
  },
  {
    "name": "Blue Earth",
    "country": "US",
    "lat": 43.63746,
    "lng": -94.10218
  },
  {
    "name": "Blair",
    "country": "US",
    "lat": 41.54444,
    "lng": -96.12502
  },
  {
    "name": "Bloomfield",
    "country": "US",
    "lat": 40.80677,
    "lng": -74.18542
  },
  {
    "name": "Bloomingdale",
    "country": "US",
    "lat": 41.00204,
    "lng": -74.32654
  },
  {
    "name": "Bloomingdale",
    "country": "US",
    "lat": 40.4976,
    "lng": -74.64738
  },
  {
    "name": "Black River",
    "country": "US",
    "lat": 44.01256,
    "lng": -75.79437
  },
  {
    "name": "Blasdell",
    "country": "US",
    "lat": 42.79728,
    "lng": -78.82337
  },
  {
    "name": "Blauvelt",
    "country": "US",
    "lat": 41.06343,
    "lng": -73.95764
  },
  {
    "name": "Bloomfield",
    "country": "US",
    "lat": 40.6126,
    "lng": -74.1782
  },
  {
    "name": "Blossvale",
    "country": "US",
    "lat": 43.27979,
    "lng": -75.64352
  },
  {
    "name": "Blue Point",
    "country": "US",
    "lat": 40.74399,
    "lng": -73.03455
  },
  {
    "name": "Bluffton",
    "country": "US",
    "lat": 40.89533,
    "lng": -83.88883
  },
  {
    "name": "Black Lick",
    "country": "US",
    "lat": 40.4725,
    "lng": -79.18688
  },
  {
    "name": "Blairsville",
    "country": "US",
    "lat": 40.43118,
    "lng": -79.26087
  },
  {
    "name": "Blakely",
    "country": "US",
    "lat": 41.48091,
    "lng": -75.59463
  },
  {
    "name": "Blandon",
    "country": "US",
    "lat": 40.4412,
    "lng": -75.88687
  },
  {
    "name": "Blawnox",
    "country": "US",
    "lat": 40.4934,
    "lng": -79.86061
  },
  {
    "name": "Bloomfield",
    "country": "US",
    "lat": 40.4609,
    "lng": -79.95089
  },
  {
    "name": "Bloomsburg",
    "country": "US",
    "lat": 41.0037,
    "lng": -76.45495
  },
  {
    "name": "Blossburg",
    "country": "US",
    "lat": 41.67952,
    "lng": -77.06386
  },
  {
    "name": "Blue Ball",
    "country": "US",
    "lat": 40.11871,
    "lng": -76.04717
  },
  {
    "name": "Blue Bell",
    "country": "US",
    "lat": 40.15233,
    "lng": -75.26629
  },
  {
    "name": "Blue Grass",
    "country": "US",
    "lat": 40.06567,
    "lng": -75.02739
  },
  {
    "name": "Black Creek",
    "country": "US",
    "lat": 44.47749,
    "lng": -88.45066
  },
  {
    "name": "Black Earth",
    "country": "US",
    "lat": 43.13722,
    "lng": -89.74679
  },
  {
    "name": "Black River Falls",
    "country": "US",
    "lat": 44.29468,
    "lng": -90.85153
  },
  {
    "name": "Blair",
    "country": "US",
    "lat": 44.2944,
    "lng": -91.23516
  },
  {
    "name": "Bloomer",
    "country": "US",
    "lat": 45.10024,
    "lng": -91.48877
  },
  {
    "name": "Bloomfield",
    "country": "US",
    "lat": 41.82649,
    "lng": -72.73009
  },
  {
    "name": "Blue Hills",
    "country": "US",
    "lat": 41.81288,
    "lng": -72.69759
  },
  {
    "name": "Black Canyon City",
    "country": "US",
    "lat": 34.07087,
    "lng": -112.15071
  },
  {
    "name": "Blackwater",
    "country": "US",
    "lat": 33.03117,
    "lng": -111.58263
  },
  {
    "name": "Blackhawk",
    "country": "US",
    "lat": 37.82076,
    "lng": -121.90774
  },
  {
    "name": "Bloomington",
    "country": "US",
    "lat": 34.07029,
    "lng": -117.39588
  },
  {
    "name": "Blythe",
    "country": "US",
    "lat": 33.6103,
    "lng": -114.59635
  },
  {
    "name": "Black Forest",
    "country": "US",
    "lat": 39.01305,
    "lng": -104.70081
  },
  {
    "name": "Black Rock",
    "country": "US",
    "lat": 35.08837,
    "lng": -108.79119
  },
  {
    "name": "Bloomfield",
    "country": "US",
    "lat": 36.71112,
    "lng": -107.98451
  },
  {
    "name": "Blanding",
    "country": "US",
    "lat": 37.62433,
    "lng": -109.47966
  },
  {
    "name": "Blue Lake",
    "country": "US",
    "lat": 40.88291,
    "lng": -123.98395
  },
  {
    "name": "Blackfoot",
    "country": "US",
    "lat": 43.19047,
    "lng": -112.34498
  },
  {
    "name": "Blackhawk",
    "country": "US",
    "lat": 44.1511,
    "lng": -103.30796
  },
  {
    "name": "Bluffdale",
    "country": "US",
    "lat": 40.48967,
    "lng": -111.93882
  },
  {
    "name": "Black Diamond",
    "country": "US",
    "lat": 47.30871,
    "lng": -122.00317
  },
  {
    "name": "Blaine",
    "country": "US",
    "lat": 48.99372,
    "lng": -122.74712
  },
  {
    "name": "Black Point-Green Point",
    "country": "US",
    "lat": 38.11547,
    "lng": -122.51318
  },
  {
    "name": "Blanquillo",
    "country": "UY",
    "lat": -32.76667,
    "lng": -55.63333
  },
  {
    "name": "Bloemhof",
    "country": "ZA",
    "lat": -27.64685,
    "lng": 25.60697
  },
  {
    "name": "Bloemfontein",
    "country": "ZA",
    "lat": -29.12107,
    "lng": 26.214
  },
  {
    "name": "Blinkpan",
    "country": "ZA",
    "lat": -26.08266,
    "lng": 29.43314
  }
]