[
  {
    "name": "Canillo",
    "country": "AD",
    "lat": 42.5676,
    "lng": 1.59756
  },
  {
    "name": "Cakran",
    "country": "AL",
    "lat": 40.60333,
    "lng": 19.62611
  },
  {
    "name": "Cassanguidi",
    "country": "AO",
    "lat": -7.48367,
    "lng": 21.30339
  },
  {
    "name": "Cameia",
    "country": "AO",
    "lat": -11.69055,
    "lng": 20.83922
  },
  {
    "name": "Cazombo",
    "country": "AO",
    "lat": -11.89914,
    "lng": 22.90216
  },
  {
    "name": "Cazaji",
    "country": "AO",
    "lat": -11.06715,
    "lng": 20.70148
  },
  {
    "name": "Camanongue",
    "country": "AO",
    "lat": -11.4361,
    "lng": 20.16459
  },
  {
    "name": "Cazombo",
    "country": "AO",
    "lat": -8.73204,
    "lng": 15.37124
  },
  {
    "name": "Caxito",
    "country": "AO",
    "lat": -8.57848,
    "lng": 13.66425
  },
  {
    "name": "Cangandala",
    "country": "AO",
    "lat": -9.78333,
    "lng": 16.43333
  },
  {
    "name": "Camabatela",
    "country": "AO",
    "lat": -8.18812,
    "lng": 15.37495
  },
  {
    "name": "Calandula",
    "country": "AO",
    "lat": -9.08981,
    "lng": 15.95382
  },
  {
    "name": "Cacuso",
    "country": "AO",
    "lat": -9.42102,
    "lng": 15.74668
  },
  {
    "name": "Cacongo",
    "country": "AO",
    "lat": -5.23864,
    "lng": 12.14428
  },
  {
    "name": "Cabinda",
    "country": "AO",
    "lat": -5.56198,
    "lng": 12.19476
  },
  {
    "name": "Catchiungo",
    "country": "AO",
    "lat": -12.56598,
    "lng": 16.22589
  },
  {
    "name": "Catumbela",
    "country": "AO",
    "lat": -12.43002,
    "lng": 13.54677
  },
  {
    "name": "Catabola",
    "country": "AO",
    "lat": -12.15,
    "lng": 17.28333
  },
  {
    "name": "Capunda",
    "country": "AO",
    "lat": -11.13333,
    "lng": 14.46667
  },
  {
    "name": "Camucuio",
    "country": "AO",
    "lat": -14.11667,
    "lng": 13.25
  },
  {
    "name": "Cambundi Catembo",
    "country": "AO",
    "lat": -10.07531,
    "lng": 17.55058
  },
  {
    "name": "Camacupa",
    "country": "AO",
    "lat": -12.01667,
    "lng": 17.48333
  },
  {
    "name": "Caluquembe",
    "country": "AO",
    "lat": -13.86667,
    "lng": 14.43333
  },
  {
    "name": "Calulo",
    "country": "AO",
    "lat": -10.00055,
    "lng": 14.89519
  },
  {
    "name": "Calucinga",
    "country": "AO",
    "lat": -11.32281,
    "lng": 16.19588
  },
  {
    "name": "Calandula",
    "country": "AO",
    "lat": -13.46667,
    "lng": 19.61667
  },
  {
    "name": "Calai",
    "country": "AO",
    "lat": -17.88896,
    "lng": 19.7706
  },
  {
    "name": "Caimbambo",
    "country": "AO",
    "lat": -13.02172,
    "lng": 14.00283
  },
  {
    "name": "Cahama",
    "country": "AO",
    "lat": -16.28556,
    "lng": 14.30962
  },
  {
    "name": "Caconda",
    "country": "AO",
    "lat": -13.73564,
    "lng": 15.0618
  },
  {
    "name": "Cacolo",
    "country": "AO",
    "lat": -10.14503,
    "lng": 19.26598
  },
  {
    "name": "Caála",
    "country": "AO",
    "lat": -12.8525,
    "lng": 15.56056
  },
  {
    "name": "Cambundi",
    "country": "AO",
    "lat": -7.46856,
    "lng": 17.03769
  },
  {
    "name": "Cafunfo",
    "country": "AO",
    "lat": -8.7672,
    "lng": 17.99572
  },
  {
    "name": "Cambundi",
    "country": "AO",
    "lat": -10.89481,
    "lng": 17.76402
  },
  {
    "name": "Camboio",
    "country": "AO",
    "lat": -12.92651,
    "lng": 14.09888
  },
  {
    "name": "Calonamba",
    "country": "AO",
    "lat": -13.77395,
    "lng": 15.09111
  },
  {
    "name": "Castelli",
    "country": "AR",
    "lat": -36.09092,
    "lng": -57.80748
  },
  {
    "name": "Castelar",
    "country": "AR",
    "lat": -34.65142,
    "lng": -58.64074
  },
  {
    "name": "Caseros",
    "country": "AR",
    "lat": -34.60688,
    "lng": -58.56392
  },
  {
    "name": "Caseros",
    "country": "AR",
    "lat": -32.465,
    "lng": -58.47742
  },
  {
    "name": "Carmen de Areco",
    "country": "AR",
    "lat": -34.3766,
    "lng": -59.82272
  },
  {
    "name": "Caraguatay",
    "country": "AR",
    "lat": -26.60587,
    "lng": -54.78093
  },
  {
    "name": "Capitán Solari",
    "country": "AR",
    "lat": -26.80247,
    "lng": -59.55724
  },
  {
    "name": "Capitán Sarmiento",
    "country": "AR",
    "lat": -34.1713,
    "lng": -59.79146
  },
  {
    "name": "Capioví",
    "country": "AR",
    "lat": -26.92936,
    "lng": -55.05773
  },
  {
    "name": "Capilla del Señor",
    "country": "AR",
    "lat": -34.29169,
    "lng": -59.10126
  },
  {
    "name": "Cañuelas",
    "country": "AR",
    "lat": -35.05379,
    "lng": -58.76205
  },
  {
    "name": "Candelaria",
    "country": "AR",
    "lat": -27.4617,
    "lng": -55.7449
  },
  {
    "name": "Campo Viera",
    "country": "AR",
    "lat": -27.33271,
    "lng": -55.05651
  },
  {
    "name": "Campo Ramón",
    "country": "AR",
    "lat": -27.4549,
    "lng": -55.02122
  },
  {
    "name": "Campo Grande",
    "country": "AR",
    "lat": -27.2077,
    "lng": -54.97977
  },
  {
    "name": "Campana",
    "country": "AR",
    "lat": -34.16327,
    "lng": -58.95919
  },
  {
    "name": "Catamarca",
    "country": "AR",
    "lat": -28.46957,
    "lng": -65.78524
  },
  {
    "name": "Cavanagh",
    "country": "AR",
    "lat": -33.47763,
    "lng": -62.3391
  },
  {
    "name": "Caucete",
    "country": "AR",
    "lat": -31.6515,
    "lng": -68.28216
  },
  {
    "name": "Catriló",
    "country": "AR",
    "lat": -36.40668,
    "lng": -63.42334
  },
  {
    "name": "Catriel",
    "country": "AR",
    "lat": -37.87552,
    "lng": -67.79451
  },
  {
    "name": "Castro Barros",
    "country": "AR",
    "lat": -30.58017,
    "lng": -65.72629
  },
  {
    "name": "Casilda",
    "country": "AR",
    "lat": -33.04459,
    "lng": -61.16423
  },
  {
    "name": "Carrilobo",
    "country": "AR",
    "lat": -31.87353,
    "lng": -63.11747
  },
  {
    "name": "Carnerillo",
    "country": "AR",
    "lat": -32.9147,
    "lng": -64.02369
  },
  {
    "name": "Carmen de Patagones",
    "country": "AR",
    "lat": -40.80255,
    "lng": -62.98349
  },
  {
    "name": "Carlos Tejedor",
    "country": "AR",
    "lat": -35.39155,
    "lng": -62.41982
  },
  {
    "name": "Carlos Casares",
    "country": "AR",
    "lat": -35.62247,
    "lng": -61.3655
  },
  {
    "name": "Carhué",
    "country": "AR",
    "lat": -37.17948,
    "lng": -62.75999
  },
  {
    "name": "Carcarañá",
    "country": "AR",
    "lat": -32.85704,
    "lng": -61.15114
  },
  {
    "name": "Capitán Bermúdez",
    "country": "AR",
    "lat": -32.82262,
    "lng": -60.71852
  },
  {
    "name": "Capilla del Monte",
    "country": "AR",
    "lat": -30.8607,
    "lng": -64.52531
  },
  {
    "name": "Capayán",
    "country": "AR",
    "lat": -28.77436,
    "lng": -66.04749
  },
  {
    "name": "Candelaria",
    "country": "AR",
    "lat": -32.06124,
    "lng": -65.82482
  },
  {
    "name": "Canals",
    "country": "AR",
    "lat": -33.56224,
    "lng": -62.88509
  },
  {
    "name": "Cañada de Luque",
    "country": "AR",
    "lat": -30.73524,
    "lng": -63.72404
  },
  {
    "name": "Cañada de Gómez",
    "country": "AR",
    "lat": -32.82033,
    "lng": -61.39513
  },
  {
    "name": "Campo Quijano",
    "country": "AR",
    "lat": -24.90872,
    "lng": -65.6402
  },
  {
    "name": "Campo Largo",
    "country": "AR",
    "lat": -26.80031,
    "lng": -60.83903
  },
  {
    "name": "Campo Gallo",
    "country": "AR",
    "lat": -26.58395,
    "lng": -62.84705
  },
  {
    "name": "Camilo Aldao",
    "country": "AR",
    "lat": -33.12666,
    "lng": -62.09467
  },
  {
    "name": "Camarones",
    "country": "AR",
    "lat": -44.79845,
    "lng": -65.71033
  },
  {
    "name": "Calingasta",
    "country": "AR",
    "lat": -31.33394,
    "lng": -69.4208
  },
  {
    "name": "Calilegua",
    "country": "AR",
    "lat": -23.77441,
    "lng": -64.77003
  },
  {
    "name": "Caleufú",
    "country": "AR",
    "lat": -35.59449,
    "lng": -64.55868
  },
  {
    "name": "Caleta Olivia",
    "country": "AR",
    "lat": -46.44785,
    "lng": -67.52274
  },
  {
    "name": "Calchaquí",
    "country": "AR",
    "lat": -29.88845,
    "lng": -60.28397
  },
  {
    "name": "Caimancito",
    "country": "AR",
    "lat": -23.74084,
    "lng": -64.59316
  },
  {
    "name": "Cafayate",
    "country": "AR",
    "lat": -26.07286,
    "lng": -65.97766
  },
  {
    "name": "Cachi",
    "country": "AR",
    "lat": -25.12083,
    "lng": -66.1627
  },
  {
    "name": "Cariló",
    "country": "AR",
    "lat": -37.16524,
    "lng": -56.89133
  },
  {
    "name": "Caversham",
    "country": "AU",
    "lat": -31.88333,
    "lng": 115.96667
  },
  {
    "name": "Carnarvon",
    "country": "AU",
    "lat": -24.88258,
    "lng": 113.65713
  },
  {
    "name": "Cardup",
    "country": "AU",
    "lat": -32.25802,
    "lng": 115.98512
  },
  {
    "name": "Capel",
    "country": "AU",
    "lat": -33.55808,
    "lng": 115.56278
  },
  {
    "name": "Cannington",
    "country": "AU",
    "lat": -32.01625,
    "lng": 115.93648
  },
  {
    "name": "Campbelltown",
    "country": "AU",
    "lat": -34.88333,
    "lng": 138.66667
  },
  {
    "name": "Camden Haven",
    "country": "AU",
    "lat": -31.64484,
    "lng": 152.79462
  },
  {
    "name": "Caulfield North",
    "country": "AU",
    "lat": -37.8739,
    "lng": 145.02485
  },
  {
    "name": "Caulfield East",
    "country": "AU",
    "lat": -37.88121,
    "lng": 145.04208
  },
  {
    "name": "Caulfield",
    "country": "AU",
    "lat": -37.88251,
    "lng": 145.02288
  },
  {
    "name": "Castlemaine",
    "country": "AU",
    "lat": -37.06709,
    "lng": 144.21684
  },
  {
    "name": "Castle Hill",
    "country": "AU",
    "lat": -33.73333,
    "lng": 151.0
  },
  {
    "name": "Castlecrag",
    "country": "AU",
    "lat": -33.79987,
    "lng": 151.2231
  },
  {
    "name": "Casterton",
    "country": "AU",
    "lat": -37.58489,
    "lng": 141.40297
  },
  {
    "name": "Casino",
    "country": "AU",
    "lat": -28.85819,
    "lng": 153.04748
  },
  {
    "name": "Carrum Downs",
    "country": "AU",
    "lat": -38.09968,
    "lng": 145.17248
  },
  {
    "name": "Carrum",
    "country": "AU",
    "lat": -38.08333,
    "lng": 145.13333
  },
  {
    "name": "Carnegie",
    "country": "AU",
    "lat": -37.89359,
    "lng": 145.05534
  },
  {
    "name": "Carlton North",
    "country": "AU",
    "lat": -37.78818,
    "lng": 144.97014
  },
  {
    "name": "Carlton",
    "country": "AU",
    "lat": -37.8,
    "lng": 144.96667
  },
  {
    "name": "Carlingford",
    "country": "AU",
    "lat": -33.78269,
    "lng": 151.04888
  },
  {
    "name": "Carisbrook",
    "country": "AU",
    "lat": -37.04808,
    "lng": 143.81665
  },
  {
    "name": "Caringbah",
    "country": "AU",
    "lat": -34.03534,
    "lng": 151.12468
  },
  {
    "name": "Cardwell",
    "country": "AU",
    "lat": -18.26693,
    "lng": 146.02804
  },
  {
    "name": "Cardiff",
    "country": "AU",
    "lat": -32.94201,
    "lng": 151.6544
  },
  {
    "name": "Carbrook",
    "country": "AU",
    "lat": -27.68333,
    "lng": 153.25
  },
  {
    "name": "Capella",
    "country": "AU",
    "lat": -23.08593,
    "lng": 148.02206
  },
  {
    "name": "Capalaba",
    "country": "AU",
    "lat": -27.54333,
    "lng": 153.20287
  },
  {
    "name": "Canungra",
    "country": "AU",
    "lat": -28.01689,
    "lng": 153.16525
  },
  {
    "name": "Canowindra",
    "country": "AU",
    "lat": -33.56247,
    "lng": 148.66434
  },
  {
    "name": "Cannonvale",
    "country": "AU",
    "lat": -20.27681,
    "lng": 148.69759
  },
  {
    "name": "Canberra",
    "country": "AU",
    "lat": -35.28346,
    "lng": 149.12807
  },
  {
    "name": "Canadian",
    "country": "AU",
    "lat": -37.57606,
    "lng": 143.87742
  },
  {
    "name": "Camp Mountain",
    "country": "AU",
    "lat": -27.4,
    "lng": 152.88333
  },
  {
    "name": "Camperdown",
    "country": "AU",
    "lat": -38.23392,
    "lng": 143.14983
  },
  {
    "name": "Camperdown",
    "country": "AU",
    "lat": -33.88965,
    "lng": 151.17642
  },
  {
    "name": "Campbelltown",
    "country": "AU",
    "lat": -34.06667,
    "lng": 150.81667
  },
  {
    "name": "Campbells Creek",
    "country": "AU",
    "lat": -37.08665,
    "lng": 144.20203
  },
  {
    "name": "Campbellfield",
    "country": "AU",
    "lat": -37.66386,
    "lng": 144.95953
  },
  {
    "name": "Campbell",
    "country": "AU",
    "lat": -35.28907,
    "lng": 149.15382
  },
  {
    "name": "Camden",
    "country": "AU",
    "lat": -34.05405,
    "lng": 150.69624
  },
  {
    "name": "Cambridge",
    "country": "AU",
    "lat": -42.83333,
    "lng": 147.45
  },
  {
    "name": "Cambooya",
    "country": "AU",
    "lat": -27.71454,
    "lng": 151.86029
  },
  {
    "name": "Camberwell",
    "country": "AU",
    "lat": -37.84205,
    "lng": 145.0694
  },
  {
    "name": "Cambewarra Village",
    "country": "AU",
    "lat": -34.82335,
    "lng": 150.5594
  },
  {
    "name": "Caloundra",
    "country": "AU",
    "lat": -26.80346,
    "lng": 153.12195
  },
  {
    "name": "Calliope",
    "country": "AU",
    "lat": -24.00705,
    "lng": 151.20033
  },
  {
    "name": "Cairns",
    "country": "AU",
    "lat": -16.92366,
    "lng": 145.76613
  },
  {
    "name": "Caboolture",
    "country": "AU",
    "lat": -27.08465,
    "lng": 152.9511
  },
  {
    "name": "Cabarlah",
    "country": "AU",
    "lat": -27.43333,
    "lng": 152.0
  },
  {
    "name": "Cammeray",
    "country": "AU",
    "lat": -33.82132,
    "lng": 151.21609
  },
  {
    "name": "Carseldine",
    "country": "AU",
    "lat": -27.34753,
    "lng": 153.02307
  },
  {
    "name": "Canada Bay",
    "country": "AU",
    "lat": -33.86483,
    "lng": 151.11425
  },
  {
    "name": "Canterbury",
    "country": "AU",
    "lat": -33.91192,
    "lng": 151.11862
  },
  {
    "name": "Caroline Springs",
    "country": "AU",
    "lat": -37.74124,
    "lng": 144.73631
  },
  {
    "name": "Carindale",
    "country": "AU",
    "lat": -27.50578,
    "lng": 153.10236
  },
  {
    "name": "Canning Vale",
    "country": "AU",
    "lat": -32.05799,
    "lng": 115.91814
  },
  {
    "name": "Canterbury",
    "country": "AU",
    "lat": -37.8247,
    "lng": 145.08476
  },
  {
    "name": "Caulfield South",
    "country": "AU",
    "lat": -37.89562,
    "lng": 145.02597
  },
  {
    "name": "Caravonica",
    "country": "AU",
    "lat": -16.87063,
    "lng": 145.68099
  },
  {
    "name": "Callala Bay",
    "country": "AU",
    "lat": -34.99668,
    "lng": 150.72281
  },
  {
    "name": "Calala",
    "country": "AU",
    "lat": -31.17356,
    "lng": 150.98059
  },
  {
    "name": "Catherine Field",
    "country": "AU",
    "lat": -34.00439,
    "lng": 150.77253
  },
  {
    "name": "Casuarina",
    "country": "AU",
    "lat": -28.30042,
    "lng": 153.57064
  },
  {
    "name": "Canley Vale",
    "country": "AU",
    "lat": -33.88657,
    "lng": 150.94802
  },
  {
    "name": "Calwell",
    "country": "AU",
    "lat": -35.44042,
    "lng": 149.10707
  },
  {
    "name": "Canberra City",
    "country": "AU",
    "lat": -35.28125,
    "lng": 149.12927
  },
  {
    "name": "Calista",
    "country": "AU",
    "lat": -32.241,
    "lng": 115.79763
  },
  {
    "name": "Cambridge Gardens",
    "country": "AU",
    "lat": -33.73801,
    "lng": 150.72075
  },
  {
    "name": "Cashmere",
    "country": "AU",
    "lat": -27.29767,
    "lng": 152.90662
  },
  {
    "name": "Carramar",
    "country": "AU",
    "lat": -31.69023,
    "lng": 115.77159
  },
  {
    "name": "Carlisle",
    "country": "AU",
    "lat": -31.97945,
    "lng": 115.91808
  },
  {
    "name": "Cape Woolamai",
    "country": "AU",
    "lat": -38.54285,
    "lng": 145.34407
  },
  {
    "name": "Cannon Hill",
    "country": "AU",
    "lat": -27.47237,
    "lng": 153.09475
  },
  {
    "name": "Carina Heights",
    "country": "AU",
    "lat": -27.50721,
    "lng": 153.09126
  },
  {
    "name": "Canton Beach",
    "country": "AU",
    "lat": -33.27443,
    "lng": 151.54614
  },
  {
    "name": "Carrara",
    "country": "AU",
    "lat": -28.02151,
    "lng": 153.36635
  },
  {
    "name": "Cabramatta",
    "country": "AU",
    "lat": -33.89743,
    "lng": 150.93446
  },
  {
    "name": "Cameron Park",
    "country": "AU",
    "lat": -32.90701,
    "lng": 151.60528
  },
  {
    "name": "Campsie",
    "country": "AU",
    "lat": -33.9125,
    "lng": 151.10279
  },
  {
    "name": "Catalina",
    "country": "AU",
    "lat": -35.73,
    "lng": 150.18494
  },
  {
    "name": "Canley Heights",
    "country": "AU",
    "lat": -33.88262,
    "lng": 150.92408
  },
  {
    "name": "Carss Park",
    "country": "AU",
    "lat": -33.98667,
    "lng": 151.11734
  },
  {
    "name": "Cartwright",
    "country": "AU",
    "lat": -33.92498,
    "lng": 150.88951
  },
  {
    "name": "Castlereagh",
    "country": "AU",
    "lat": -33.68981,
    "lng": 150.67887
  },
  {
    "name": "Casula",
    "country": "AU",
    "lat": -33.95222,
    "lng": 150.89949
  },
  {
    "name": "Carwoola",
    "country": "AU",
    "lat": -35.37836,
    "lng": 149.3215
  },
  {
    "name": "Caves Beach",
    "country": "AU",
    "lat": -33.10637,
    "lng": 151.64402
  },
  {
    "name": "Castletown",
    "country": "AU",
    "lat": -33.83237,
    "lng": 121.91563
  },
  {
    "name": "Callaghan",
    "country": "AU",
    "lat": -32.89205,
    "lng": 151.70531
  },
  {
    "name": "Calamvale",
    "country": "AU",
    "lat": -27.62329,
    "lng": 153.04785
  },
  {
    "name": "Cable Beach",
    "country": "AU",
    "lat": -17.96098,
    "lng": 122.21269
  },
  {
    "name": "Camillo",
    "country": "AU",
    "lat": -32.11292,
    "lng": 116.00205
  },
  {
    "name": "Carey Park",
    "country": "AU",
    "lat": -33.34878,
    "lng": 115.6493
  },
  {
    "name": "Carine",
    "country": "AU",
    "lat": -31.8523,
    "lng": 115.78258
  },
  {
    "name": "Casey",
    "country": "AU",
    "lat": -35.16701,
    "lng": 149.0947
  },
  {
    "name": "Cabarita",
    "country": "AU",
    "lat": -33.84721,
    "lng": 151.11638
  },
  {
    "name": "Carlton",
    "country": "AU",
    "lat": -33.97107,
    "lng": 151.12136
  },
  {
    "name": "Camira",
    "country": "AU",
    "lat": -27.63461,
    "lng": 152.92091
  },
  {
    "name": "Cairnlea",
    "country": "AU",
    "lat": -37.75931,
    "lng": 144.78781
  },
  {
    "name": "California Gully",
    "country": "AU",
    "lat": -36.72887,
    "lng": 144.26089
  },
  {
    "name": "Casuarina",
    "country": "AU",
    "lat": -32.24143,
    "lng": 115.8698
  },
  {
    "name": "Carrolls Creek",
    "country": "AU",
    "lat": -28.82272,
    "lng": 152.10305
  },
  {
    "name": "Camp Hill",
    "country": "AU",
    "lat": -27.49354,
    "lng": 153.07629
  },
  {
    "name": "Caboolture South",
    "country": "AU",
    "lat": -27.09389,
    "lng": 152.94874
  },
  {
    "name": "Cabramatta West",
    "country": "AU",
    "lat": -33.89303,
    "lng": 150.9119
  },
  {
    "name": "Cambridge Park",
    "country": "AU",
    "lat": -33.74784,
    "lng": 150.72208
  },
  {
    "name": "Camden South",
    "country": "AU",
    "lat": -34.08312,
    "lng": 150.69491
  },
  {
    "name": "Caringbah South",
    "country": "AU",
    "lat": -34.05662,
    "lng": 151.12149
  },
  {
    "name": "Carnes Hill",
    "country": "AU",
    "lat": -33.93846,
    "lng": 150.84881
  },
  {
    "name": "Castle Cove",
    "country": "AU",
    "lat": -33.78655,
    "lng": 151.20925
  },
  {
    "name": "Carramar",
    "country": "AU",
    "lat": -33.88382,
    "lng": 150.96153
  },
  {
    "name": "Camden Park",
    "country": "AU",
    "lat": -34.96857,
    "lng": 138.53957
  },
  {
    "name": "Carrington",
    "country": "AU",
    "lat": -32.91501,
    "lng": 151.76436
  },
  {
    "name": "Cardiff Heights",
    "country": "AU",
    "lat": -32.93626,
    "lng": 151.67227
  },
  {
    "name": "Cardiff South",
    "country": "AU",
    "lat": -32.9547,
    "lng": 151.66446
  },
  {
    "name": "Caloundra West",
    "country": "AU",
    "lat": -26.80634,
    "lng": 153.10894
  },
  {
    "name": "Cairns City",
    "country": "AU",
    "lat": -16.92069,
    "lng": 145.77358
  },
  {
    "name": "Cairns North",
    "country": "AU",
    "lat": -16.90406,
    "lng": 145.75703
  },
  {
    "name": "Caddens",
    "country": "AU",
    "lat": -33.77415,
    "lng": 150.74126
  },
  {
    "name": "Capel Sound",
    "country": "AU",
    "lat": -38.36727,
    "lng": 144.87877
  },
  {
    "name": "Cahri",
    "country": "AZ",
    "lat": 39.34837,
    "lng": 45.41557
  },
  {
    "name": "Cazin",
    "country": "BA",
    "lat": 44.96694,
    "lng": 15.94306
  },
  {
    "name": "Careva Ćuprija",
    "country": "BA",
    "lat": 44.2663,
    "lng": 18.42961
  },
  {
    "name": "Casteau",
    "country": "BE",
    "lat": 50.51233,
    "lng": 4.01121
  },
  {
    "name": "Carnières",
    "country": "BE",
    "lat": 50.44428,
    "lng": 4.25509
  },
  {
    "name": "Cambron-Saint-Vincent",
    "country": "BE",
    "lat": 50.58493,
    "lng": 3.92186
  },
  {
    "name": "Cankuzo",
    "country": "BI",
    "lat": -3.2186,
    "lng": 30.5528
  },
  {
    "name": "Campamento Colquiri",
    "country": "BO",
    "lat": -17.39169,
    "lng": -67.12526
  },
  {
    "name": "Calchani",
    "country": "BO",
    "lat": -17.32276,
    "lng": -66.69131
  },
  {
    "name": "Caranavi",
    "country": "BO",
    "lat": -15.83403,
    "lng": -67.56586
  },
  {
    "name": "Capinota",
    "country": "BO",
    "lat": -17.71113,
    "lng": -66.26082
  },
  {
    "name": "Camiri",
    "country": "BO",
    "lat": -20.04063,
    "lng": -63.52396
  },
  {
    "name": "Camargo",
    "country": "BO",
    "lat": -20.64064,
    "lng": -65.20893
  },
  {
    "name": "Carnaubinha",
    "country": "BR",
    "lat": -5.21492,
    "lng": -35.43523
  },
  {
    "name": "Caxingó",
    "country": "BR",
    "lat": -3.4175,
    "lng": -41.89611
  },
  {
    "name": "Caxias",
    "country": "BR",
    "lat": -4.85889,
    "lng": -43.35611
  },
  {
    "name": "Caucaia",
    "country": "BR",
    "lat": -3.73611,
    "lng": -38.65306
  },
  {
    "name": "Caturité",
    "country": "BR",
    "lat": -7.42028,
    "lng": -36.02722
  },
  {
    "name": "Catunda",
    "country": "BR",
    "lat": -4.64778,
    "lng": -40.20139
  },
  {
    "name": "Catolé do Rocha",
    "country": "BR",
    "lat": -6.34389,
    "lng": -37.74667
  },
  {
    "name": "Campo Alegre de Lourdes",
    "country": "BR",
    "lat": -9.51729,
    "lng": -43.01026
  },
  {
    "name": "Catingueira",
    "country": "BR",
    "lat": -7.12556,
    "lng": -37.60889
  },
  {
    "name": "Catende",
    "country": "BR",
    "lat": -8.66667,
    "lng": -35.71667
  },
  {
    "name": "Catarina",
    "country": "BR",
    "lat": -6.13083,
    "lng": -39.8775
  },
  {
    "name": "Castelo do Piauí",
    "country": "BR",
    "lat": -5.32222,
    "lng": -41.5525
  },
  {
    "name": "Castanhal",
    "country": "BR",
    "lat": -1.29389,
    "lng": -47.92639
  },
  {
    "name": "Casinhas",
    "country": "BR",
    "lat": -7.74111,
    "lng": -35.72111
  },
  {
    "name": "Cascavel",
    "country": "BR",
    "lat": -4.13306,
    "lng": -38.24194
  },
  {
    "name": "Casa Nova",
    "country": "BR",
    "lat": -9.17419,
    "lng": -40.97514
  },
  {
    "name": "Carutapera",
    "country": "BR",
    "lat": -1.20736,
    "lng": -46.0236
  },
  {
    "name": "Caruaru",
    "country": "BR",
    "lat": -8.28333,
    "lng": -35.97611
  },
  {
    "name": "Carrapateira",
    "country": "BR",
    "lat": -7.03889,
    "lng": -38.34361
  },
  {
    "name": "Carpina",
    "country": "BR",
    "lat": -7.85083,
    "lng": -35.25472
  },
  {
    "name": "Carolina",
    "country": "BR",
    "lat": -7.33561,
    "lng": -47.46218
  },
  {
    "name": "Carneiros",
    "country": "BR",
    "lat": -9.4825,
    "lng": -37.37722
  },
  {
    "name": "Carnaubal",
    "country": "BR",
    "lat": -4.16667,
    "lng": -40.94278
  },
  {
    "name": "Carnaubais",
    "country": "BR",
    "lat": -5.33752,
    "lng": -36.83421
  },
  {
    "name": "Carnaúba dos Dantas",
    "country": "BR",
    "lat": -6.55556,
    "lng": -36.595
  },
  {
    "name": "Carnaubeira da Penha",
    "country": "BR",
    "lat": -8.31855,
    "lng": -38.74357
  },
  {
    "name": "Carnaíba",
    "country": "BR",
    "lat": -8.7,
    "lng": -37.66667
  },
  {
    "name": "Carnaíba",
    "country": "BR",
    "lat": -7.80528,
    "lng": -37.79389
  },
  {
    "name": "Cariús",
    "country": "BR",
    "lat": -6.53722,
    "lng": -39.49667
  },
  {
    "name": "Caririaçu",
    "country": "BR",
    "lat": -7.04222,
    "lng": -39.28361
  },
  {
    "name": "Cariré",
    "country": "BR",
    "lat": -3.95056,
    "lng": -40.47333
  },
  {
    "name": "Caridade do Piauí",
    "country": "BR",
    "lat": -7.73241,
    "lng": -40.988
  },
  {
    "name": "Caridade",
    "country": "BR",
    "lat": -4.23222,
    "lng": -39.1925
  },
  {
    "name": "Careiro da Várzea",
    "country": "BR",
    "lat": -3.19695,
    "lng": -59.82674
  },
  {
    "name": "Caraúbas",
    "country": "BR",
    "lat": -7.72073,
    "lng": -36.49401
  },
  {
    "name": "Caraúbas",
    "country": "BR",
    "lat": -5.7925,
    "lng": -37.55667
  },
  {
    "name": "Caracol",
    "country": "BR",
    "lat": -9.27861,
    "lng": -43.33
  },
  {
    "name": "Capoeiras",
    "country": "BR",
    "lat": -8.73472,
    "lng": -36.62667
  },
  {
    "name": "Capitão Poço",
    "country": "BR",
    "lat": -1.74639,
    "lng": -47.05944
  },
  {
    "name": "Capitão de Campos",
    "country": "BR",
    "lat": -4.45667,
    "lng": -41.9425
  },
  {
    "name": "Capistrano",
    "country": "BR",
    "lat": -4.47,
    "lng": -38.90139
  },
  {
    "name": "Capim",
    "country": "BR",
    "lat": -6.91611,
    "lng": -35.17167
  },
  {
    "name": "Capela",
    "country": "BR",
    "lat": -9.4075,
    "lng": -36.07361
  },
  {
    "name": "Capanema",
    "country": "BR",
    "lat": -1.19583,
    "lng": -47.18083
  },
  {
    "name": "Canudos",
    "country": "BR",
    "lat": -9.89667,
    "lng": -39.02639
  },
  {
    "name": "Canto do Buriti",
    "country": "BR",
    "lat": -8.11,
    "lng": -42.94444
  },
  {
    "name": "Cantanhede",
    "country": "BR",
    "lat": -3.63333,
    "lng": -44.37667
  },
  {
    "name": "Canindé de São Francisco",
    "country": "BR",
    "lat": -9.66,
    "lng": -37.78944
  },
  {
    "name": "Canindé",
    "country": "BR",
    "lat": -4.35889,
    "lng": -39.31167
  },
  {
    "name": "Canhotinho",
    "country": "BR",
    "lat": -8.88222,
    "lng": -36.19111
  },
  {
    "name": "Canguaretama",
    "country": "BR",
    "lat": -6.38,
    "lng": -35.12889
  },
  {
    "name": "Canavieira",
    "country": "BR",
    "lat": -7.68806,
    "lng": -43.72056
  },
  {
    "name": "Canapi",
    "country": "BR",
    "lat": -9.11694,
    "lng": -37.60222
  },
  {
    "name": "Camutanga",
    "country": "BR",
    "lat": -7.40694,
    "lng": -35.27444
  },
  {
    "name": "Campos Sales",
    "country": "BR",
    "lat": -7.07444,
    "lng": -40.37611
  },
  {
    "name": "Campo Redondo",
    "country": "BR",
    "lat": -6.24139,
    "lng": -36.1825
  },
  {
    "name": "Campo Maior",
    "country": "BR",
    "lat": -4.82778,
    "lng": -42.16861
  },
  {
    "name": "Campo Largo do Piauí",
    "country": "BR",
    "lat": -3.81079,
    "lng": -42.62896
  },
  {
    "name": "Campo Grande do Piauí",
    "country": "BR",
    "lat": -7.13366,
    "lng": -41.0376
  },
  {
    "name": "Campo Alegre",
    "country": "BR",
    "lat": -9.78194,
    "lng": -36.35083
  },
  {
    "name": "Campo Alegre do Fidalgo",
    "country": "BR",
    "lat": -8.37682,
    "lng": -41.83698
  },
  {
    "name": "Campinas do Piauí",
    "country": "BR",
    "lat": -7.66028,
    "lng": -41.88167
  },
  {
    "name": "Campina Grande",
    "country": "BR",
    "lat": -7.23056,
    "lng": -35.88111
  },
  {
    "name": "Campestre",
    "country": "BR",
    "lat": -8.84583,
    "lng": -35.56806
  },
  {
    "name": "Camocim de São Félix",
    "country": "BR",
    "lat": -8.35861,
    "lng": -35.76194
  },
  {
    "name": "Camocim",
    "country": "BR",
    "lat": -2.90222,
    "lng": -40.84111
  },
  {
    "name": "Cametá",
    "country": "BR",
    "lat": -2.24444,
    "lng": -49.49583
  },
  {
    "name": "Camaragibe",
    "country": "BR",
    "lat": -8.02167,
    "lng": -34.98111
  },
  {
    "name": "Camalaú",
    "country": "BR",
    "lat": -7.88889,
    "lng": -36.82333
  },
  {
    "name": "Calumbi",
    "country": "BR",
    "lat": -7.94139,
    "lng": -38.15
  },
  {
    "name": "Caldeirão Grande do Piauí",
    "country": "BR",
    "lat": -7.33243,
    "lng": -40.63875
  },
  {
    "name": "Calçoene",
    "country": "BR",
    "lat": 2.4975,
    "lng": -50.94861
  },
  {
    "name": "Calçado",
    "country": "BR",
    "lat": -8.74222,
    "lng": -36.33389
  },
  {
    "name": "Cajueiro",
    "country": "BR",
    "lat": -9.70926,
    "lng": -36.44785
  },
  {
    "name": "Cajueiro",
    "country": "BR",
    "lat": -9.39667,
    "lng": -36.15361
  },
  {
    "name": "Cajueiro",
    "country": "BR",
    "lat": -5.15212,
    "lng": -35.51688
  },
  {
    "name": "Cajueiro da Praia",
    "country": "BR",
    "lat": -2.93098,
    "lng": -41.33597
  },
  {
    "name": "Cajazeiras do Piauí",
    "country": "BR",
    "lat": -6.79329,
    "lng": -42.39378
  },
  {
    "name": "Cajazeirinhas",
    "country": "BR",
    "lat": -6.96111,
    "lng": -37.80611
  },
  {
    "name": "Cajazeiras",
    "country": "BR",
    "lat": -6.89028,
    "lng": -38.55528
  },
  {
    "name": "Cajari",
    "country": "BR",
    "lat": -3.32083,
    "lng": -45.01083
  },
  {
    "name": "Cajapió",
    "country": "BR",
    "lat": -2.88083,
    "lng": -44.67472
  },
  {
    "name": "Caicó",
    "country": "BR",
    "lat": -6.45833,
    "lng": -37.09778
  },
  {
    "name": "Caiçara do Rio do Vento",
    "country": "BR",
    "lat": -5.76028,
    "lng": -35.99833
  },
  {
    "name": "Caiçara do Norte",
    "country": "BR",
    "lat": -5.06253,
    "lng": -36.05013
  },
  {
    "name": "Caiçara",
    "country": "BR",
    "lat": -6.615,
    "lng": -35.46861
  },
  {
    "name": "Caetés",
    "country": "BR",
    "lat": -8.77306,
    "lng": -36.6225
  },
  {
    "name": "Cacimbinhas",
    "country": "BR",
    "lat": -9.40028,
    "lng": -36.99028
  },
  {
    "name": "Cacimbas",
    "country": "BR",
    "lat": -7.21111,
    "lng": -37.0575
  },
  {
    "name": "Cacimba de Dentro",
    "country": "BR",
    "lat": -6.64167,
    "lng": -35.79
  },
  {
    "name": "Cacimba de Areia",
    "country": "BR",
    "lat": -7.12944,
    "lng": -37.15722
  },
  {
    "name": "Cachoeirinha",
    "country": "BR",
    "lat": -8.48639,
    "lng": -36.23306
  },
  {
    "name": "Cachoeira dos Índios",
    "country": "BR",
    "lat": -6.92694,
    "lng": -38.67417
  },
  {
    "name": "Cachoeira do Arari",
    "country": "BR",
    "lat": -1.01139,
    "lng": -48.96333
  },
  {
    "name": "Cachoeira Grande",
    "country": "BR",
    "lat": -2.9298,
    "lng": -44.05438
  },
  {
    "name": "Cabrobó",
    "country": "BR",
    "lat": -8.51417,
    "lng": -39.31
  },
  {
    "name": "Cabo de Santo Agostinho",
    "country": "BR",
    "lat": -8.28773,
    "lng": -35.02925
  },
  {
    "name": "Cabedelo",
    "country": "BR",
    "lat": -6.98111,
    "lng": -34.83389
  },
  {
    "name": "Cabeceiras do Piauí",
    "country": "BR",
    "lat": -4.47611,
    "lng": -42.30858
  },
  {
    "name": "Cabaceiras",
    "country": "BR",
    "lat": -7.48889,
    "lng": -36.28722
  },
  {
    "name": "Caaporã",
    "country": "BR",
    "lat": -7.51556,
    "lng": -34.90833
  },
  {
    "name": "Campo Grande",
    "country": "BR",
    "lat": -5.86389,
    "lng": -37.31
  },
  {
    "name": "Campos Lindos",
    "country": "BR",
    "lat": -7.99389,
    "lng": -46.86806
  },
  {
    "name": "Carmolândia",
    "country": "BR",
    "lat": -7.03333,
    "lng": -48.39611
  },
  {
    "name": "Caseara",
    "country": "BR",
    "lat": -9.27833,
    "lng": -49.95556
  },
  {
    "name": "Cachoeirinha",
    "country": "BR",
    "lat": -6.12032,
    "lng": -47.9213
  },
  {
    "name": "Canápolis",
    "country": "BR",
    "lat": -13.07132,
    "lng": -44.20161
  },
  {
    "name": "Candói",
    "country": "BR",
    "lat": -25.57056,
    "lng": -52.0512
  },
  {
    "name": "Caxias do Sul",
    "country": "BR",
    "lat": -29.16806,
    "lng": -51.17944
  },
  {
    "name": "Caxambu do Sul",
    "country": "BR",
    "lat": -27.16027,
    "lng": -52.88094
  },
  {
    "name": "Caxambu",
    "country": "BR",
    "lat": -21.97722,
    "lng": -44.9325
  },
  {
    "name": "Cavalcante",
    "country": "BR",
    "lat": -13.7975,
    "lng": -47.45833
  },
  {
    "name": "Caturama",
    "country": "BR",
    "lat": -13.32944,
    "lng": -42.29056
  },
  {
    "name": "Caturaí",
    "country": "BR",
    "lat": -16.44694,
    "lng": -49.49389
  },
  {
    "name": "Catuípe",
    "country": "BR",
    "lat": -28.25,
    "lng": -54.01167
  },
  {
    "name": "Catuji",
    "country": "BR",
    "lat": -17.29944,
    "lng": -41.51694
  },
  {
    "name": "Catu",
    "country": "BR",
    "lat": -12.35306,
    "lng": -38.37889
  },
  {
    "name": "Catiguá",
    "country": "BR",
    "lat": -21.04944,
    "lng": -49.05833
  },
  {
    "name": "Catas Altas da Noruega",
    "country": "BR",
    "lat": -20.69,
    "lng": -43.4975
  },
  {
    "name": "Catas Altas",
    "country": "BR",
    "lat": -20.07472,
    "lng": -43.4075
  },
  {
    "name": "Catanduvas",
    "country": "BR",
    "lat": -27.07056,
    "lng": -51.66167
  },
  {
    "name": "Catanduvas",
    "country": "BR",
    "lat": -25.20306,
    "lng": -53.15667
  },
  {
    "name": "Catanduva",
    "country": "BR",
    "lat": -21.13778,
    "lng": -48.97278
  },
  {
    "name": "Catalão",
    "country": "BR",
    "lat": -18.16583,
    "lng": -47.94639
  },
  {
    "name": "Cataguases",
    "country": "BR",
    "lat": -21.38917,
    "lng": -42.69667
  },
  {
    "name": "Castro Alves",
    "country": "BR",
    "lat": -12.76556,
    "lng": -39.42833
  },
  {
    "name": "Castro",
    "country": "BR",
    "lat": -24.78927,
    "lng": -50.01225
  },
  {
    "name": "Castilho",
    "country": "BR",
    "lat": -20.87222,
    "lng": -51.4875
  },
  {
    "name": "Castelo",
    "country": "BR",
    "lat": -20.60361,
    "lng": -41.18472
  },
  {
    "name": "Cassilândia",
    "country": "BR",
    "lat": -19.11333,
    "lng": -51.73417
  },
  {
    "name": "Casimiro de Abreu",
    "country": "BR",
    "lat": -22.48056,
    "lng": -42.20417
  },
  {
    "name": "Caseiros",
    "country": "BR",
    "lat": -28.26861,
    "lng": -51.68972
  },
  {
    "name": "Cascavel",
    "country": "BR",
    "lat": -24.95583,
    "lng": -53.45528
  },
  {
    "name": "Cascalho Rico",
    "country": "BR",
    "lat": -18.57639,
    "lng": -47.87722
  },
  {
    "name": "Casca",
    "country": "BR",
    "lat": -28.56111,
    "lng": -51.97833
  },
  {
    "name": "Casa Grande",
    "country": "BR",
    "lat": -20.79278,
    "lng": -43.93028
  },
  {
    "name": "Casa Branca",
    "country": "BR",
    "lat": -21.77389,
    "lng": -47.08639
  },
  {
    "name": "Carvalhos",
    "country": "BR",
    "lat": -22.00111,
    "lng": -44.46139
  },
  {
    "name": "Carrancas",
    "country": "BR",
    "lat": -21.4875,
    "lng": -44.6425
  },
  {
    "name": "Carmópolis de Minas",
    "country": "BR",
    "lat": -20.54139,
    "lng": -44.635
  },
  {
    "name": "Carmópolis",
    "country": "BR",
    "lat": -10.64806,
    "lng": -36.98889
  },
  {
    "name": "Carmo do Rio Verde",
    "country": "BR",
    "lat": -15.35361,
    "lng": -49.7075
  },
  {
    "name": "Carmo do Rio Claro",
    "country": "BR",
    "lat": -20.97194,
    "lng": -46.11889
  },
  {
    "name": "Carmo do Paranaíba",
    "country": "BR",
    "lat": -19.00083,
    "lng": -46.31611
  },
  {
    "name": "Carmo do Cajuru",
    "country": "BR",
    "lat": -20.18417,
    "lng": -44.77111
  },
  {
    "name": "Carmo de Minas",
    "country": "BR",
    "lat": -22.12222,
    "lng": -45.12917
  },
  {
    "name": "Carmo da Mata",
    "country": "BR",
    "lat": -20.55778,
    "lng": -44.87056
  },
  {
    "name": "Carmo da Cachoeira",
    "country": "BR",
    "lat": -21.46083,
    "lng": -45.22361
  },
  {
    "name": "Carmo",
    "country": "BR",
    "lat": -21.93361,
    "lng": -42.60861
  },
  {
    "name": "Carmésia",
    "country": "BR",
    "lat": -19.08889,
    "lng": -43.14167
  },
  {
    "name": "Carlos Gomes",
    "country": "BR",
    "lat": -27.71778,
    "lng": -51.91361
  },
  {
    "name": "Carlos Chagas",
    "country": "BR",
    "lat": -17.70306,
    "lng": -40.76639
  },
  {
    "name": "Carlos Barbosa",
    "country": "BR",
    "lat": -29.2975,
    "lng": -51.50361
  },
  {
    "name": "Carlópolis",
    "country": "BR",
    "lat": -23.425,
    "lng": -49.72083
  },
  {
    "name": "Cariri do Tocantins",
    "country": "BR",
    "lat": -11.89083,
    "lng": -49.16111
  },
  {
    "name": "Carira",
    "country": "BR",
    "lat": -10.36083,
    "lng": -37.70111
  },
  {
    "name": "Carinhanha",
    "country": "BR",
    "lat": -14.30472,
    "lng": -43.765
  },
  {
    "name": "Cariacica",
    "country": "BR",
    "lat": -20.26389,
    "lng": -40.42
  },
  {
    "name": "Careaçu",
    "country": "BR",
    "lat": -22.04306,
    "lng": -45.69917
  },
  {
    "name": "Cardoso Moreira",
    "country": "BR",
    "lat": -21.48833,
    "lng": -41.61556
  },
  {
    "name": "Cardoso",
    "country": "BR",
    "lat": -20.08194,
    "lng": -49.91417
  },
  {
    "name": "Cardeal da Silva",
    "country": "BR",
    "lat": -11.94167,
    "lng": -37.94861
  },
  {
    "name": "Carbonita",
    "country": "BR",
    "lat": -17.52694,
    "lng": -43.01583
  },
  {
    "name": "Carazinho",
    "country": "BR",
    "lat": -28.28389,
    "lng": -52.78639
  },
  {
    "name": "Caravelas",
    "country": "BR",
    "lat": -17.71255,
    "lng": -39.24814
  },
  {
    "name": "Caratinga",
    "country": "BR",
    "lat": -19.78972,
    "lng": -42.13917
  },
  {
    "name": "Caarapó",
    "country": "BR",
    "lat": -22.63417,
    "lng": -54.82222
  },
  {
    "name": "Carapicuíba",
    "country": "BR",
    "lat": -23.52272,
    "lng": -46.835
  },
  {
    "name": "Carapebus",
    "country": "BR",
    "lat": -22.18722,
    "lng": -41.66111
  },
  {
    "name": "Carangola",
    "country": "BR",
    "lat": -20.73306,
    "lng": -42.02944
  },
  {
    "name": "Carandaí",
    "country": "BR",
    "lat": -20.95361,
    "lng": -43.80639
  },
  {
    "name": "Caranaíba",
    "country": "BR",
    "lat": -20.87583,
    "lng": -43.73917
  },
  {
    "name": "Carambeí",
    "country": "BR",
    "lat": -24.9526,
    "lng": -50.1159
  },
  {
    "name": "Caraíbas",
    "country": "BR",
    "lat": -14.72583,
    "lng": -41.25917
  },
  {
    "name": "Caraí",
    "country": "BR",
    "lat": -17.18889,
    "lng": -41.69472
  },
  {
    "name": "Caraguatatuba",
    "country": "BR",
    "lat": -23.62028,
    "lng": -45.41306
  },
  {
    "name": "Caracol",
    "country": "BR",
    "lat": -22.01389,
    "lng": -57.02444
  },
  {
    "name": "Caraá",
    "country": "BR",
    "lat": -29.79,
    "lng": -50.435
  },
  {
    "name": "Caputira",
    "country": "BR",
    "lat": -20.17194,
    "lng": -42.27056
  },
  {
    "name": "Capivari",
    "country": "BR",
    "lat": -22.995,
    "lng": -47.50778
  },
  {
    "name": "Capitólio",
    "country": "BR",
    "lat": -20.61528,
    "lng": -46.05
  },
  {
    "name": "Capinzal",
    "country": "BR",
    "lat": -27.34361,
    "lng": -51.61194
  },
  {
    "name": "Capinópolis",
    "country": "BR",
    "lat": -18.68194,
    "lng": -49.56972
  },
  {
    "name": "Capim Grosso",
    "country": "BR",
    "lat": -11.38111,
    "lng": -40.01278
  },
  {
    "name": "Capim Branco",
    "country": "BR",
    "lat": -19.54889,
    "lng": -44.11667
  },
  {
    "name": "Capetinga",
    "country": "BR",
    "lat": -20.61639,
    "lng": -47.05361
  },
  {
    "name": "Capelinha",
    "country": "BR",
    "lat": -17.69139,
    "lng": -42.51583
  },
  {
    "name": "Capela Nova",
    "country": "BR",
    "lat": -20.92306,
    "lng": -43.61778
  },
  {
    "name": "Capela do Alto Alegre",
    "country": "BR",
    "lat": -11.66806,
    "lng": -39.83778
  },
  {
    "name": "Capela do Alto",
    "country": "BR",
    "lat": -23.47056,
    "lng": -47.73472
  },
  {
    "name": "Capela de Santana",
    "country": "BR",
    "lat": -29.7,
    "lng": -51.32472
  },
  {
    "name": "Capela",
    "country": "BR",
    "lat": -10.50333,
    "lng": -37.05278
  },
  {
    "name": "Caparaó",
    "country": "BR",
    "lat": -20.52306,
    "lng": -41.90444
  },
  {
    "name": "Capão do Leão",
    "country": "BR",
    "lat": -31.76333,
    "lng": -52.48389
  },
  {
    "name": "Capão da Canoa",
    "country": "BR",
    "lat": -29.74556,
    "lng": -50.00972
  },
  {
    "name": "Capão Bonito do Sul",
    "country": "BR",
    "lat": -28.12667,
    "lng": -51.39389
  },
  {
    "name": "Capão Bonito",
    "country": "BR",
    "lat": -24.00583,
    "lng": -48.34944
  },
  {
    "name": "Capão Alto",
    "country": "BR",
    "lat": -27.93694,
    "lng": -50.51194
  },
  {
    "name": "Capanema",
    "country": "BR",
    "lat": -25.67194,
    "lng": -53.80889
  },
  {
    "name": "Canudos do Vale",
    "country": "BR",
    "lat": -29.32264,
    "lng": -52.23782
  },
  {
    "name": "Cantagalo",
    "country": "BR",
    "lat": -25.37444,
    "lng": -52.12639
  },
  {
    "name": "Cantagalo",
    "country": "BR",
    "lat": -21.98111,
    "lng": -42.36806
  },
  {
    "name": "Cantagalo",
    "country": "BR",
    "lat": -18.52583,
    "lng": -42.62694
  },
  {
    "name": "Cansanção",
    "country": "BR",
    "lat": -10.66722,
    "lng": -39.49917
  },
  {
    "name": "Canoinhas",
    "country": "BR",
    "lat": -26.17722,
    "lng": -50.39
  },
  {
    "name": "Canoas",
    "country": "BR",
    "lat": -29.91778,
    "lng": -51.18361
  },
  {
    "name": "Canitar",
    "country": "BR",
    "lat": -23.00639,
    "lng": -49.78333
  },
  {
    "name": "Canhoba",
    "country": "BR",
    "lat": -10.13833,
    "lng": -36.98472
  },
  {
    "name": "Canguçu",
    "country": "BR",
    "lat": -31.395,
    "lng": -52.67556
  },
  {
    "name": "Canelinha",
    "country": "BR",
    "lat": -27.265,
    "lng": -48.76778
  },
  {
    "name": "Canela",
    "country": "BR",
    "lat": -29.35622,
    "lng": -50.81357
  },
  {
    "name": "Candiota",
    "country": "BR",
    "lat": -31.55806,
    "lng": -53.6725
  },
  {
    "name": "Candiba",
    "country": "BR",
    "lat": -14.41083,
    "lng": -42.86722
  },
  {
    "name": "Candelária",
    "country": "BR",
    "lat": -29.66917,
    "lng": -52.78889
  },
  {
    "name": "Candeias",
    "country": "BR",
    "lat": -20.76694,
    "lng": -45.27639
  },
  {
    "name": "Candeias",
    "country": "BR",
    "lat": -12.66778,
    "lng": -38.55056
  },
  {
    "name": "Candeal",
    "country": "BR",
    "lat": -11.80806,
    "lng": -39.11917
  },
  {
    "name": "Canavieiras",
    "country": "BR",
    "lat": -15.675,
    "lng": -38.94722
  },
  {
    "name": "Cana Verde",
    "country": "BR",
    "lat": -21.02083,
    "lng": -45.18194
  },
  {
    "name": "Canas",
    "country": "BR",
    "lat": -22.70361,
    "lng": -45.05528
  },
  {
    "name": "Canarana",
    "country": "BR",
    "lat": -11.68472,
    "lng": -41.76889
  },
  {
    "name": "Canápolis",
    "country": "BR",
    "lat": -18.725,
    "lng": -49.20444
  },
  {
    "name": "Cananéia",
    "country": "BR",
    "lat": -25.01472,
    "lng": -47.92667
  },
  {
    "name": "Carvalhópolis",
    "country": "BR",
    "lat": -21.77851,
    "lng": -45.84103
  },
  {
    "name": "Canaã",
    "country": "BR",
    "lat": -20.68583,
    "lng": -42.61972
  },
  {
    "name": "Campo Verde",
    "country": "BR",
    "lat": -20.41667,
    "lng": -54.06667
  },
  {
    "name": "Campos Novos Paulista",
    "country": "BR",
    "lat": -22.60306,
    "lng": -50.0025
  },
  {
    "name": "Campos Novos",
    "country": "BR",
    "lat": -27.40167,
    "lng": -51.225
  },
  {
    "name": "Campos Gerais",
    "country": "BR",
    "lat": -21.235,
    "lng": -45.75861
  },
  {
    "name": "Campos do Jordão",
    "country": "BR",
    "lat": -22.73944,
    "lng": -45.59139
  },
  {
    "name": "Campos Borges",
    "country": "BR",
    "lat": -28.88611,
    "lng": -52.99861
  },
  {
    "name": "Campos Belos",
    "country": "BR",
    "lat": -13.03667,
    "lng": -46.77167
  },
  {
    "name": "Campos Altos",
    "country": "BR",
    "lat": -19.69611,
    "lng": -46.17139
  },
  {
    "name": "Campos dos Goytacazes",
    "country": "BR",
    "lat": -21.75227,
    "lng": -41.33044
  },
  {
    "name": "Campo Novo",
    "country": "BR",
    "lat": -27.67528,
    "lng": -53.80333
  },
  {
    "name": "Campo Mourão",
    "country": "BR",
    "lat": -24.04309,
    "lng": -52.37929
  },
  {
    "name": "Campo Magro",
    "country": "BR",
    "lat": -25.36861,
    "lng": -49.45139
  },
  {
    "name": "Campo Limpo",
    "country": "BR",
    "lat": -23.63634,
    "lng": -46.76565
  },
  {
    "name": "Campo Limpo Paulista",
    "country": "BR",
    "lat": -23.20554,
    "lng": -46.7838
  },
  {
    "name": "Campo Limpo de Goiás",
    "country": "BR",
    "lat": -16.29345,
    "lng": -49.09083
  },
  {
    "name": "Campo Largo",
    "country": "BR",
    "lat": -25.45955,
    "lng": -49.53014
  },
  {
    "name": "Campo Grande",
    "country": "BR",
    "lat": -20.44278,
    "lng": -54.64639
  },
  {
    "name": "Campo Grande",
    "country": "BR",
    "lat": -10.23333,
    "lng": -36.5
  },
  {
    "name": "Campo Formoso",
    "country": "BR",
    "lat": -10.5075,
    "lng": -40.32139
  },
  {
    "name": "Campo Florido",
    "country": "BR",
    "lat": -19.76056,
    "lng": -48.57222
  },
  {
    "name": "Campo Erê",
    "country": "BR",
    "lat": -26.39417,
    "lng": -53.07806
  },
  {
    "name": "Campo do Tenente",
    "country": "BR",
    "lat": -25.97806,
    "lng": -49.68278
  },
  {
    "name": "Campo do Meio",
    "country": "BR",
    "lat": -21.10667,
    "lng": -45.83028
  },
  {
    "name": "Campo do Brito",
    "country": "BR",
    "lat": -10.73333,
    "lng": -37.49333
  },
  {
    "name": "Campo Bonito",
    "country": "BR",
    "lat": -25.03111,
    "lng": -52.9925
  },
  {
    "name": "Campo Bom",
    "country": "BR",
    "lat": -29.67889,
    "lng": -51.05333
  },
  {
    "name": "Campo Belo do Sul",
    "country": "BR",
    "lat": -27.89917,
    "lng": -50.76083
  },
  {
    "name": "Campo Belo",
    "country": "BR",
    "lat": -20.89722,
    "lng": -45.27722
  },
  {
    "name": "Campo Azul",
    "country": "BR",
    "lat": -16.50361,
    "lng": -44.81056
  },
  {
    "name": "Campo Alegre de Goiás",
    "country": "BR",
    "lat": -17.63306,
    "lng": -47.77833
  },
  {
    "name": "Campo Alegre",
    "country": "BR",
    "lat": -26.1925,
    "lng": -49.26556
  },
  {
    "name": "Campinorte",
    "country": "BR",
    "lat": -14.31139,
    "lng": -49.15111
  },
  {
    "name": "Campina Verde",
    "country": "BR",
    "lat": -19.53791,
    "lng": -49.48813
  },
  {
    "name": "Campinas do Sul",
    "country": "BR",
    "lat": -27.71583,
    "lng": -52.6275
  },
  {
    "name": "Campinas",
    "country": "BR",
    "lat": -22.90556,
    "lng": -47.06083
  },
  {
    "name": "Campina Grande do Sul",
    "country": "BR",
    "lat": -25.30556,
    "lng": -49.05528
  },
  {
    "name": "Campina do Monte Alegre",
    "country": "BR",
    "lat": -23.59194,
    "lng": -48.47722
  },
  {
    "name": "Campina da Lagoa",
    "country": "BR",
    "lat": -24.59167,
    "lng": -52.79889
  },
  {
    "name": "Campina das Missões",
    "country": "BR",
    "lat": -27.99109,
    "lng": -54.84053
  },
  {
    "name": "Campina do Simão",
    "country": "BR",
    "lat": -25.10785,
    "lng": -51.80833
  },
  {
    "name": "Campestre",
    "country": "BR",
    "lat": -21.71111,
    "lng": -46.24639
  },
  {
    "name": "Campanha",
    "country": "BR",
    "lat": -21.83611,
    "lng": -45.40056
  },
  {
    "name": "Campanário",
    "country": "BR",
    "lat": -18.23727,
    "lng": -41.7262
  },
  {
    "name": "Cambuquira",
    "country": "BR",
    "lat": -21.85222,
    "lng": -45.29583
  },
  {
    "name": "Cambuí",
    "country": "BR",
    "lat": -22.61222,
    "lng": -46.0575
  },
  {
    "name": "Cambuci",
    "country": "BR",
    "lat": -21.57528,
    "lng": -41.91111
  },
  {
    "name": "Camboriú",
    "country": "BR",
    "lat": -27.02528,
    "lng": -48.65444
  },
  {
    "name": "Cambira",
    "country": "BR",
    "lat": -23.60078,
    "lng": -51.58034
  },
  {
    "name": "Cambé",
    "country": "BR",
    "lat": -23.27583,
    "lng": -51.27833
  },
  {
    "name": "Cambará do Sul",
    "country": "BR",
    "lat": -29.04758,
    "lng": -50.14302
  },
  {
    "name": "Cambará",
    "country": "BR",
    "lat": -23.04639,
    "lng": -50.07361
  },
  {
    "name": "Camargo",
    "country": "BR",
    "lat": -28.58722,
    "lng": -52.20194
  },
  {
    "name": "Camaquã",
    "country": "BR",
    "lat": -30.85111,
    "lng": -51.81222
  },
  {
    "name": "Camapuã",
    "country": "BR",
    "lat": -19.53139,
    "lng": -54.04389
  },
  {
    "name": "Camanducaia",
    "country": "BR",
    "lat": -22.75528,
    "lng": -46.14472
  },
  {
    "name": "Camamu",
    "country": "BR",
    "lat": -13.94697,
    "lng": -39.10257
  },
  {
    "name": "Camacho",
    "country": "BR",
    "lat": -20.62528,
    "lng": -45.15667
  },
  {
    "name": "Camaçari",
    "country": "BR",
    "lat": -12.6975,
    "lng": -38.32417
  },
  {
    "name": "Camacan",
    "country": "BR",
    "lat": -15.41917,
    "lng": -39.49583
  },
  {
    "name": "Calmon",
    "country": "BR",
    "lat": -26.59972,
    "lng": -51.09722
  },
  {
    "name": "Califórnia",
    "country": "BR",
    "lat": -23.66705,
    "lng": -51.35563
  },
  {
    "name": "Caldeirão Grande",
    "country": "BR",
    "lat": -11.02,
    "lng": -40.30278
  },
  {
    "name": "Caldas Novas",
    "country": "BR",
    "lat": -17.74431,
    "lng": -48.62789
  },
  {
    "name": "Caldas",
    "country": "BR",
    "lat": -21.92361,
    "lng": -46.38611
  },
  {
    "name": "Cajuru",
    "country": "BR",
    "lat": -21.27528,
    "lng": -47.30417
  },
  {
    "name": "Cajuri",
    "country": "BR",
    "lat": -20.79056,
    "lng": -42.79667
  },
  {
    "name": "Cajobi",
    "country": "BR",
    "lat": -20.87972,
    "lng": -48.80944
  },
  {
    "name": "Cajati",
    "country": "BR",
    "lat": -24.73611,
    "lng": -48.12278
  },
  {
    "name": "Cajamar",
    "country": "BR",
    "lat": -23.35611,
    "lng": -46.87694
  },
  {
    "name": "Caiuá",
    "country": "BR",
    "lat": -21.83167,
    "lng": -51.99833
  },
  {
    "name": "Cairu",
    "country": "BR",
    "lat": -13.48694,
    "lng": -39.04389
  },
  {
    "name": "Caieiras",
    "country": "BR",
    "lat": -23.36417,
    "lng": -46.74056
  },
  {
    "name": "Caiçara",
    "country": "BR",
    "lat": -27.27444,
    "lng": -53.43222
  },
  {
    "name": "Caibaté",
    "country": "BR",
    "lat": -28.28778,
    "lng": -54.63833
  },
  {
    "name": "Caiapônia",
    "country": "BR",
    "lat": -16.95667,
    "lng": -51.81028
  },
  {
    "name": "Caiana",
    "country": "BR",
    "lat": -20.69556,
    "lng": -41.925
  },
  {
    "name": "Caiabu",
    "country": "BR",
    "lat": -22.01222,
    "lng": -51.23556
  },
  {
    "name": "Cafelândia",
    "country": "BR",
    "lat": -24.61778,
    "lng": -53.32
  },
  {
    "name": "Cafelândia",
    "country": "BR",
    "lat": -21.8025,
    "lng": -49.61
  },
  {
    "name": "Cafeara",
    "country": "BR",
    "lat": -22.7925,
    "lng": -51.71611
  },
  {
    "name": "Capitão Andrade",
    "country": "BR",
    "lat": -19.07121,
    "lng": -41.86389
  },
  {
    "name": "Cafarnaum",
    "country": "BR",
    "lat": -11.69361,
    "lng": -41.46833
  },
  {
    "name": "Caetité",
    "country": "BR",
    "lat": -14.06944,
    "lng": -42.475
  },
  {
    "name": "Caeté",
    "country": "BR",
    "lat": -19.88,
    "lng": -43.66972
  },
  {
    "name": "Caetanópolis",
    "country": "BR",
    "lat": -19.29528,
    "lng": -44.41861
  },
  {
    "name": "Caém",
    "country": "BR",
    "lat": -11.09206,
    "lng": -40.43521
  },
  {
    "name": "Caculé",
    "country": "BR",
    "lat": -14.50333,
    "lng": -42.22222
  },
  {
    "name": "Caçu",
    "country": "BR",
    "lat": -18.55667,
    "lng": -51.13083
  },
  {
    "name": "Caconde",
    "country": "BR",
    "lat": -21.52944,
    "lng": -46.64389
  },
  {
    "name": "Cacique Doble",
    "country": "BR",
    "lat": -27.77028,
    "lng": -51.66028
  },
  {
    "name": "Cachoeiro de Itapemirim",
    "country": "BR",
    "lat": -20.84889,
    "lng": -41.11278
  },
  {
    "name": "Cachoeirinha",
    "country": "BR",
    "lat": -29.95111,
    "lng": -51.09389
  },
  {
    "name": "Cachoeiras de Macacu",
    "country": "BR",
    "lat": -22.4625,
    "lng": -42.65306
  },
  {
    "name": "Cachoeira Paulista",
    "country": "BR",
    "lat": -22.665,
    "lng": -45.00944
  },
  {
    "name": "Cachoeira Dourada",
    "country": "BR",
    "lat": -18.49167,
    "lng": -49.475
  },
  {
    "name": "Cachoeira Dourada",
    "country": "BR",
    "lat": -18.515,
    "lng": -49.50139
  },
  {
    "name": "Cachoeira do Sul",
    "country": "BR",
    "lat": -30.03917,
    "lng": -52.89389
  },
  {
    "name": "Cachoeira de Minas",
    "country": "BR",
    "lat": -22.355,
    "lng": -45.77889
  },
  {
    "name": "Cachoeira da Prata",
    "country": "BR",
    "lat": -19.52424,
    "lng": -44.45306
  },
  {
    "name": "Cachoeira de Goiás",
    "country": "BR",
    "lat": -16.66778,
    "lng": -50.64694
  },
  {
    "name": "Cachoeira Alta",
    "country": "BR",
    "lat": -18.76333,
    "lng": -50.94167
  },
  {
    "name": "Cachoeira",
    "country": "BR",
    "lat": -12.60139,
    "lng": -38.96576
  },
  {
    "name": "Cacequi",
    "country": "BR",
    "lat": -29.88361,
    "lng": -54.825
  },
  {
    "name": "Caçapava do Sul",
    "country": "BR",
    "lat": -30.51436,
    "lng": -53.48496
  },
  {
    "name": "Caçapava",
    "country": "BR",
    "lat": -23.10083,
    "lng": -45.70694
  },
  {
    "name": "Caçador",
    "country": "BR",
    "lat": -26.77528,
    "lng": -51.015
  },
  {
    "name": "Cabreúva",
    "country": "BR",
    "lat": -23.3075,
    "lng": -47.13278
  },
  {
    "name": "Cabrália Paulista",
    "country": "BR",
    "lat": -22.45556,
    "lng": -49.3375
  },
  {
    "name": "Cabo Verde",
    "country": "BR",
    "lat": -21.47194,
    "lng": -46.39611
  },
  {
    "name": "Cabo Frio",
    "country": "BR",
    "lat": -22.88717,
    "lng": -42.02622
  },
  {
    "name": "Cabeceiras",
    "country": "BR",
    "lat": -15.80056,
    "lng": -46.92667
  },
  {
    "name": "Cabaceiras do Paraguaçu",
    "country": "BR",
    "lat": -12.53556,
    "lng": -39.19083
  },
  {
    "name": "Caatiba",
    "country": "BR",
    "lat": -14.97667,
    "lng": -40.4075
  },
  {
    "name": "Cachoeira de Pajeú",
    "country": "BR",
    "lat": -15.96654,
    "lng": -41.49576
  },
  {
    "name": "Carauari",
    "country": "BR",
    "lat": -4.88278,
    "lng": -66.89583
  },
  {
    "name": "Caracaraí",
    "country": "BR",
    "lat": 1.81611,
    "lng": -61.12806
  },
  {
    "name": "Canutama",
    "country": "BR",
    "lat": -6.53389,
    "lng": -64.38306
  },
  {
    "name": "Caapiranga",
    "country": "BR",
    "lat": -3.3275,
    "lng": -61.20889
  },
  {
    "name": "Careiro",
    "country": "BR",
    "lat": -3.76806,
    "lng": -60.36917
  },
  {
    "name": "Cacoal",
    "country": "BR",
    "lat": -11.43861,
    "lng": -61.44722
  },
  {
    "name": "Cacaulândia",
    "country": "BR",
    "lat": -10.33917,
    "lng": -62.89528
  },
  {
    "name": "Cabeceira Grande",
    "country": "BR",
    "lat": -16.02972,
    "lng": -47.09056
  },
  {
    "name": "Cabixi",
    "country": "BR",
    "lat": -13.49778,
    "lng": -60.55417
  },
  {
    "name": "Cachoeira do Piriá",
    "country": "BR",
    "lat": -1.75972,
    "lng": -46.545
  },
  {
    "name": "Caetanos",
    "country": "BR",
    "lat": -14.3375,
    "lng": -40.90861
  },
  {
    "name": "Cafezal do Sul",
    "country": "BR",
    "lat": -23.90222,
    "lng": -53.5125
  },
  {
    "name": "Caibi",
    "country": "BR",
    "lat": -27.07167,
    "lng": -53.24778
  },
  {
    "name": "Caldas Brandão",
    "country": "BR",
    "lat": -7.1025,
    "lng": -35.32639
  },
  {
    "name": "Caldazinha",
    "country": "BR",
    "lat": -16.71417,
    "lng": -49.00194
  },
  {
    "name": "Campestre da Serra",
    "country": "BR",
    "lat": -28.79472,
    "lng": -51.09278
  },
  {
    "name": "Campestre de Goiás",
    "country": "BR",
    "lat": -16.76222,
    "lng": -49.69444
  },
  {
    "name": "Campestre do Maranhão",
    "country": "BR",
    "lat": -6.17222,
    "lng": -47.36361
  },
  {
    "name": "Campinaçu",
    "country": "BR",
    "lat": -13.79,
    "lng": -48.57111
  },
  {
    "name": "Campinas",
    "country": "BR",
    "lat": -27.59444,
    "lng": -48.60694
  },
  {
    "name": "Campo Novo de Rondônia",
    "country": "BR",
    "lat": -10.59694,
    "lng": -63.61222
  },
  {
    "name": "Campo Novo do Parecis",
    "country": "BR",
    "lat": -13.67528,
    "lng": -57.89194
  },
  {
    "name": "Campo Verde",
    "country": "BR",
    "lat": -15.54667,
    "lng": -55.16889
  },
  {
    "name": "Campos de Júlio",
    "country": "BR",
    "lat": -13.89944,
    "lng": -59.1475
  },
  {
    "name": "Campos Verdes",
    "country": "BR",
    "lat": -14.25778,
    "lng": -49.6575
  },
  {
    "name": "Canabrava do Norte",
    "country": "BR",
    "lat": -11.05444,
    "lng": -51.83139
  },
  {
    "name": "Canaã dos Carajás",
    "country": "BR",
    "lat": -6.52392,
    "lng": -49.85167
  },
  {
    "name": "Canarana",
    "country": "BR",
    "lat": -13.55222,
    "lng": -52.26833
  },
  {
    "name": "Candeias do Jamari",
    "country": "BR",
    "lat": -8.80972,
    "lng": -63.69556
  },
  {
    "name": "Cantá",
    "country": "BR",
    "lat": 2.61028,
    "lng": -60.5975
  },
  {
    "name": "Capinzal do Norte",
    "country": "BR",
    "lat": -4.72833,
    "lng": -44.32694
  },
  {
    "name": "Capitão",
    "country": "BR",
    "lat": -29.26889,
    "lng": -51.98944
  },
  {
    "name": "Capitão Enéas",
    "country": "BR",
    "lat": -16.32444,
    "lng": -43.71056
  },
  {
    "name": "Capitão Gervásio Oliveira",
    "country": "BR",
    "lat": -8.49028,
    "lng": -41.81972
  },
  {
    "name": "Capitão Leônidas Marques",
    "country": "BR",
    "lat": -25.47917,
    "lng": -53.61417
  },
  {
    "name": "Capivari de Baixo",
    "country": "BR",
    "lat": -28.44472,
    "lng": -48.95778
  },
  {
    "name": "Capivari do Sul",
    "country": "BR",
    "lat": -30.145,
    "lng": -50.51472
  },
  {
    "name": "Capixaba",
    "country": "BR",
    "lat": -10.57278,
    "lng": -67.67556
  },
  {
    "name": "Caraúbas do Piauí",
    "country": "BR",
    "lat": -3.47583,
    "lng": -41.84306
  },
  {
    "name": "Carlinda",
    "country": "BR",
    "lat": -9.95806,
    "lng": -55.83222
  },
  {
    "name": "Carneirinho",
    "country": "BR",
    "lat": -19.6975,
    "lng": -50.68806
  },
  {
    "name": "Caroebe",
    "country": "BR",
    "lat": 0.88389,
    "lng": -59.69556
  },
  {
    "name": "Carrasco Bonito",
    "country": "BR",
    "lat": -5.32194,
    "lng": -48.03472
  },
  {
    "name": "Castanheira",
    "country": "BR",
    "lat": -11.1325,
    "lng": -58.6025
  },
  {
    "name": "Castanheiras",
    "country": "BR",
    "lat": -11.4175,
    "lng": -61.93861
  },
  {
    "name": "Castelândia",
    "country": "BR",
    "lat": -18.08889,
    "lng": -50.22278
  },
  {
    "name": "Catolândia",
    "country": "BR",
    "lat": -12.31806,
    "lng": -44.86111
  },
  {
    "name": "Catuti",
    "country": "BR",
    "lat": -15.35833,
    "lng": -42.96278
  },
  {
    "name": "Catete",
    "country": "BR",
    "lat": -22.92542,
    "lng": -43.18137
  },
  {
    "name": "Carvoeira",
    "country": "BR",
    "lat": -27.59898,
    "lng": -48.52618
  },
  {
    "name": "Carianos",
    "country": "BR",
    "lat": -27.66088,
    "lng": -48.54318
  },
  {
    "name": "Capao Redondo",
    "country": "BR",
    "lat": -23.66877,
    "lng": -46.78051
  },
  {
    "name": "Casa Verde",
    "country": "BR",
    "lat": -23.50099,
    "lng": -46.65744
  },
  {
    "name": "Carrao",
    "country": "BR",
    "lat": -23.55108,
    "lng": -46.53829
  },
  {
    "name": "Campo Grande",
    "country": "BR",
    "lat": -23.67463,
    "lng": -46.68751
  },
  {
    "name": "Cangaiba",
    "country": "BR",
    "lat": -23.49696,
    "lng": -46.52045
  },
  {
    "name": "Cambuci",
    "country": "BR",
    "lat": -23.56439,
    "lng": -46.61695
  },
  {
    "name": "Campo Belo",
    "country": "BR",
    "lat": -23.62808,
    "lng": -46.66791
  },
  {
    "name": "Cachoeirinha",
    "country": "BR",
    "lat": -23.45442,
    "lng": -46.66209
  },
  {
    "name": "Candangolândia",
    "country": "BR",
    "lat": -15.85205,
    "lng": -47.94729
  },
  {
    "name": "Casserengue",
    "country": "BR",
    "lat": -6.7816,
    "lng": -35.81826
  },
  {
    "name": "Caldas Brandão",
    "country": "BR",
    "lat": -7.16926,
    "lng": -35.34326
  },
  {
    "name": "Campinápolis",
    "country": "BR",
    "lat": -14.54114,
    "lng": -52.79508
  },
  {
    "name": "Castelo dos Sonhos",
    "country": "BR",
    "lat": -8.3168,
    "lng": -55.10001
  },
  {
    "name": "Campos de Júlio",
    "country": "BR",
    "lat": -13.72454,
    "lng": -59.26034
  },
  {
    "name": "Capão do Cipó",
    "country": "BR",
    "lat": -28.93428,
    "lng": -54.55564
  },
  {
    "name": "Campo Novo de Rondônia",
    "country": "BR",
    "lat": -10.57091,
    "lng": -63.62018
  },
  {
    "name": "Campo Novo do Parecis",
    "country": "BR",
    "lat": -13.6511,
    "lng": -57.89897
  },
  {
    "name": "Caye Caulker",
    "country": "BZ",
    "lat": 17.73659,
    "lng": -88.02761
  },
  {
    "name": "Carmelita",
    "country": "BZ",
    "lat": 18.01306,
    "lng": -88.5429
  },
  {
    "name": "Camelote",
    "country": "BZ",
    "lat": 17.23882,
    "lng": -88.82738
  },
  {
    "name": "Caledonia",
    "country": "BZ",
    "lat": 18.22735,
    "lng": -88.47745
  },
  {
    "name": "Cache Creek",
    "country": "CA",
    "lat": 50.81011,
    "lng": -121.3246
  },
  {
    "name": "Cadboro Bay",
    "country": "CA",
    "lat": 48.46667,
    "lng": -123.3
  },
  {
    "name": "Caledon",
    "country": "CA",
    "lat": 43.86544,
    "lng": -79.99322
  },
  {
    "name": "Calgary",
    "country": "CA",
    "lat": 51.05011,
    "lng": -114.08529
  },
  {
    "name": "Callander",
    "country": "CA",
    "lat": 46.2168,
    "lng": -79.36632
  },
  {
    "name": "Calmar",
    "country": "CA",
    "lat": 53.26683,
    "lng": -113.81874
  },
  {
    "name": "Cambrian Heights",
    "country": "CA",
    "lat": 51.08638,
    "lng": -114.09027
  },
  {
    "name": "Cambridge",
    "country": "CA",
    "lat": 43.3601,
    "lng": -80.31269
  },
  {
    "name": "Cambridge Bay",
    "country": "CA",
    "lat": 69.11489,
    "lng": -105.05484
  },
  {
    "name": "Camlachie",
    "country": "CA",
    "lat": 43.03596,
    "lng": -82.1616
  },
  {
    "name": "Campbellford",
    "country": "CA",
    "lat": 44.30842,
    "lng": -77.79949
  },
  {
    "name": "Campbell River",
    "country": "CA",
    "lat": 50.01634,
    "lng": -125.24459
  },
  {
    "name": "Camrose",
    "country": "CA",
    "lat": 53.01684,
    "lng": -112.83525
  },
  {
    "name": "Candiac",
    "country": "CA",
    "lat": 45.38338,
    "lng": -73.51587
  },
  {
    "name": "Canmore",
    "country": "CA",
    "lat": 51.08335,
    "lng": -115.35206
  },
  {
    "name": "Canora",
    "country": "CA",
    "lat": 51.63328,
    "lng": -102.43425
  },
  {
    "name": "Cantley",
    "country": "CA",
    "lat": 45.5668,
    "lng": -75.78265
  },
  {
    "name": "Canyon Heights",
    "country": "CA",
    "lat": 49.35493,
    "lng": -123.09743
  },
  {
    "name": "Canyon Meadows",
    "country": "CA",
    "lat": 50.94285,
    "lng": -114.08092
  },
  {
    "name": "Cap-aux-Meules",
    "country": "CA",
    "lat": 47.38208,
    "lng": -61.85968
  },
  {
    "name": "Cap-Chat",
    "country": "CA",
    "lat": 49.09736,
    "lng": -66.68514
  },
  {
    "name": "Cape Dorset",
    "country": "CA",
    "lat": 64.23378,
    "lng": -76.54372
  },
  {
    "name": "Capitol Hill",
    "country": "CA",
    "lat": 51.07031,
    "lng": -114.09559
  },
  {
    "name": "Capitol Hill",
    "country": "CA",
    "lat": 49.28333,
    "lng": -122.98333
  },
  {
    "name": "Capreol",
    "country": "CA",
    "lat": 46.70626,
    "lng": -80.92109
  },
  {
    "name": "Carberry",
    "country": "CA",
    "lat": 49.86893,
    "lng": -99.36021
  },
  {
    "name": "Carbonear",
    "country": "CA",
    "lat": 47.73919,
    "lng": -53.2272
  },
  {
    "name": "Cardston",
    "country": "CA",
    "lat": 49.19998,
    "lng": -113.3019
  },
  {
    "name": "Cariboo",
    "country": "CA",
    "lat": 49.25,
    "lng": -122.88333
  },
  {
    "name": "Carignan",
    "country": "CA",
    "lat": 45.45008,
    "lng": -73.29916
  },
  {
    "name": "Carleton Place",
    "country": "CA",
    "lat": 45.13341,
    "lng": -76.14938
  },
  {
    "name": "Carlyle",
    "country": "CA",
    "lat": 49.63334,
    "lng": -102.26765
  },
  {
    "name": "Carman",
    "country": "CA",
    "lat": 49.4992,
    "lng": -98.00156
  },
  {
    "name": "Carp",
    "country": "CA",
    "lat": 45.3501,
    "lng": -76.03267
  },
  {
    "name": "Carstairs",
    "country": "CA",
    "lat": 51.56681,
    "lng": -114.102
  },
  {
    "name": "Cascade Heights",
    "country": "CA",
    "lat": 49.25,
    "lng": -123.01667
  },
  {
    "name": "Casselman",
    "country": "CA",
    "lat": 45.3168,
    "lng": -75.0826
  },
  {
    "name": "Castlegar",
    "country": "CA",
    "lat": 49.32317,
    "lng": -117.65831
  },
  {
    "name": "Castleridge",
    "country": "CA",
    "lat": 51.10556,
    "lng": -113.95556
  },
  {
    "name": "Caulfeild",
    "country": "CA",
    "lat": 49.35,
    "lng": -123.25
  },
  {
    "name": "Carleton-sur-Mer",
    "country": "CA",
    "lat": 48.10749,
    "lng": -66.128
  },
  {
    "name": "Cacouna",
    "country": "CA",
    "lat": 47.91657,
    "lng": -69.50054
  },
  {
    "name": "Campbellton",
    "country": "CA",
    "lat": 48.00751,
    "lng": -66.67272
  },
  {
    "name": "Caraquet",
    "country": "CA",
    "lat": 47.79413,
    "lng": -64.9386
  },
  {
    "name": "Carleton",
    "country": "CA",
    "lat": 48.10252,
    "lng": -66.11962
  },
  {
    "name": "Cabano",
    "country": "CA",
    "lat": 47.68065,
    "lng": -68.8781
  },
  {
    "name": "Cap-Santé",
    "country": "CA",
    "lat": 46.67159,
    "lng": -71.78812
  },
  {
    "name": "Casa Loma",
    "country": "CA",
    "lat": 43.68345,
    "lng": -79.41248
  },
  {
    "name": "Cawston",
    "country": "CA",
    "lat": 49.18254,
    "lng": -119.75965
  },
  {
    "name": "Carrington",
    "country": "CA",
    "lat": 51.184,
    "lng": -114.08501
  },
  {
    "name": "Caledonia-Fairbank",
    "country": "CA",
    "lat": 43.68857,
    "lng": -79.45521
  },
  {
    "name": "Cabbagetown-South St.James Town",
    "country": "CA",
    "lat": 43.66765,
    "lng": -79.36611
  },
  {
    "name": "Cape Horn",
    "country": "CA",
    "lat": 49.22684,
    "lng": -122.8369
  },
  {
    "name": "Carey",
    "country": "CA",
    "lat": 48.47205,
    "lng": -123.39483
  },
  {
    "name": "Capilano",
    "country": "CA",
    "lat": 49.34094,
    "lng": -123.10702
  },
  {
    "name": "Carisbrooke",
    "country": "CA",
    "lat": 49.34162,
    "lng": -123.06501
  },
  {
    "name": "Canyon Springs",
    "country": "CA",
    "lat": 49.29148,
    "lng": -122.79542
  },
  {
    "name": "Cameron",
    "country": "CA",
    "lat": 49.25619,
    "lng": -122.90671
  },
  {
    "name": "Carnot",
    "country": "CF",
    "lat": 4.94273,
    "lng": 15.87735
  },
  {
    "name": "Cazis",
    "country": "CH",
    "lat": 46.7194,
    "lng": 9.43271
  },
  {
    "name": "Caux",
    "country": "CH",
    "lat": 46.43241,
    "lng": 6.93855
  },
  {
    "name": "Cauco",
    "country": "CH",
    "lat": 46.33541,
    "lng": 9.12129
  },
  {
    "name": "Castel San Pietro",
    "country": "CH",
    "lat": 45.86211,
    "lng": 9.00843
  },
  {
    "name": "Caslano",
    "country": "CH",
    "lat": 45.97364,
    "lng": 8.87739
  },
  {
    "name": "Carouge",
    "country": "CH",
    "lat": 46.18096,
    "lng": 6.13921
  },
  {
    "name": "Canobbio",
    "country": "CH",
    "lat": 46.03592,
    "lng": 8.96605
  },
  {
    "name": "Camorino",
    "country": "CH",
    "lat": 46.16483,
    "lng": 9.00547
  },
  {
    "name": "Cadro",
    "country": "CH",
    "lat": 46.04595,
    "lng": 8.98725
  },
  {
    "name": "Cadenazzo",
    "country": "CH",
    "lat": 46.15172,
    "lng": 8.94719
  },
  {
    "name": "Cadempino",
    "country": "CH",
    "lat": 46.03672,
    "lng": 8.93403
  },
  {
    "name": "Campt Kridi",
    "country": "CI",
    "lat": 6.32278,
    "lng": -7.51687
  },
  {
    "name": "Cauquenes",
    "country": "CL",
    "lat": -35.9671,
    "lng": -72.32248
  },
  {
    "name": "Castro",
    "country": "CL",
    "lat": -42.4721,
    "lng": -73.77319
  },
  {
    "name": "Cartagena",
    "country": "CL",
    "lat": -33.55384,
    "lng": -71.60761
  },
  {
    "name": "Carahue",
    "country": "CL",
    "lat": -38.71122,
    "lng": -73.16101
  },
  {
    "name": "Capitán Pastene",
    "country": "CL",
    "lat": -38.19356,
    "lng": -72.99253
  },
  {
    "name": "Cañete",
    "country": "CL",
    "lat": -37.80128,
    "lng": -73.39616
  },
  {
    "name": "Camiña",
    "country": "CL",
    "lat": -19.31286,
    "lng": -69.4261
  },
  {
    "name": "Calbuco",
    "country": "CL",
    "lat": -41.77338,
    "lng": -73.13049
  },
  {
    "name": "Calama",
    "country": "CL",
    "lat": -22.45667,
    "lng": -68.92371
  },
  {
    "name": "Cabrero",
    "country": "CL",
    "lat": -37.03394,
    "lng": -72.40468
  },
  {
    "name": "Cairima",
    "country": "CN",
    "lat": 33.36146,
    "lng": 102.09684
  },
  {
    "name": "Caoqiao",
    "country": "CN",
    "lat": 34.3405,
    "lng": 118.11038
  },
  {
    "name": "Caohe",
    "country": "CN",
    "lat": 30.2297,
    "lng": 115.43346
  },
  {
    "name": "Cangzhou",
    "country": "CN",
    "lat": 38.31124,
    "lng": 116.85334
  },
  {
    "name": "Cangling",
    "country": "CN",
    "lat": 29.00159,
    "lng": 108.59957
  },
  {
    "name": "Caiyuan",
    "country": "CN",
    "lat": 30.72361,
    "lng": 122.45139
  },
  {
    "name": "Caijiapu",
    "country": "CN",
    "lat": 39.17306,
    "lng": 117.81056
  },
  {
    "name": "Caijia",
    "country": "CN",
    "lat": 28.90889,
    "lng": 106.3404
  },
  {
    "name": "Caidian",
    "country": "CN",
    "lat": 30.58333,
    "lng": 114.03333
  },
  {
    "name": "Caijiagang",
    "country": "CN",
    "lat": 29.74248,
    "lng": 106.47508
  },
  {
    "name": "Caoping",
    "country": "CN",
    "lat": 33.67965,
    "lng": 104.80823
  },
  {
    "name": "Caotang",
    "country": "CN",
    "lat": 31.09023,
    "lng": 109.62397
  },
  {
    "name": "Caohui",
    "country": "CN",
    "lat": 30.39733,
    "lng": 107.46953
  },
  {
    "name": "Canggou",
    "country": "CN",
    "lat": 29.44655,
    "lng": 107.96998
  },
  {
    "name": "Cangwu",
    "country": "CN",
    "lat": 23.84788,
    "lng": 111.53931
  },
  {
    "name": "Caochuanpu",
    "country": "CN",
    "lat": 34.64944,
    "lng": 106.0658
  },
  {
    "name": "Caojie",
    "country": "CN",
    "lat": 29.99755,
    "lng": 106.39018
  },
  {
    "name": "Caowei",
    "country": "CN",
    "lat": 22.62263,
    "lng": 113.8402
  },
  {
    "name": "Caucasia",
    "country": "CO",
    "lat": 7.98654,
    "lng": -75.19349
  },
  {
    "name": "Castilla La Nueva",
    "country": "CO",
    "lat": 3.82722,
    "lng": -73.68831
  },
  {
    "name": "Casabianca",
    "country": "CO",
    "lat": 5.07959,
    "lng": -75.12059
  },
  {
    "name": "Cartago",
    "country": "CO",
    "lat": 4.74639,
    "lng": -75.91167
  },
  {
    "name": "Cartago",
    "country": "CO",
    "lat": 1.55151,
    "lng": -77.11948
  },
  {
    "name": "Cartagena",
    "country": "CO",
    "lat": 10.39817,
    "lng": -75.49328
  },
  {
    "name": "Carolina",
    "country": "CO",
    "lat": 6.72439,
    "lng": -75.28168
  },
  {
    "name": "Carmen de Viboral",
    "country": "CO",
    "lat": 6.08236,
    "lng": -75.33509
  },
  {
    "name": "Carmen de Carupa",
    "country": "CO",
    "lat": 5.34862,
    "lng": -73.90168
  },
  {
    "name": "Carmen de Apicalá",
    "country": "CO",
    "lat": 4.14725,
    "lng": -74.72014
  },
  {
    "name": "Carlosama",
    "country": "CO",
    "lat": 0.86292,
    "lng": -77.72734
  },
  {
    "name": "Carcasí",
    "country": "CO",
    "lat": 6.62711,
    "lng": -72.62625
  },
  {
    "name": "Caramanta",
    "country": "CO",
    "lat": 5.54782,
    "lng": -75.64368
  },
  {
    "name": "Caracolí",
    "country": "CO",
    "lat": 6.4092,
    "lng": -74.75715
  },
  {
    "name": "Capurganá",
    "country": "CO",
    "lat": 8.63805,
    "lng": -77.34609
  },
  {
    "name": "Capitanejo",
    "country": "CO",
    "lat": 6.52881,
    "lng": -72.69595
  },
  {
    "name": "Caparrapí",
    "country": "CO",
    "lat": 5.34644,
    "lng": -74.49147
  },
  {
    "name": "Cantagallo",
    "country": "CO",
    "lat": 7.37926,
    "lng": -73.9155
  },
  {
    "name": "Candelaria",
    "country": "CO",
    "lat": 10.45912,
    "lng": -74.8797
  },
  {
    "name": "Candelaria",
    "country": "CO",
    "lat": 3.40671,
    "lng": -76.34819
  },
  {
    "name": "Cañasgordas",
    "country": "CO",
    "lat": 6.74989,
    "lng": -76.02539
  },
  {
    "name": "Canalete",
    "country": "CO",
    "lat": 8.78558,
    "lng": -76.24065
  },
  {
    "name": "Campohermoso",
    "country": "CO",
    "lat": 5.03132,
    "lng": -73.10327
  },
  {
    "name": "Campo de la Cruz",
    "country": "CO",
    "lat": 10.37808,
    "lng": -74.88356
  },
  {
    "name": "Campoalegre",
    "country": "CO",
    "lat": 2.68489,
    "lng": -75.32311
  },
  {
    "name": "Campamento",
    "country": "CO",
    "lat": 6.9792,
    "lng": -75.29724
  },
  {
    "name": "Caloto",
    "country": "CO",
    "lat": 3.03586,
    "lng": -76.40788
  },
  {
    "name": "Calimita",
    "country": "CO",
    "lat": 3.91667,
    "lng": -76.5
  },
  {
    "name": "California",
    "country": "CO",
    "lat": 7.34776,
    "lng": -72.9458
  },
  {
    "name": "Cali",
    "country": "CO",
    "lat": 3.43054,
    "lng": -76.5199
  },
  {
    "name": "Caldono",
    "country": "CO",
    "lat": 2.79739,
    "lng": -76.48316
  },
  {
    "name": "Caldas",
    "country": "CO",
    "lat": 6.09106,
    "lng": -75.63569
  },
  {
    "name": "Caldas",
    "country": "CO",
    "lat": 5.55456,
    "lng": -73.86567
  },
  {
    "name": "Calarcá",
    "country": "CO",
    "lat": 4.52949,
    "lng": -75.64091
  },
  {
    "name": "Calamar",
    "country": "CO",
    "lat": 10.25271,
    "lng": -74.91574
  },
  {
    "name": "Calamar",
    "country": "CO",
    "lat": 1.9596,
    "lng": -72.65315
  },
  {
    "name": "Cajicá",
    "country": "CO",
    "lat": 4.91857,
    "lng": -74.02799
  },
  {
    "name": "Cajibío",
    "country": "CO",
    "lat": 2.62271,
    "lng": -76.57039
  },
  {
    "name": "Cajamarca",
    "country": "CO",
    "lat": 4.44234,
    "lng": -75.42874
  },
  {
    "name": "Caimito",
    "country": "CO",
    "lat": 8.78962,
    "lng": -75.11686
  },
  {
    "name": "Caicedonia",
    "country": "CO",
    "lat": 4.3324,
    "lng": -75.82665
  },
  {
    "name": "Caicedo",
    "country": "CO",
    "lat": 6.40511,
    "lng": -75.98255
  },
  {
    "name": "Cachipay",
    "country": "CO",
    "lat": 5.26667,
    "lng": -74.56667
  },
  {
    "name": "Cachipay",
    "country": "CO",
    "lat": 4.73035,
    "lng": -74.43663
  },
  {
    "name": "Cabuyaro",
    "country": "CO",
    "lat": 4.2817,
    "lng": -72.79399
  },
  {
    "name": "Cabrera",
    "country": "CO",
    "lat": 6.5928,
    "lng": -73.2465
  },
  {
    "name": "Cabrera",
    "country": "CO",
    "lat": 3.98598,
    "lng": -74.48283
  },
  {
    "name": "Campo Alegre",
    "country": "CO",
    "lat": 3.18917,
    "lng": -75.70361
  },
  {
    "name": "Canalete",
    "country": "CO",
    "lat": 8.67611,
    "lng": -76.20417
  },
  {
    "name": "Carepa",
    "country": "CO",
    "lat": 7.75849,
    "lng": -76.65255
  },
  {
    "name": "Cartagena del Chairá",
    "country": "CO",
    "lat": 1.33488,
    "lng": -74.84289
  },
  {
    "name": "Carurú",
    "country": "CO",
    "lat": 1.01402,
    "lng": -71.29624
  },
  {
    "name": "Cartago",
    "country": "CR",
    "lat": 9.86371,
    "lng": -83.9195
  },
  {
    "name": "Carrillos",
    "country": "CR",
    "lat": 10.02918,
    "lng": -84.27403
  },
  {
    "name": "Canoas",
    "country": "CR",
    "lat": 8.53305,
    "lng": -82.83844
  },
  {
    "name": "Cañas",
    "country": "CR",
    "lat": 10.43105,
    "lng": -85.09825
  },
  {
    "name": "Calle Blancos",
    "country": "CR",
    "lat": 9.9453,
    "lng": -84.0669
  },
  {
    "name": "Cariari",
    "country": "CR",
    "lat": 10.35719,
    "lng": -83.7362
  },
  {
    "name": "Cayo Mambí",
    "country": "CU",
    "lat": 20.66381,
    "lng": -75.26882
  },
  {
    "name": "Cauto Cristo",
    "country": "CU",
    "lat": 20.55709,
    "lng": -76.4727
  },
  {
    "name": "Casablanca",
    "country": "CU",
    "lat": 23.14292,
    "lng": -82.3399
  },
  {
    "name": "Carlos Manuel de Céspedes",
    "country": "CU",
    "lat": 21.57572,
    "lng": -78.28251
  },
  {
    "name": "Candelaria",
    "country": "CU",
    "lat": 22.74103,
    "lng": -82.95738
  },
  {
    "name": "Campo Florido",
    "country": "CU",
    "lat": 22.81222,
    "lng": -81.00167
  },
  {
    "name": "Campechuela",
    "country": "CU",
    "lat": 20.23329,
    "lng": -77.2799
  },
  {
    "name": "Camajuaní",
    "country": "CU",
    "lat": 22.48333,
    "lng": -79.75
  },
  {
    "name": "Camajuaní",
    "country": "CU",
    "lat": 22.46476,
    "lng": -79.72324
  },
  {
    "name": "Camagüey",
    "country": "CU",
    "lat": 21.38083,
    "lng": -77.91694
  },
  {
    "name": "Calixto",
    "country": "CU",
    "lat": 20.92036,
    "lng": -76.87144
  },
  {
    "name": "Calimete",
    "country": "CU",
    "lat": 22.5342,
    "lng": -80.91105
  },
  {
    "name": "Calabazar de Sagua",
    "country": "CU",
    "lat": 22.64515,
    "lng": -79.8951
  },
  {
    "name": "Caimito",
    "country": "CU",
    "lat": 22.95052,
    "lng": -82.59435
  },
  {
    "name": "Caibarién",
    "country": "CU",
    "lat": 22.51996,
    "lng": -79.46599
  },
  {
    "name": "Cacocum",
    "country": "CU",
    "lat": 20.73775,
    "lng": -76.32574
  },
  {
    "name": "Cabañas",
    "country": "CU",
    "lat": 22.97944,
    "lng": -82.92214
  },
  {
    "name": "Cabaiguán",
    "country": "CU",
    "lat": 22.07874,
    "lng": -79.49726
  },
  {
    "name": "Calheta",
    "country": "CV",
    "lat": 15.18613,
    "lng": -23.59228
  },
  {
    "name": "Cavertitz",
    "country": "DE",
    "lat": 51.38333,
    "lng": 13.13333
  },
  {
    "name": "Castrop-Rauxel",
    "country": "DE",
    "lat": 51.55657,
    "lng": 7.31155
  },
  {
    "name": "Casekow",
    "country": "DE",
    "lat": 53.21117,
    "lng": 14.20824
  },
  {
    "name": "Carpin",
    "country": "DE",
    "lat": 53.35691,
    "lng": 13.24328
  },
  {
    "name": "Carlsberg",
    "country": "DE",
    "lat": 49.50389,
    "lng": 8.04167
  },
  {
    "name": "Carlow",
    "country": "DE",
    "lat": 53.75861,
    "lng": 10.93789
  },
  {
    "name": "Cappeln",
    "country": "DE",
    "lat": 52.81085,
    "lng": 8.11474
  },
  {
    "name": "Camburg",
    "country": "DE",
    "lat": 51.05524,
    "lng": 11.70967
  },
  {
    "name": "Calw",
    "country": "DE",
    "lat": 48.71419,
    "lng": 8.74031
  },
  {
    "name": "Calvörde",
    "country": "DE",
    "lat": 52.39551,
    "lng": 11.29463
  },
  {
    "name": "Callenberg",
    "country": "DE",
    "lat": 50.85,
    "lng": 12.63333
  },
  {
    "name": "Calden",
    "country": "DE",
    "lat": 51.40943,
    "lng": 9.40189
  },
  {
    "name": "Calberlah",
    "country": "DE",
    "lat": 52.42074,
    "lng": 10.62326
  },
  {
    "name": "Calbe",
    "country": "DE",
    "lat": 51.90668,
    "lng": 11.77478
  },
  {
    "name": "Cadolzburg",
    "country": "DE",
    "lat": 49.4573,
    "lng": 10.85329
  },
  {
    "name": "Cadenberge",
    "country": "DE",
    "lat": 53.76926,
    "lng": 9.06269
  },
  {
    "name": "Castle Bruce",
    "country": "DM",
    "lat": 15.44397,
    "lng": -61.25723
  },
  {
    "name": "Calibishie",
    "country": "DM",
    "lat": 15.59297,
    "lng": -61.34901
  },
  {
    "name": "Cayetano Germosén",
    "country": "DO",
    "lat": 19.34413,
    "lng": -70.48342
  },
  {
    "name": "Castillo",
    "country": "DO",
    "lat": 19.20824,
    "lng": -70.02726
  },
  {
    "name": "Castañuelas",
    "country": "DO",
    "lat": 19.71387,
    "lng": -71.49876
  },
  {
    "name": "Canoa",
    "country": "DO",
    "lat": 18.35499,
    "lng": -71.15851
  },
  {
    "name": "Cana Chapetón",
    "country": "DO",
    "lat": 19.60703,
    "lng": -71.25734
  },
  {
    "name": "Cambita Garabitos",
    "country": "DO",
    "lat": 18.45458,
    "lng": -70.19907
  },
  {
    "name": "Cachón",
    "country": "DO",
    "lat": 18.24833,
    "lng": -71.18912
  },
  {
    "name": "Cabrera",
    "country": "DO",
    "lat": 19.6426,
    "lng": -69.90489
  },
  {
    "name": "Cabral",
    "country": "DO",
    "lat": 18.25,
    "lng": -71.21667
  },
  {
    "name": "Cabarete",
    "country": "DO",
    "lat": 19.74982,
    "lng": -70.40829
  },
  {
    "name": "Cayambe",
    "country": "EC",
    "lat": 0.04103,
    "lng": -78.14636
  },
  {
    "name": "Catarama",
    "country": "EC",
    "lat": -1.57091,
    "lng": -79.47335
  },
  {
    "name": "Catamayo",
    "country": "EC",
    "lat": -3.98661,
    "lng": -79.35763
  },
  {
    "name": "Catacocha",
    "country": "EC",
    "lat": -4.05031,
    "lng": -79.64982
  },
  {
    "name": "Cascol",
    "country": "EC",
    "lat": -1.66429,
    "lng": -80.45917
  },
  {
    "name": "Casacay",
    "country": "EC",
    "lat": -3.32298,
    "lng": -79.72281
  },
  {
    "name": "Carondelet",
    "country": "EC",
    "lat": 1.12589,
    "lng": -78.76242
  },
  {
    "name": "Cariamanga",
    "country": "EC",
    "lat": -4.32804,
    "lng": -79.55575
  },
  {
    "name": "Canuto",
    "country": "EC",
    "lat": -0.79886,
    "lng": -80.12855
  },
  {
    "name": "Canoa",
    "country": "EC",
    "lat": -0.4638,
    "lng": -80.4545
  },
  {
    "name": "Cangonamá",
    "country": "EC",
    "lat": -3.96526,
    "lng": -79.70275
  },
  {
    "name": "Cañar",
    "country": "EC",
    "lat": -2.55941,
    "lng": -78.93808
  },
  {
    "name": "Calpi",
    "country": "EC",
    "lat": -1.64579,
    "lng": -78.74325
  },
  {
    "name": "Calderón",
    "country": "EC",
    "lat": -0.10511,
    "lng": -78.43139
  },
  {
    "name": "Calceta",
    "country": "EC",
    "lat": -0.84582,
    "lng": -80.16389
  },
  {
    "name": "Cahuasquí",
    "country": "EC",
    "lat": 0.51401,
    "lng": -78.21289
  },
  {
    "name": "Camarones",
    "country": "EC",
    "lat": 0.85435,
    "lng": -78.965
  },
  {
    "name": "Cangahua",
    "country": "EC",
    "lat": -0.06304,
    "lng": -78.16718
  },
  {
    "name": "Caluma",
    "country": "EC",
    "lat": -1.63085,
    "lng": -79.25729
  },
  {
    "name": "Cairo",
    "country": "EG",
    "lat": 30.06263,
    "lng": 31.24967
  },
  {
    "name": "Cazorla",
    "country": "ES",
    "lat": 37.91495,
    "lng": -3.00342
  },
  {
    "name": "Cazalla de la Sierra",
    "country": "ES",
    "lat": 37.93333,
    "lng": -5.75
  },
  {
    "name": "Cazalilla",
    "country": "ES",
    "lat": 37.98389,
    "lng": -3.88295
  },
  {
    "name": "Caudete de las Fuentes",
    "country": "ES",
    "lat": 39.55965,
    "lng": -1.27853
  },
  {
    "name": "Caudete",
    "country": "ES",
    "lat": 38.70679,
    "lng": -0.98723
  },
  {
    "name": "Catral",
    "country": "ES",
    "lat": 38.16061,
    "lng": -0.80209
  },
  {
    "name": "Catarroja",
    "country": "ES",
    "lat": 39.4,
    "lng": -0.4
  },
  {
    "name": "Catadau",
    "country": "ES",
    "lat": 39.26667,
    "lng": -0.56667
  },
  {
    "name": "Castuera",
    "country": "ES",
    "lat": 38.73204,
    "lng": -5.5439
  },
  {
    "name": "Castro del Río",
    "country": "ES",
    "lat": 37.69125,
    "lng": -4.48058
  },
  {
    "name": "Castro de Filabres",
    "country": "ES",
    "lat": 37.18484,
    "lng": -2.44024
  },
  {
    "name": "Castril",
    "country": "ES",
    "lat": 37.79581,
    "lng": -2.78002
  },
  {
    "name": "Castillo de Locubín",
    "country": "ES",
    "lat": 37.52858,
    "lng": -3.9422
  },
  {
    "name": "Castillo de Garcimuñoz",
    "country": "ES",
    "lat": 39.65928,
    "lng": -2.3803
  },
  {
    "name": "Castillejo de Iniesta",
    "country": "ES",
    "lat": 39.53333,
    "lng": -1.76667
  },
  {
    "name": "Castilléjar",
    "country": "ES",
    "lat": 37.71697,
    "lng": -2.6406
  },
  {
    "name": "Castilleja del Campo",
    "country": "ES",
    "lat": 37.38627,
    "lng": -6.33443
  },
  {
    "name": "Castilleja de la Cuesta",
    "country": "ES",
    "lat": 37.38594,
    "lng": -6.05258
  },
  {
    "name": "Castilleja de Guzmán",
    "country": "ES",
    "lat": 37.40955,
    "lng": -6.05515
  },
  {
    "name": "Castilblanco de los Arroyos",
    "country": "ES",
    "lat": 37.67576,
    "lng": -5.98886
  },
  {
    "name": "Castilblanco",
    "country": "ES",
    "lat": 39.28487,
    "lng": -5.09098
  },
  {
    "name": "Castellonet de la Conquesta",
    "country": "ES",
    "lat": 38.91667,
    "lng": -0.26667
  },
  {
    "name": "Castelló de Rugat",
    "country": "ES",
    "lat": 38.88333,
    "lng": -0.36667
  },
  {
    "name": "Castelló de la Plana",
    "country": "ES",
    "lat": 39.98567,
    "lng": -0.04935
  },
  {
    "name": "Castellnovo",
    "country": "ES",
    "lat": 39.86667,
    "lng": -0.45
  },
  {
    "name": "Castell de Ferro",
    "country": "ES",
    "lat": 36.72569,
    "lng": -3.355
  },
  {
    "name": "Castell de Castells",
    "country": "ES",
    "lat": 38.72555,
    "lng": -0.19242
  },
  {
    "name": "Castellar de Santisteban",
    "country": "ES",
    "lat": 38.25422,
    "lng": -3.13179
  },
  {
    "name": "Castellar de Santiago",
    "country": "ES",
    "lat": 38.53928,
    "lng": -3.27573
  },
  {
    "name": "Castellar de la Frontera",
    "country": "ES",
    "lat": 36.31736,
    "lng": -5.45407
  },
  {
    "name": "Castañar de Ibor",
    "country": "ES",
    "lat": 39.62843,
    "lng": -5.41709
  },
  {
    "name": "Castalla",
    "country": "ES",
    "lat": 38.59694,
    "lng": -0.67207
  },
  {
    "name": "Casinos",
    "country": "ES",
    "lat": 39.7,
    "lng": -0.7
  },
  {
    "name": "Casillas de Coria",
    "country": "ES",
    "lat": 39.96543,
    "lng": -6.63711
  },
  {
    "name": "Casatejada",
    "country": "ES",
    "lat": 39.88642,
    "lng": -5.68193
  },
  {
    "name": "Casasimarro",
    "country": "ES",
    "lat": 39.36667,
    "lng": -2.03333
  },
  {
    "name": "Casas Ibáñez",
    "country": "ES",
    "lat": 39.28333,
    "lng": -1.46667
  },
  {
    "name": "Casas de Ves",
    "country": "ES",
    "lat": 39.25,
    "lng": -1.33333
  },
  {
    "name": "Casas de Reina",
    "country": "ES",
    "lat": 38.2,
    "lng": -5.96667
  },
  {
    "name": "Casas de Miravete",
    "country": "ES",
    "lat": 39.72687,
    "lng": -5.74363
  },
  {
    "name": "Casas de Millán",
    "country": "ES",
    "lat": 39.81757,
    "lng": -6.32966
  },
  {
    "name": "Casas de los Pinos",
    "country": "ES",
    "lat": 39.33375,
    "lng": -2.36984
  },
  {
    "name": "Casas de Lázaro",
    "country": "ES",
    "lat": 38.77056,
    "lng": -2.24044
  },
  {
    "name": "Casas de Juan Núñez",
    "country": "ES",
    "lat": 39.1019,
    "lng": -1.55821
  },
  {
    "name": "Casas de Haro",
    "country": "ES",
    "lat": 39.33355,
    "lng": -2.27273
  },
  {
    "name": "Casas de Guijarro",
    "country": "ES",
    "lat": 39.35,
    "lng": -2.16667
  },
  {
    "name": "Casas de Garcimolina",
    "country": "ES",
    "lat": 40.0,
    "lng": -1.41667
  },
  {
    "name": "Casas de Fernando Alonso",
    "country": "ES",
    "lat": 39.35065,
    "lng": -2.32402
  },
  {
    "name": "Casas de Don Pedro",
    "country": "ES",
    "lat": 39.10822,
    "lng": -5.33077
  },
  {
    "name": "Casas de Don Antonio",
    "country": "ES",
    "lat": 39.23578,
    "lng": -6.29143
  },
  {
    "name": "Casas de Benítez",
    "country": "ES",
    "lat": 39.36667,
    "lng": -2.13333
  },
  {
    "name": "Casasbuenas",
    "country": "ES",
    "lat": 39.76117,
    "lng": -4.12558
  },
  {
    "name": "Casariche",
    "country": "ES",
    "lat": 37.29389,
    "lng": -4.75972
  },
  {
    "name": "Casares",
    "country": "ES",
    "lat": 36.44689,
    "lng": -5.2858
  },
  {
    "name": "Casar de Cáceres",
    "country": "ES",
    "lat": 39.56106,
    "lng": -6.41944
  },
  {
    "name": "Casarabonela",
    "country": "ES",
    "lat": 36.78616,
    "lng": -4.84276
  },
  {
    "name": "Casabermeja",
    "country": "ES",
    "lat": 36.8926,
    "lng": -4.42938
  },
  {
    "name": "Cartaya",
    "country": "ES",
    "lat": 37.28114,
    "lng": -7.15071
  },
  {
    "name": "Cartajima",
    "country": "ES",
    "lat": 36.64548,
    "lng": -5.1541
  },
  {
    "name": "Cartagena",
    "country": "ES",
    "lat": 37.60197,
    "lng": -0.98397
  },
  {
    "name": "Carrizosa",
    "country": "ES",
    "lat": 38.84204,
    "lng": -2.9925
  },
  {
    "name": "Carrizal",
    "country": "ES",
    "lat": 27.91161,
    "lng": -15.40558
  },
  {
    "name": "Carrión de los Céspedes",
    "country": "ES",
    "lat": 37.37007,
    "lng": -6.32923
  },
  {
    "name": "Carrión de Calatrava",
    "country": "ES",
    "lat": 39.01897,
    "lng": -3.81683
  },
  {
    "name": "Carrícola",
    "country": "ES",
    "lat": 38.84133,
    "lng": -0.4726
  },
  {
    "name": "Carriches",
    "country": "ES",
    "lat": 39.96417,
    "lng": -4.45864
  },
  {
    "name": "Carratraca",
    "country": "ES",
    "lat": 36.8529,
    "lng": -4.81998
  },
  {
    "name": "Carrascosa de Haro",
    "country": "ES",
    "lat": 39.59757,
    "lng": -2.54182
  },
  {
    "name": "Carrascalejo",
    "country": "ES",
    "lat": 39.63333,
    "lng": -5.21667
  },
  {
    "name": "Carmonita",
    "country": "ES",
    "lat": 39.15455,
    "lng": -6.33864
  },
  {
    "name": "Carmona",
    "country": "ES",
    "lat": 37.47125,
    "lng": -5.64608
  },
  {
    "name": "Carmena",
    "country": "ES",
    "lat": 39.95562,
    "lng": -4.40149
  },
  {
    "name": "Carlet",
    "country": "ES",
    "lat": 39.2266,
    "lng": -0.52142
  },
  {
    "name": "Cardenete",
    "country": "ES",
    "lat": 39.76667,
    "lng": -1.68333
  },
  {
    "name": "Cardeña",
    "country": "ES",
    "lat": 38.27023,
    "lng": -4.32358
  },
  {
    "name": "Carcelén",
    "country": "ES",
    "lat": 39.10202,
    "lng": -1.30879
  },
  {
    "name": "Carcaixent",
    "country": "ES",
    "lat": 39.1218,
    "lng": -0.44812
  },
  {
    "name": "Carcabuey",
    "country": "ES",
    "lat": 37.4442,
    "lng": -4.27471
  },
  {
    "name": "Carboneros",
    "country": "ES",
    "lat": 38.22958,
    "lng": -3.63139
  },
  {
    "name": "Carboneras de Guadazaón",
    "country": "ES",
    "lat": 39.88333,
    "lng": -1.8
  },
  {
    "name": "Carboneras",
    "country": "ES",
    "lat": 36.99666,
    "lng": -1.89651
  },
  {
    "name": "Carbajo",
    "country": "ES",
    "lat": 39.60333,
    "lng": -7.19565
  },
  {
    "name": "Caravaca",
    "country": "ES",
    "lat": 38.10558,
    "lng": -1.86343
  },
  {
    "name": "Carataunas",
    "country": "ES",
    "lat": 36.92204,
    "lng": -3.40834
  },
  {
    "name": "Capilla",
    "country": "ES",
    "lat": 38.82037,
    "lng": -5.08417
  },
  {
    "name": "Capileira",
    "country": "ES",
    "lat": 36.96148,
    "lng": -3.35864
  },
  {
    "name": "Capdepera",
    "country": "ES",
    "lat": 39.70237,
    "lng": 3.43532
  },
  {
    "name": "Cantoria",
    "country": "ES",
    "lat": 37.35146,
    "lng": -2.19209
  },
  {
    "name": "Cantillana",
    "country": "ES",
    "lat": 37.61032,
    "lng": -5.82472
  },
  {
    "name": "Can Picafort",
    "country": "ES",
    "lat": 39.76567,
    "lng": 3.15488
  },
  {
    "name": "Canjáyar",
    "country": "ES",
    "lat": 37.00959,
    "lng": -2.73943
  },
  {
    "name": "Canillas de Albaida",
    "country": "ES",
    "lat": 36.84665,
    "lng": -3.98678
  },
  {
    "name": "Canillas de Aceituno",
    "country": "ES",
    "lat": 36.87303,
    "lng": -4.08254
  },
  {
    "name": "Caniles",
    "country": "ES",
    "lat": 37.43671,
    "lng": -2.72482
  },
  {
    "name": "Cañete la Real",
    "country": "ES",
    "lat": 36.95154,
    "lng": -5.0244
  },
  {
    "name": "Cañete de las Torres",
    "country": "ES",
    "lat": 37.86717,
    "lng": -4.31835
  },
  {
    "name": "Canet d'En Berenguer",
    "country": "ES",
    "lat": 39.68333,
    "lng": -0.21667
  },
  {
    "name": "Canena",
    "country": "ES",
    "lat": 38.0493,
    "lng": -3.4831
  },
  {
    "name": "Candelaria",
    "country": "ES",
    "lat": 28.3548,
    "lng": -16.37268
  },
  {
    "name": "Cañaveral de León",
    "country": "ES",
    "lat": 38.01667,
    "lng": -6.51667
  },