[
  {
    "name": "Ccorca",
    "country": "PE",
    "lat": -13.585,
    "lng": -72.05972
  },
  {
    "name": "Ccapi",
    "country": "PE",
    "lat": -13.85321,
    "lng": -72.08215
  },
  {
    "name": "Ccatca",
    "country": "PE",
    "lat": -13.60507,
    "lng": -71.5636
  },
  {
    "name": "Ccarhuayo",
    "country": "PE",
    "lat": -13.59514,
    "lng": -71.39988
  },
  {
    "name": "Ccolo",
    "country": "PE",
    "lat": -15.50611,
    "lng": -71.49184
  },
  {
    "name": "Ccaquiracunca",
    "country": "PE",
    "lat": -14.27683,
    "lng": -71.45026
  },
  {
    "name": "Ccuntuma",
    "country": "PE",
    "lat": -14.1254,
    "lng": -71.41216
  },
  {
    "name": "Ccochaccasa",
    "country": "PE",
    "lat": -12.92568,
    "lng": -74.77019
  }
]