[
  {
    "name": "Clorinda",
    "country": "AR",
    "lat": -25.28627,
    "lng": -57.72168
  },
  {
    "name": "Clodomira",
    "country": "AR",
    "lat": -27.5766,
    "lng": -64.13201
  },
  {
    "name": "Cleve",
    "country": "AU",
    "lat": -33.7,
    "lng": 136.5
  },
  {
    "name": "Clare",
    "country": "AU",
    "lat": -33.83325,
    "lng": 138.61064
  },
  {
    "name": "Clapham",
    "country": "AU",
    "lat": -34.98989,
    "lng": 138.60158
  },
  {
    "name": "Claremont",
    "country": "AU",
    "lat": -31.97961,
    "lng": 115.7823
  },
  {
    "name": "Clyde North",
    "country": "AU",
    "lat": -38.11667,
    "lng": 145.33333
  },
  {
    "name": "Clyde",
    "country": "AU",
    "lat": -38.13333,
    "lng": 145.33333
  },
  {
    "name": "Clunes",
    "country": "AU",
    "lat": -37.29473,
    "lng": 143.78636
  },
  {
    "name": "Cloncurry",
    "country": "AU",
    "lat": -20.70718,
    "lng": 140.51303
  },
  {
    "name": "Clifton Springs",
    "country": "AU",
    "lat": -38.1567,
    "lng": 144.5551
  },
  {
    "name": "Clifton Hill",
    "country": "AU",
    "lat": -37.792,
    "lng": 144.995
  },
  {
    "name": "Clifton",
    "country": "AU",
    "lat": -27.93374,
    "lng": 151.9066
  },
  {
    "name": "Cleveland",
    "country": "AU",
    "lat": -27.52677,
    "lng": 153.26516
  },
  {
    "name": "Clermont",
    "country": "AU",
    "lat": -22.82407,
    "lng": 147.63635
  },
  {
    "name": "Clayton South",
    "country": "AU",
    "lat": -37.93333,
    "lng": 145.11667
  },
  {
    "name": "Clayton",
    "country": "AU",
    "lat": -37.91667,
    "lng": 145.11667
  },
  {
    "name": "Clarinda",
    "country": "AU",
    "lat": -37.94066,
    "lng": 145.10238
  },
  {
    "name": "Clarence Town",
    "country": "AU",
    "lat": -32.58395,
    "lng": 151.77757
  },
  {
    "name": "Claremont",
    "country": "AU",
    "lat": -42.78333,
    "lng": 147.25
  },
  {
    "name": "Clontarf",
    "country": "AU",
    "lat": -33.80554,
    "lng": 151.25367
  },
  {
    "name": "Clovelly",
    "country": "AU",
    "lat": -33.91214,
    "lng": 151.25882
  },
  {
    "name": "Clifton Beach",
    "country": "AU",
    "lat": -16.76313,
    "lng": 145.67167
  },
  {
    "name": "Clarkson",
    "country": "AU",
    "lat": -31.68282,
    "lng": 115.7247
  },
  {
    "name": "Clayfield",
    "country": "AU",
    "lat": -27.41894,
    "lng": 153.05818
  },
  {
    "name": "Clontarf",
    "country": "AU",
    "lat": -27.25341,
    "lng": 153.07835
  },
  {
    "name": "Clarendon Vale",
    "country": "AU",
    "lat": -42.88988,
    "lng": 147.44368
  },
  {
    "name": "Clearview",
    "country": "AU",
    "lat": -34.85735,
    "lng": 138.61327
  },
  {
    "name": "Claremont Meadows",
    "country": "AU",
    "lat": -33.77587,
    "lng": 150.75193
  },
  {
    "name": "Claymore",
    "country": "AU",
    "lat": -34.04649,
    "lng": 150.81114
  },
  {
    "name": "Cloverdale",
    "country": "AU",
    "lat": -31.96281,
    "lng": 115.94428
  },
  {
    "name": "Clinton",
    "country": "AU",
    "lat": -23.87518,
    "lng": 151.21793
  },
  {
    "name": "Clemton Park",
    "country": "AU",
    "lat": -33.92616,
    "lng": 151.10406
  },
  {
    "name": "Clovelly Park",
    "country": "AU",
    "lat": -34.99951,
    "lng": 138.57081
  },
  {
    "name": "Clarence Gardens",
    "country": "AU",
    "lat": -34.97539,
    "lng": 138.57983
  },
  {
    "name": "Clarence Park",
    "country": "AU",
    "lat": -34.96416,
    "lng": 138.5806
  },
  {
    "name": "Clear Island Waters",
    "country": "AU",
    "lat": -28.05308,
    "lng": 153.39815
  },
  {
    "name": "Clermont",
    "country": "BE",
    "lat": 50.65926,
    "lng": 5.88455
  },
  {
    "name": "Clermont-sous-Huy",
    "country": "BE",
    "lat": 50.56961,
    "lng": 5.39231
  },
  {
    "name": "Clavier",
    "country": "BE",
    "lat": 50.40069,
    "lng": 5.35154
  },
  {
    "name": "Clabecq",
    "country": "BE",
    "lat": 50.69245,
    "lng": 4.2215
  },
  {
    "name": "Cliza",
    "country": "BO",
    "lat": -17.58777,
    "lng": -65.93253
  },
  {
    "name": "Clevelândia",
    "country": "BR",
    "lat": -26.40471,
    "lng": -52.35106
  },
  {
    "name": "Clementina",
    "country": "BR",
    "lat": -21.55972,
    "lng": -50.44917
  },
  {
    "name": "Cláudio",
    "country": "BR",
    "lat": -20.44333,
    "lng": -44.76583
  },
  {
    "name": "Claro dos Poções",
    "country": "BR",
    "lat": -17.07972,
    "lng": -44.20861
  },
  {
    "name": "Claraval",
    "country": "BR",
    "lat": -20.4014,
    "lng": -47.28499
  },
  {
    "name": "Cláudia",
    "country": "BR",
    "lat": -11.51528,
    "lng": -54.89139
  },
  {
    "name": "Clarence Town",
    "country": "BS",
    "lat": 23.1,
    "lng": -74.98333
  },
  {
    "name": "Clairmont",
    "country": "CA",
    "lat": 55.26668,
    "lng": -118.78601
  },
  {
    "name": "Clarence-Rockland",
    "country": "CA",
    "lat": 45.5501,
    "lng": -75.29101
  },
  {
    "name": "Clarenville",
    "country": "CA",
    "lat": 48.1666,
    "lng": -53.96482
  },
  {
    "name": "Clarenville-Shoal Harbour",
    "country": "CA",
    "lat": 48.1805,
    "lng": -53.96982
  },
  {
    "name": "Claresholm",
    "country": "CA",
    "lat": 50.03332,
    "lng": -113.58524
  },
  {
    "name": "Clayburn",
    "country": "CA",
    "lat": 49.0691,
    "lng": -122.26176
  },
  {
    "name": "Clearwater",
    "country": "CA",
    "lat": 51.64061,
    "lng": -120.02769
  },
  {
    "name": "Cliffcrest",
    "country": "CA",
    "lat": 43.72192,
    "lng": -79.23091
  },
  {
    "name": "Clinton",
    "country": "CA",
    "lat": 51.08309,
    "lng": -121.58597
  },
  {
    "name": "Cloverdale",
    "country": "CA",
    "lat": 49.10797,
    "lng": -122.7276
  },
  {
    "name": "Clyde River",
    "country": "CA",
    "lat": 70.47233,
    "lng": -68.58987
  },
  {
    "name": "Clanton Park",
    "country": "CA",
    "lat": 43.74198,
    "lng": -79.4463
  },
  {
    "name": "Clairlea-Birchmount",
    "country": "CA",
    "lat": 43.71359,
    "lng": -79.28138
  },
  {
    "name": "Clinton-Glenwood",
    "country": "CA",
    "lat": 49.21213,
    "lng": -122.97957
  },
  {
    "name": "Cleveland",
    "country": "CA",
    "lat": 49.35691,
    "lng": -123.08749
  },
  {
    "name": "Claro",
    "country": "CH",
    "lat": 46.25763,
    "lng": 9.02252
  },
  {
    "name": "Clemencia",
    "country": "CO",
    "lat": 10.56645,
    "lng": -75.32499
  },
  {
    "name": "Cloppenburg",
    "country": "DE",
    "lat": 52.84754,
    "lng": 8.045
  },
  {
    "name": "Clingen",
    "country": "DE",
    "lat": 51.23206,
    "lng": 10.93281
  },
  {
    "name": "Clenze",
    "country": "DE",
    "lat": 52.93729,
    "lng": 10.9575
  },
  {
    "name": "Cleebronn",
    "country": "DE",
    "lat": 49.045,
    "lng": 9.03694
  },
  {
    "name": "Clausthal-Zellerfeld",
    "country": "DE",
    "lat": 51.80949,
    "lng": 10.33821
  },
  {
    "name": "Claußnitz",
    "country": "DE",
    "lat": 50.93333,
    "lng": 12.88333
  },
  {
    "name": "Clausen",
    "country": "DE",
    "lat": 49.26075,
    "lng": 7.6773
  },
  {
    "name": "Clavijo",
    "country": "ES",
    "lat": 42.34897,
    "lng": -2.42666
  },
  {
    "name": "Clarés de Ribota",
    "country": "ES",
    "lat": 41.52957,
    "lng": -1.83773
  },
  {
    "name": "Cluses",
    "country": "FR",
    "lat": 46.06251,
    "lng": 6.57497
  },
  {
    "name": "Cluny",
    "country": "FR",
    "lat": 46.43318,
    "lng": 4.65845
  },
  {
    "name": "Cluis",
    "country": "FR",
    "lat": 46.54486,
    "lng": 1.74933
  },
  {
    "name": "Cloyes-sur-le-Loir",
    "country": "FR",
    "lat": 47.99726,
    "lng": 1.23711
  },
  {
    "name": "Clouange",
    "country": "FR",
    "lat": 49.2624,
    "lng": 6.09723
  },
  {
    "name": "Clonas-sur-Varèze",
    "country": "FR",
    "lat": 45.41382,
    "lng": 4.79077
  },
  {
    "name": "Clohars-Fouesnant",
    "country": "FR",
    "lat": 47.89756,
    "lng": -4.06814
  },
  {
    "name": "Clohars-Carnoët",
    "country": "FR",
    "lat": 47.79631,
    "lng": -3.58558
  },
  {
    "name": "Clisson",
    "country": "FR",
    "lat": 47.0871,
    "lng": -1.28297
  },
  {
    "name": "Clion",
    "country": "FR",
    "lat": 46.94085,
    "lng": 1.23214
  },
  {
    "name": "Clinchamps-sur-Orne",
    "country": "FR",
    "lat": 49.07857,
    "lng": -0.40156
  },
  {
    "name": "Clichy-sous-Bois",
    "country": "FR",
    "lat": 48.9102,
    "lng": 2.55323
  },
  {
    "name": "Clichy",
    "country": "FR",
    "lat": 48.90018,
    "lng": 2.30952
  },
  {
    "name": "Cléry-Saint-André",
    "country": "FR",
    "lat": 47.82218,
    "lng": 1.75091
  },
  {
    "name": "Clerval",
    "country": "FR",
    "lat": 47.39167,
    "lng": 6.49925
  },
  {
    "name": "Clermont-Ferrand",
    "country": "FR",
    "lat": 45.77969,
    "lng": 3.08682
  },
  {
    "name": "Clermont-en-Argonne",
    "country": "FR",
    "lat": 49.10711,
    "lng": 5.07002
  },
  {
    "name": "Clermont-Créans",
    "country": "FR",
    "lat": 47.71831,
    "lng": -0.01459
  },
  {
    "name": "Clermont",
    "country": "FR",
    "lat": 49.37897,
    "lng": 2.41258
  },
  {
    "name": "Clérieux",
    "country": "FR",
    "lat": 45.07591,
    "lng": 4.95983
  },
  {
    "name": "Clères",
    "country": "FR",
    "lat": 49.6,
    "lng": 1.11667
  },
  {
    "name": "Cléré-les-Pins",
    "country": "FR",
    "lat": 47.4255,
    "lng": 0.38963
  },
  {
    "name": "Clérac",
    "country": "FR",
    "lat": 45.18157,
    "lng": -0.22736
  },
  {
    "name": "Cléon",
    "country": "FR",
    "lat": 49.31235,
    "lng": 1.0295
  },
  {
    "name": "Cléguérec",
    "country": "FR",
    "lat": 48.12507,
    "lng": -3.07124
  },
  {
    "name": "Cléguer",
    "country": "FR",
    "lat": 47.85389,
    "lng": -3.38437
  },
  {
    "name": "Cléder",
    "country": "FR",
    "lat": 48.66332,
    "lng": -4.10244
  },
  {
    "name": "Cléden-Poher",
    "country": "FR",
    "lat": 48.23575,
    "lng": -3.66925
  },
  {
    "name": "Clécy",
    "country": "FR",
    "lat": 48.91718,
    "lng": -0.48041
  },
  {
    "name": "Claye-Souilly",
    "country": "FR",
    "lat": 48.94492,
    "lng": 2.68566
  },
  {
    "name": "Claville",
    "country": "FR",
    "lat": 49.04844,
    "lng": 1.01954
  },
  {
    "name": "Clary",
    "country": "FR",
    "lat": 50.07789,
    "lng": 3.39943
  },
  {
    "name": "Claret",
    "country": "FR",
    "lat": 43.86244,
    "lng": 3.90522
  },
  {
    "name": "Clarensac",
    "country": "FR",
    "lat": 43.82536,
    "lng": 4.22047
  },
  {
    "name": "Clapiers",
    "country": "FR",
    "lat": 43.65833,
    "lng": 3.88917
  },
  {
    "name": "Clamecy",
    "country": "FR",
    "lat": 47.46017,
    "lng": 3.5194
  },
  {
    "name": "Clamart",
    "country": "FR",
    "lat": 48.80299,
    "lng": 2.26692
  },
  {
    "name": "Claix",
    "country": "FR",
    "lat": 45.11994,
    "lng": 5.67292
  },
  {
    "name": "Clairvaux-les-Lacs",
    "country": "FR",
    "lat": 46.57473,
    "lng": 5.74825
  },
  {
    "name": "Clairoix",
    "country": "FR",
    "lat": 49.44264,
    "lng": 2.84628
  },
  {
    "name": "Clairac",
    "country": "FR",
    "lat": 44.36016,
    "lng": 0.37829
  },
  {
    "name": "Claira",
    "country": "FR",
    "lat": 42.76023,
    "lng": 2.95606
  },
  {
    "name": "Clydebank",
    "country": "GB",
    "lat": 55.90137,
    "lng": -4.4057
  },
  {
    "name": "Clydach",
    "country": "GB",
    "lat": 51.68333,
    "lng": -3.9
  },
  {
    "name": "Clutton",
    "country": "GB",
    "lat": 51.32944,
    "lng": -2.54306
  },
  {
    "name": "Clowne",
    "country": "GB",
    "lat": 53.27449,
    "lng": -1.26406
  },
  {
    "name": "Clophill",
    "country": "GB",
    "lat": 52.02727,
    "lng": -0.42377
  },
  {
    "name": "Clive",
    "country": "GB",
    "lat": 52.81335,
    "lng": -2.72295
  },
  {
    "name": "Clitheroe",
    "country": "GB",
    "lat": 53.86667,
    "lng": -2.4
  },
  {
    "name": "Clipsham",
    "country": "GB",
    "lat": 52.73608,
    "lng": -0.56545
  },
  {
    "name": "Clifton",
    "country": "GB",
    "lat": 52.0399,
    "lng": -0.30051
  },
  {
    "name": "Clifford",
    "country": "GB",
    "lat": 52.1,
    "lng": -3.1
  },
  {
    "name": "Cliffe",
    "country": "GB",
    "lat": 51.46224,
    "lng": 0.49833
  },
  {
    "name": "Cleveleys",
    "country": "GB",
    "lat": 53.8775,
    "lng": -3.03987
  },
  {
    "name": "Clevedon",
    "country": "GB",
    "lat": 51.44227,
    "lng": -2.85786
  },
  {
    "name": "Cleobury Mortimer",
    "country": "GB",
    "lat": 52.37853,
    "lng": -2.48196
  },
  {
    "name": "Clenchwarton",
    "country": "GB",
    "lat": 52.75604,
    "lng": 0.3579
  },
  {
    "name": "Cleland",
    "country": "GB",
    "lat": 55.80243,
    "lng": -3.9142
  },
  {
    "name": "Cleethorpes",
    "country": "GB",
    "lat": 53.56047,
    "lng": -0.03225
  },
  {
    "name": "Cleckheaton",
    "country": "GB",
    "lat": 53.72405,
    "lng": -1.71294
  },
  {
    "name": "Cleator Moor",
    "country": "GB",
    "lat": 54.52143,
    "lng": -3.5159
  },
  {
    "name": "Clayton West",
    "country": "GB",
    "lat": 53.59501,
    "lng": -1.61107
  },
  {
    "name": "Clayton le Moors",
    "country": "GB",
    "lat": 53.76667,
    "lng": -2.38333
  },
  {
    "name": "Clayton",
    "country": "GB",
    "lat": 53.76667,
    "lng": -1.81667
  },
  {
    "name": "Claypole",
    "country": "GB",
    "lat": 53.03144,
    "lng": -0.73407
  },
  {
    "name": "Claydon",
    "country": "GB",
    "lat": 52.14813,
    "lng": -1.33295
  },
  {
    "name": "Claydon",
    "country": "GB",
    "lat": 52.10672,
    "lng": 1.11134
  },
  {
    "name": "Clare",
    "country": "GB",
    "lat": 52.07861,
    "lng": 0.58167
  },
  {
    "name": "Clarborough",
    "country": "GB",
    "lat": 53.34549,
    "lng": -0.90382
  },
  {
    "name": "Clapham",
    "country": "GB",
    "lat": 52.16085,
    "lng": -0.49529
  },
  {
    "name": "Clacton-on-Sea",
    "country": "GB",
    "lat": 51.78967,
    "lng": 1.15597
  },
  {
    "name": "Clackmannan",
    "country": "GB",
    "lat": 56.10743,
    "lng": -3.75098
  },
  {
    "name": "Clydach Vale",
    "country": "GB",
    "lat": 51.62665,
    "lng": -3.48015
  },
  {
    "name": "Clifford",
    "country": "GB",
    "lat": 53.89513,
    "lng": -1.34557
  },
  {
    "name": "Clarkston",
    "country": "GB",
    "lat": 55.78594,
    "lng": -4.27651
  },
  {
    "name": "Clerkenwell",
    "country": "GB",
    "lat": 51.52438,
    "lng": -0.11022
  },
  {
    "name": "Clayton-le-Woods",
    "country": "GB",
    "lat": 53.69689,
    "lng": -2.66818
  },
  {
    "name": "Cloyne",
    "country": "IE",
    "lat": 51.86278,
    "lng": -8.12444
  },
  {
    "name": "Cluain Meala",
    "country": "IE",
    "lat": 52.355,
    "lng": -7.70389
  },
  {
    "name": "Clones",
    "country": "IE",
    "lat": 54.18333,
    "lng": -7.23333
  },
  {
    "name": "Clondalkin",
    "country": "IE",
    "lat": 53.32444,
    "lng": -6.39722
  },
  {
    "name": "Clonakilty",
    "country": "IE",
    "lat": 51.62306,
    "lng": -8.87056
  },
  {
    "name": "Clogherhead",
    "country": "IE",
    "lat": 53.79361,
    "lng": -6.2375
  },
  {
    "name": "Clifden",
    "country": "IE",
    "lat": 53.48907,
    "lng": -10.0191
  },
  {
    "name": "Claremorris",
    "country": "IE",
    "lat": 53.71667,
    "lng": -9.0
  },
  {
    "name": "Claregalway",
    "country": "IE",
    "lat": 53.33861,
    "lng": -8.945
  },
  {
    "name": "Clara",
    "country": "IE",
    "lat": 53.3425,
    "lng": -7.61389
  },
  {
    "name": "Clane",
    "country": "IE",
    "lat": 53.29139,
    "lng": -6.68917
  },
  {
    "name": "Clonskeagh",
    "country": "IE",
    "lat": 53.31467,
    "lng": -6.23148
  },
  {
    "name": "Closepet",
    "country": "IN",
    "lat": 12.72181,
    "lng": 77.28149
  },
  {
    "name": "Clement Town",
    "country": "IN",
    "lat": 30.26361,
    "lng": 78.00862
  },
  {
    "name": "Cleto",
    "country": "IT",
    "lat": 39.09019,
    "lng": 16.15839
  },
  {
    "name": "Clusone",
    "country": "IT",
    "lat": 45.88663,
    "lng": 9.94646
  },
  {
    "name": "Clusane",
    "country": "IT",
    "lat": 45.66247,
    "lng": 10.00005
  },
  {
    "name": "Cles",
    "country": "IT",
    "lat": 46.36294,
    "lng": 11.03276
  },
  {
    "name": "Claviere",
    "country": "IT",
    "lat": 44.93922,
    "lng": 6.75213
  },
  {
    "name": "Clauzetto",
    "country": "IT",
    "lat": 46.22931,
    "lng": 12.91662
  },
  {
    "name": "Classe",
    "country": "IT",
    "lat": 44.37955,
    "lng": 12.23654
  },
  {
    "name": "Clodig",
    "country": "IT",
    "lat": 46.1562,
    "lng": 13.59399
  },
  {
    "name": "Claut",
    "country": "IT",
    "lat": 46.26855,
    "lng": 12.5144
  },
  {
    "name": "Cloz",
    "country": "IT",
    "lat": 46.4162,
    "lng": 11.08589
  },
  {
    "name": "Clivio",
    "country": "IT",
    "lat": 45.86278,
    "lng": 8.93083
  },
  {
    "name": "Clavesana",
    "country": "IT",
    "lat": 44.48334,
    "lng": 7.91084
  },
  {
    "name": "Clervaux",
    "country": "LU",
    "lat": 50.05472,
    "lng": 6.03139
  },
  {
    "name": "Clemency",
    "country": "LU",
    "lat": 49.59667,
    "lng": 5.87583
  },
  {
    "name": "Clausen",
    "country": "LU",
    "lat": 49.61313,
    "lng": 6.14278
  },
  {
    "name": "Clémencia",
    "country": "MU",
    "lat": -20.26389,
    "lng": 57.70611
  },
  {
    "name": "Cluny",
    "country": "MU",
    "lat": -20.36694,
    "lng": 57.60389
  },
  {
    "name": "Cloete",
    "country": "MX",
    "lat": 27.92343,
    "lng": -101.17601
  },
  {
    "name": "Cliserio Alanís (San Gaspar)",
    "country": "MX",
    "lat": 18.86111,
    "lng": -99.16
  },
  {
    "name": "Clive",
    "country": "NZ",
    "lat": -39.58333,
    "lng": 176.91667
  },
  {
    "name": "Clevedon",
    "country": "NZ",
    "lat": -37.0,
    "lng": 175.05
  },
  {
    "name": "Claudelands",
    "country": "NZ",
    "lat": -37.78333,
    "lng": 175.28333
  },
  {
    "name": "Clarkville",
    "country": "NZ",
    "lat": -43.41667,
    "lng": 172.61667
  },
  {
    "name": "Clifton",
    "country": "NZ",
    "lat": -43.56435,
    "lng": 172.7492
  },
  {
    "name": "Clifton",
    "country": "NZ",
    "lat": -46.44842,
    "lng": 168.36009
  },
  {
    "name": "Cloverlea",
    "country": "NZ",
    "lat": -40.3455,
    "lng": 175.59002
  },
  {
    "name": "Clarks Beach",
    "country": "NZ",
    "lat": -37.14173,
    "lng": 174.71463
  },
  {
    "name": "Claveria",
    "country": "PH",
    "lat": 18.60742,
    "lng": 121.08322
  },
  {
    "name": "Claveria",
    "country": "PH",
    "lat": 12.9035,
    "lng": 123.2457
  },
  {
    "name": "Claveria",
    "country": "PH",
    "lat": 8.61,
    "lng": 124.89472
  },
  {
    "name": "Claver",
    "country": "PH",
    "lat": 9.5725,
    "lng": 125.73306
  },
  {
    "name": "Clarin",
    "country": "PH",
    "lat": 9.9616,
    "lng": 124.0252
  },
  {
    "name": "Clarin",
    "country": "PH",
    "lat": 8.2023,
    "lng": 123.8582
  },
  {
    "name": "Cluj-Napoca",
    "country": "RO",
    "lat": 46.76667,
    "lng": 23.6
  },
  {
    "name": "Cloșani",
    "country": "RO",
    "lat": 45.06897,
    "lng": 22.8025
  },
  {
    "name": "Clocotici",
    "country": "RO",
    "lat": 45.24495,
    "lng": 21.83467
  },
  {
    "name": "Clit",
    "country": "RO",
    "lat": 47.75396,
    "lng": 25.85691
  },
  {
    "name": "Clinceni",
    "country": "RO",
    "lat": 44.37333,
    "lng": 25.95472
  },
  {
    "name": "Clejani",
    "country": "RO",
    "lat": 44.31972,
    "lng": 25.69944
  },
  {
    "name": "Cleja",
    "country": "RO",
    "lat": 46.41667,
    "lng": 26.9
  },
  {
    "name": "Cleanov",
    "country": "RO",
    "lat": 44.35288,
    "lng": 23.21032
  },
  {
    "name": "Clementi Housing Estate",
    "country": "SG",
    "lat": 1.31583,
    "lng": 103.76472
  },
  {
    "name": "Claxton Bay",
    "country": "TT",
    "lat": 10.36637,
    "lng": -61.45985
  },
  {
    "name": "Clanton",
    "country": "US",
    "lat": 32.83874,
    "lng": -86.62943
  },
  {
    "name": "Clay",
    "country": "US",
    "lat": 33.7026,
    "lng": -86.59971
  },
  {
    "name": "Clayton",
    "country": "US",
    "lat": 31.87822,
    "lng": -85.44966
  },
  {
    "name": "Cleveland",
    "country": "US",
    "lat": 33.99093,
    "lng": -86.57749
  },
  {
    "name": "Clio",
    "country": "US",
    "lat": 31.70878,
    "lng": -85.6105
  },
  {
    "name": "Clarendon",
    "country": "US",
    "lat": 34.69315,
    "lng": -91.31374
  },
  {
    "name": "Clarksville",
    "country": "US",
    "lat": 35.47147,
    "lng": -93.46657
  },
  {
    "name": "Clinton",
    "country": "US",
    "lat": 35.59147,
    "lng": -92.46044
  },
  {
    "name": "Cleveland Park",
    "country": "US",
    "lat": 38.93622,
    "lng": -77.06553
  },
  {
    "name": "Claymont",
    "country": "US",
    "lat": 39.80067,
    "lng": -75.45964
  },
  {
    "name": "Clayton",
    "country": "US",
    "lat": 39.29067,
    "lng": -75.63437
  },
  {
    "name": "Clarcona",
    "country": "US",
    "lat": 28.61278,
    "lng": -81.49868
  },
  {
    "name": "Clearwater",
    "country": "US",
    "lat": 27.96585,
    "lng": -82.8001
  },
  {
    "name": "Clermont",
    "country": "US",
    "lat": 28.54944,
    "lng": -81.77285
  },
  {
    "name": "Clewiston",
    "country": "US",
    "lat": 26.75423,
    "lng": -80.93368
  },
  {
    "name": "Cleveland",
    "country": "US",
    "lat": 26.96173,
    "lng": -81.98398
  },
  {
    "name": "Clarkesville",
    "country": "US",
    "lat": 34.6126,
    "lng": -83.52489
  },
  {
    "name": "Clarkston",
    "country": "US",
    "lat": 33.80955,
    "lng": -84.23964
  },
  {
    "name": "Claxton",
    "country": "US",
    "lat": 32.16158,
    "lng": -81.904
  },
  {
    "name": "Clayton",
    "country": "US",
    "lat": 34.87815,
    "lng": -83.40099
  },
  {
    "name": "Cleveland",
    "country": "US",
    "lat": 34.59704,
    "lng": -83.76324
  },
  {
    "name": "Clarksville",
    "country": "US",
    "lat": 38.29674,
    "lng": -85.75996
  },
  {
    "name": "Clermont",
    "country": "US",
    "lat": 39.80977,
    "lng": -86.32249
  },
  {
    "name": "Clinton",
    "country": "US",
    "lat": 39.65698,
    "lng": -87.39807
  },
  {
    "name": "Cloverdale",
    "country": "US",
    "lat": 39.51477,
    "lng": -86.7939
  },
  {
    "name": "Clay Center",
    "country": "US",
    "lat": 37.51946,
    "lng": -96.77114
  },
  {
    "name": "Clay Center",
    "country": "US",
    "lat": 39.37694,
    "lng": -97.12474
  },
  {
    "name": "Clearwater",
    "country": "US",
    "lat": 37.5028,
    "lng": -97.50449
  },
  {
    "name": "Claryville",
    "country": "US",
    "lat": 38.91923,
    "lng": -84.39549
  },
  {
    "name": "Clay",
    "country": "US",
    "lat": 37.47671,
    "lng": -87.82002
  },
  {
    "name": "Clay City",
    "country": "US",
    "lat": 37.85925,
    "lng": -83.91853
  },
  {
    "name": "Clinton",
    "country": "US",
    "lat": 36.66728,
    "lng": -88.9934
  },
  {
    "name": "Cloverport",
    "country": "US",
    "lat": 37.83339,
    "lng": -86.63276
  },
  {
    "name": "Claiborne",
    "country": "US",
    "lat": 32.51598,
    "lng": -92.1918
  },
  {
    "name": "Clarks",
    "country": "US",
    "lat": 32.02655,
    "lng": -92.13903
  },
  {
    "name": "Clinton",
    "country": "US",
    "lat": 30.86574,
    "lng": -91.01566
  },
  {
    "name": "Clarksburg",
    "country": "US",
    "lat": 39.23872,
    "lng": -77.27943
  },
  {
    "name": "Clover Hill",
    "country": "US",
    "lat": 39.45621,
    "lng": -77.42887
  },
  {
    "name": "Cloverly",
    "country": "US",
    "lat": 39.10816,
    "lng": -76.99775
  },
  {
    "name": "Clinton",
    "country": "US",
    "lat": 38.76511,
    "lng": -76.89831
  },
  {
    "name": "Clarkson Valley",
    "country": "US",
    "lat": 38.61839,
    "lng": -90.58929
  },
  {
    "name": "Clarkton",
    "country": "US",
    "lat": 36.45173,
    "lng": -89.96704
  },
  {
    "name": "Claycomo",
    "country": "US",
    "lat": 39.2025,
    "lng": -94.49245
  },
  {
    "name": "Clayton",
    "country": "US",
    "lat": 38.64255,
    "lng": -90.32373
  },
  {
    "name": "Clever",
    "country": "US",
    "lat": 37.03033,
    "lng": -93.47297
  },
  {
    "name": "Clinton",
    "country": "US",
    "lat": 38.36863,
    "lng": -93.77827
  },
  {
    "name": "Clarksdale",
    "country": "US",
    "lat": 34.20011,
    "lng": -90.57093
  },
  {
    "name": "Cleary",
    "country": "US",
    "lat": 32.16543,
    "lng": -90.18064
  },
  {
    "name": "Cleveland",
    "country": "US",
    "lat": 33.744,
    "lng": -90.72482
  },
  {
    "name": "Clinton",
    "country": "US",
    "lat": 32.34153,
    "lng": -90.32176
  },
  {
    "name": "Claremont",
    "country": "US",
    "lat": 35.71458,
    "lng": -81.14619
  },
  {
    "name": "Clayton",
    "country": "US",
    "lat": 35.65071,
    "lng": -78.45639
  },
  {
    "name": "Clemmons",
    "country": "US",
    "lat": 36.02153,
    "lng": -80.382
  },
  {
    "name": "Clinton",
    "country": "US",
    "lat": 34.99795,
    "lng": -78.32333
  },
  {
    "name": "Clyde",
    "country": "US",
    "lat": 35.53344,
    "lng": -82.91069
  },
  {
    "name": "Clayton",
    "country": "US",
    "lat": 39.66011,
    "lng": -75.09212
  },
  {
    "name": "Clementon",
    "country": "US",
    "lat": 39.8115,
    "lng": -74.98294
  },
  {
    "name": "Clayton",
    "country": "US",
    "lat": 39.86311,
    "lng": -84.3605
  },
  {
    "name": "Cleves",
    "country": "US",
    "lat": 39.16172,
    "lng": -84.74912
  },
  {
    "name": "Claremore",
    "country": "US",
    "lat": 36.3126,
    "lng": -95.61609
  },
  {
    "name": "Cleora",
    "country": "US",
    "lat": 36.57897,
    "lng": -94.97107
  },
  {
    "name": "Cleveland",
    "country": "US",
    "lat": 36.31032,
    "lng": -96.46584
  },
  {
    "name": "Clinton",
    "country": "US",
    "lat": 35.51561,
    "lng": -98.96731
  },
  {
    "name": "Clifton Heights",
    "country": "US",
    "lat": 39.92928,
    "lng": -75.2963
  },
  {
    "name": "Clearwater",
    "country": "US",
    "lat": 33.4968,
    "lng": -81.89206
  },
  {
    "name": "Clemson",
    "country": "US",
    "lat": 34.68344,
    "lng": -82.83737
  },
  {
    "name": "Clinton",
    "country": "US",
    "lat": 34.47263,
    "lng": -81.88066
  },
  {
    "name": "Clover",
    "country": "US",
    "lat": 35.11125,
    "lng": -81.22646
  },
  {
    "name": "Clarksville",
    "country": "US",
    "lat": 36.52977,
    "lng": -87.35945
  },
  {
    "name": "Cleveland",
    "country": "US",
    "lat": 35.15952,
    "lng": -84.87661
  },
  {
    "name": "Clifton",
    "country": "US",
    "lat": 35.38702,
    "lng": -87.99531
  },
  {
    "name": "Clinton",
    "country": "US",
    "lat": 36.10341,
    "lng": -84.13186
  },
  {
    "name": "Clarksville",
    "country": "US",
    "lat": 33.61066,
    "lng": -95.05272
  },
  {
    "name": "Clear Lake Shores",
    "country": "US",
    "lat": 29.54745,
    "lng": -95.03215
  },
  {
    "name": "Cleburne",
    "country": "US",
    "lat": 32.34764,
    "lng": -97.38668
  },
  {
    "name": "Cleveland",
    "country": "US",
    "lat": 30.34132,
    "lng": -95.08549
  },
  {
    "name": "Clifton",
    "country": "US",
    "lat": 31.78238,
    "lng": -97.57669
  },
  {
    "name": "Cloverleaf",
    "country": "US",
    "lat": 29.77828,
    "lng": -95.17188
  },
  {
    "name": "Clute",
    "country": "US",
    "lat": 29.02469,
    "lng": -95.39883
  },
  {
    "name": "Clyde",
    "country": "US",
    "lat": 32.40596,
    "lng": -99.49369
  },
  {
    "name": "Clarksville",
    "country": "US",
    "lat": 36.62403,
    "lng": -78.55694
  },
  {
    "name": "Claypool Hill",
    "country": "US",
    "lat": 37.06261,
    "lng": -81.75178
  },
  {
    "name": "Clifton Forge",
    "country": "US",
    "lat": 37.81624,
    "lng": -79.82449
  },
  {
    "name": "Clintwood",
    "country": "US",
    "lat": 37.15011,
    "lng": -82.45598
  },
  {
    "name": "Cloverdale",
    "country": "US",
    "lat": 37.36514,
    "lng": -79.9056
  },
  {
    "name": "Clarksburg",
    "country": "US",
    "lat": 39.28065,
    "lng": -80.34453
  },
  {
    "name": "Clay",
    "country": "US",
    "lat": 38.46038,
    "lng": -81.08511
  },
  {
    "name": "Clendenin",
    "country": "US",
    "lat": 38.48871,
    "lng": -81.34817
  },
  {
    "name": "Clyde",
    "country": "US",
    "lat": 43.08423,
    "lng": -76.8694
  },
  {
    "name": "Cleveland Heights",
    "country": "US",
    "lat": 41.52005,
    "lng": -81.55624
  },
  {
    "name": "Clarinda",
    "country": "US",
    "lat": 40.73981,
    "lng": -95.038
  },
  {
    "name": "Clarion",
    "country": "US",
    "lat": 42.73164,
    "lng": -93.73299
  },
  {
    "name": "Clarksville",
    "country": "US",
    "lat": 42.7847,
    "lng": -92.66769
  },
  {
    "name": "Clear Lake",
    "country": "US",
    "lat": 43.13802,
    "lng": -93.37937
  },
  {
    "name": "Clinton",
    "country": "US",
    "lat": 41.84447,
    "lng": -90.18874
  },
  {
    "name": "Clive",
    "country": "US",
    "lat": 41.60304,
    "lng": -93.72411
  },
  {
    "name": "Clarendon Hills",
    "country": "US",
    "lat": 41.79753,
    "lng": -87.95478
  },
  {
    "name": "Clifton",
    "country": "US",
    "lat": 40.93531,
    "lng": -87.93449
  },
  {
    "name": "Clinton",
    "country": "US",
    "lat": 40.15365,
    "lng": -88.96453
  },
  {
    "name": "Clarendon Hills",
    "country": "US",
    "lat": 42.2751,
    "lng": -71.1245
  },
  {
    "name": "Clinton",
    "country": "US",
    "lat": 42.41676,
    "lng": -71.68285
  },
  {
    "name": "Clinton",
    "country": "US",
    "lat": 44.63784,
    "lng": -69.5031
  },
  {
    "name": "Clare",
    "country": "US",
    "lat": 43.81947,
    "lng": -84.76863
  },
  {
    "name": "Clarkston",
    "country": "US",
    "lat": 42.73586,
    "lng": -83.41883
  },
  {
    "name": "Clawson",
    "country": "US",
    "lat": 42.53337,
    "lng": -83.14632
  },
  {
    "name": "Clinton",
    "country": "US",
    "lat": 42.07199,
    "lng": -83.97161
  },
  {
    "name": "Clinton Township",
    "country": "US",
    "lat": 42.58698,
    "lng": -82.91992
  },
  {
    "name": "Clio",
    "country": "US",
    "lat": 43.17753,
    "lng": -83.73413
  },
  {
    "name": "Clara City",
    "country": "US",
    "lat": 44.95496,
    "lng": -95.3664
  },
  {
    "name": "Clearwater",
    "country": "US",
    "lat": 45.41941,
    "lng": -94.04887
  },
  {
    "name": "Cloquet",
    "country": "US",
    "lat": 46.72161,
    "lng": -92.45936
  },
  {
    "name": "Clay Center",
    "country": "US",
    "lat": 40.52168,
    "lng": -98.05533
  },
  {
    "name": "Claremont",
    "country": "US",
    "lat": 43.37674,
    "lng": -72.34676
  },
  {
    "name": "Clark",
    "country": "US",
    "lat": 40.63,
    "lng": -74.31
  },
  {
    "name": "Clearbrook Park",
    "country": "US",
    "lat": 40.30983,
    "lng": -74.4646
  },
  {
    "name": "Cliffside Park",
    "country": "US",
    "lat": 40.82149,
    "lng": -73.98764
  },
  {
    "name": "Cliffwood Beach",
    "country": "US",
    "lat": 40.44205,
    "lng": -74.21681
  },
  {
    "name": "Clifton",
    "country": "US",
    "lat": 40.85843,
    "lng": -74.16376
  },
  {
    "name": "Clinton",
    "country": "US",
    "lat": 40.63677,
    "lng": -74.90989
  },
  {
    "name": "Closter",
    "country": "US",
    "lat": 40.97315,
    "lng": -73.96153
  },
  {
    "name": "Clarence",
    "country": "US",
    "lat": 42.97673,
    "lng": -78.59197
  },
  {
    "name": "Clarence Center",
    "country": "US",
    "lat": 43.01061,
    "lng": -78.63753
  },
  {
    "name": "Clark Mills",
    "country": "US",
    "lat": 43.09229,
    "lng": -75.37962
  },
  {
    "name": "Clarkson",
    "country": "US",
    "lat": 43.23312,
    "lng": -77.92751
  },
  {
    "name": "Clay",
    "country": "US",
    "lat": 43.1859,
    "lng": -76.17243
  },
  {
    "name": "Clayton",
    "country": "US",
    "lat": 44.23949,
    "lng": -76.08578
  },
  {
    "name": "Clifton",
    "country": "US",
    "lat": 40.6201,
    "lng": -74.07709
  },
  {
    "name": "Clifton Park",
    "country": "US",
    "lat": 42.86563,
    "lng": -73.77095
  },
  {
    "name": "Clifton Springs",
    "country": "US",
    "lat": 42.96173,
    "lng": -77.13998
  },
  {
    "name": "Clinton",
    "country": "US",
    "lat": 43.0484,
    "lng": -75.3785
  },
  {
    "name": "Clinton Corners",
    "country": "US",
    "lat": 41.83009,
    "lng": -73.76235
  },
  {
    "name": "Clintondale",
    "country": "US",
    "lat": 41.69482,
    "lng": -74.05125
  },
  {
    "name": "Clymer",
    "country": "US",
    "lat": 42.02089,
    "lng": -79.63005
  },
  {
    "name": "Cleveland",
    "country": "US",
    "lat": 41.4995,
    "lng": -81.69541
  },
  {
    "name": "Clinton",
    "country": "US",
    "lat": 40.92672,
    "lng": -81.6304
  },
  {
    "name": "Clyde",
    "country": "US",
    "lat": 41.30422,
    "lng": -82.97519
  },
  {
    "name": "Clairton",
    "country": "US",
    "lat": 40.29229,
    "lng": -79.88171
  },
  {
    "name": "Clarion",
    "country": "US",
    "lat": 41.21479,
    "lng": -79.38532
  },
  {
    "name": "Clarks Green",
    "country": "US",
    "lat": 41.49286,
    "lng": -75.69964
  },
  {
    "name": "Clarks Summit",
    "country": "US",
    "lat": 41.48869,
    "lng": -75.70852
  },
  {
    "name": "Clay",
    "country": "US",
    "lat": 40.21843,
    "lng": -76.25551
  },
  {
    "name": "Claysburg",
    "country": "US",
    "lat": 40.29674,
    "lng": -78.44974
  },
  {
    "name": "Clearfield",
    "country": "US",
    "lat": 41.02728,
    "lng": -78.43919
  },
  {
    "name": "Cleona",
    "country": "US",
    "lat": 40.33731,
    "lng": -76.47552
  },
  {
    "name": "Clymer",
    "country": "US",
    "lat": 40.66812,
    "lng": -79.0117
  },
  {
    "name": "Clark",
    "country": "US",
    "lat": 44.87774,
    "lng": -97.73314
  },
  {
    "name": "Clear Lake",
    "country": "US",
    "lat": 44.7458,
    "lng": -96.68256
  },
  {
    "name": "Clarendon",
    "country": "US",
    "lat": 43.51618,
    "lng": -72.96983
  },
  {
    "name": "Clear Lake",
    "country": "US",
    "lat": 45.25191,
    "lng": -92.2713
  },
  {
    "name": "Cleveland",
    "country": "US",
    "lat": 43.91499,
    "lng": -87.74731
  },
  {
    "name": "Clinton",
    "country": "US",
    "lat": 42.55779,
    "lng": -88.86511
  },
  {
    "name": "Clintonville",
    "country": "US",
    "lat": 44.62053,
    "lng": -88.76232
  },
  {
    "name": "Clinton",
    "country": "US",
    "lat": 41.27871,
    "lng": -72.52759
  },
  {
    "name": "Clarkdale",
    "country": "US",
    "lat": 34.77113,
    "lng": -112.05794
  },
  {
    "name": "Claypool",
    "country": "US",
    "lat": 33.41117,
    "lng": -110.84261
  },
  {
    "name": "Clifton",
    "country": "US",
    "lat": 33.0509,
    "lng": -109.29618
  },
  {
    "name": "Claremont",
    "country": "US",
    "lat": 34.09668,
    "lng": -117.71978
  },
  {
    "name": "Clay",
    "country": "US",
    "lat": 38.33602,
    "lng": -121.15939
  },
  {
    "name": "Clayton",
    "country": "US",
    "lat": 37.94103,
    "lng": -121.93579
  },
  {
    "name": "Clear Lake Riviera",
    "country": "US",
    "lat": 38.95406,
    "lng": -122.72082
  },
  {
    "name": "Clearlake",
    "country": "US",
    "lat": 38.95823,
    "lng": -122.62637
  },
  {
    "name": "Clearlake Oaks",
    "country": "US",
    "lat": 39.02628,
    "lng": -122.67193
  },
  {
    "name": "Cloverdale",
    "country": "US",
    "lat": 38.80546,
    "lng": -123.01722
  },
  {
    "name": "Clovis",
    "country": "US",
    "lat": 36.82523,
    "lng": -119.70292
  },
  {
    "name": "Clifton",
    "country": "US",
    "lat": 39.09193,
    "lng": -108.44898
  },
  {
    "name": "Clayton",
    "country": "US",
    "lat": 36.45169,
    "lng": -103.1841
  },
  {
    "name": "Clovis",
    "country": "US",
    "lat": 34.4048,
    "lng": -103.20523
  },
  {
    "name": "Clarendon",
    "country": "US",
    "lat": 34.93783,
    "lng": -100.8882
  },
  {
    "name": "Claude",
    "country": "US",
    "lat": 35.11172,
    "lng": -101.36322
  },
  {
    "name": "Clint",
    "country": "US",
    "lat": 31.59234,
    "lng": -106.22414
  },
  {
    "name": "Clancy",
    "country": "US",
    "lat": 46.46521,
    "lng": -111.98638
  },
  {
    "name": "Clinton",
    "country": "US",
    "lat": 46.76909,
    "lng": -113.7126
  },
  {
    "name": "Clackamas",
    "country": "US",
    "lat": 45.40762,
    "lng": -122.57037
  },
  {
    "name": "Clatskanie",
    "country": "US",
    "lat": 46.10122,
    "lng": -123.20679
  },
  {
    "name": "Clearfield",
    "country": "US",
    "lat": 41.11078,
    "lng": -112.02605
  },
  {
    "name": "Clinton",
    "country": "US",
    "lat": 41.13967,
    "lng": -112.0505
  },
  {
    "name": "Clarkston",
    "country": "US",
    "lat": 46.41629,
    "lng": -117.04557
  },
  {
    "name": "Cle Elum",
    "country": "US",
    "lat": 47.1954,
    "lng": -120.93925
  },
  {
    "name": "Clear Lake",
    "country": "US",
    "lat": 48.46427,
    "lng": -122.23404
  },
  {
    "name": "Clearview",
    "country": "US",
    "lat": 47.83371,
    "lng": -122.12596
  },
  {
    "name": "Clyde Hill",
    "country": "US",
    "lat": 47.63177,
    "lng": -122.2179
  },
  {
    "name": "Clarkston Heights-Vineland",
    "country": "US",
    "lat": 46.38742,
    "lng": -117.083
  },
  {
    "name": "Clark-Fulton",
    "country": "US",
    "lat": 41.46402,
    "lng": -81.70979
  },
  {
    "name": "Clarines",
    "country": "VE",
    "lat": 9.93991,
    "lng": -65.16517
  },
  {
    "name": "Clydesdale",
    "country": "ZA",
    "lat": -30.29831,
    "lng": 29.93772
  },
  {
    "name": "Clarkson",
    "country": "ZA",
    "lat": -34.01521,
    "lng": 24.34291
  },
  {
    "name": "Clarens",
    "country": "ZA",
    "lat": -28.5154,
    "lng": 28.41985
  },
  {
    "name": "Claremont",
    "country": "ZA",
    "lat": -33.98056,
    "lng": 18.46528
  },
  {
    "name": "Clanwilliam",
    "country": "ZA",
    "lat": -32.18173,
    "lng": 18.89217
  },
  {
    "name": "Clarendon Marine",
    "country": "ZA",
    "lat": -34.01235,
    "lng": 25.36577
  },
  {
    "name": "Clare A",
    "country": "ZA",
    "lat": -24.63293,
    "lng": 31.30041
  }
]