[
  {
    "name": "Codrington",
    "country": "AG",
    "lat": 17.6394,
    "lng": -61.82437
  },
  {
    "name": "Conda",
    "country": "AO",
    "lat": -11.10862,
    "lng": 14.33621
  },
  {
    "name": "Colonia Wanda",
    "country": "AR",
    "lat": -25.97337,
    "lng": -54.56304
  },
  {
    "name": "Colonia Libertad",
    "country": "AR",
    "lat": -30.04328,
    "lng": -57.82175
  },
  {
    "name": "Cote Lai",
    "country": "AR",
    "lat": -27.53022,
    "lng": -59.57346
  },
  {
    "name": "Corrientes",
    "country": "AR",
    "lat": -27.46784,
    "lng": -58.8344
  },
  {
    "name": "Coronel Vidal",
    "country": "AR",
    "lat": -37.44652,
    "lng": -57.72939
  },
  {
    "name": "Conscripto Bernardi",
    "country": "AR",
    "lat": -31.04686,
    "lng": -59.08404
  },
  {
    "name": "Concordia",
    "country": "AR",
    "lat": -31.39195,
    "lng": -58.01706
  },
  {
    "name": "Concepción del Uruguay",
    "country": "AR",
    "lat": -32.48463,
    "lng": -58.23217
  },
  {
    "name": "Concepción de la Sierra",
    "country": "AR",
    "lat": -27.98225,
    "lng": -55.5208
  },
  {
    "name": "Concepción",
    "country": "AR",
    "lat": -28.3932,
    "lng": -57.88679
  },
  {
    "name": "Comandante Fontana",
    "country": "AR",
    "lat": -25.3354,
    "lng": -59.6825
  },
  {
    "name": "Colonias Unidas",
    "country": "AR",
    "lat": -26.69831,
    "lng": -59.63029
  },
  {
    "name": "Colonia Elisa",
    "country": "AR",
    "lat": -26.93166,
    "lng": -59.51882
  },
  {
    "name": "Colonia Elía",
    "country": "AR",
    "lat": -32.67144,
    "lng": -58.32538
  },
  {
    "name": "Colonia Benítez",
    "country": "AR",
    "lat": -27.33026,
    "lng": -58.94579
  },
  {
    "name": "Colonia Aurora",
    "country": "AR",
    "lat": -27.4737,
    "lng": -54.52416
  },
  {
    "name": "Colón",
    "country": "AR",
    "lat": -32.22312,
    "lng": -58.14426
  },
  {
    "name": "Colegiales",
    "country": "AR",
    "lat": -34.57365,
    "lng": -58.44924
  },
  {
    "name": "Coronel Brandsen",
    "country": "AR",
    "lat": -35.16799,
    "lng": -58.23742
  },
  {
    "name": "Costasacate",
    "country": "AR",
    "lat": -31.64816,
    "lng": -63.75963
  },
  {
    "name": "Cosquín",
    "country": "AR",
    "lat": -31.24525,
    "lng": -64.46574
  },
  {
    "name": "Corzuela",
    "country": "AR",
    "lat": -26.95135,
    "lng": -60.97036
  },
  {
    "name": "Corralito",
    "country": "AR",
    "lat": -32.02369,
    "lng": -64.19201
  },
  {
    "name": "Corral de Bustos",
    "country": "AR",
    "lat": -33.28377,
    "lng": -62.18581
  },
  {
    "name": "Coronel Suárez",
    "country": "AR",
    "lat": -37.45859,
    "lng": -61.93294
  },
  {
    "name": "Coronel Pringles",
    "country": "AR",
    "lat": -37.98567,
    "lng": -61.3504
  },
  {
    "name": "Coronel Moldes",
    "country": "AR",
    "lat": -33.622,
    "lng": -64.59702
  },
  {
    "name": "Coronel Du Graty",
    "country": "AR",
    "lat": -27.68216,
    "lng": -60.90443
  },
  {
    "name": "Coronel Dorrego",
    "country": "AR",
    "lat": -38.71872,
    "lng": -61.28849
  },
  {
    "name": "Coronel Belisle",
    "country": "AR",
    "lat": -39.18688,
    "lng": -65.95422
  },
  {
    "name": "Coronel Baigorria",
    "country": "AR",
    "lat": -32.84861,
    "lng": -64.35967
  },
  {
    "name": "Coronda",
    "country": "AR",
    "lat": -31.97365,
    "lng": -60.91935
  },
  {
    "name": "Contralmirante Cordero",
    "country": "AR",
    "lat": -38.75595,
    "lng": -68.09954
  },
  {
    "name": "Concepción del Bermejo",
    "country": "AR",
    "lat": -26.60036,
    "lng": -60.94624
  },
  {
    "name": "Concepción",
    "country": "AR",
    "lat": -27.34127,
    "lng": -65.59636
  },
  {
    "name": "Concarán",
    "country": "AR",
    "lat": -32.56081,
    "lng": -65.24452
  },
  {
    "name": "Comodoro Rivadavia",
    "country": "AR",
    "lat": -45.86256,
    "lng": -67.494
  },
  {
    "name": "Comandante Luis Piedrabuena",
    "country": "AR",
    "lat": -49.98521,
    "lng": -68.91508
  },
  {
    "name": "Comallo",
    "country": "AR",
    "lat": -41.03005,
    "lng": -70.26932
  },
  {
    "name": "Colonia San Bartolomé",
    "country": "AR",
    "lat": -31.52794,
    "lng": -62.72371
  },
  {
    "name": "Colonia Dora",
    "country": "AR",
    "lat": -28.60036,
    "lng": -62.95238
  },
  {
    "name": "Colonia Barón",
    "country": "AR",
    "lat": -36.15361,
    "lng": -63.8552
  },
  {
    "name": "Colón",
    "country": "AR",
    "lat": -33.89713,
    "lng": -61.09942
  },
  {
    "name": "Cowell",
    "country": "AU",
    "lat": -33.68227,
    "lng": 136.92117
  },
  {
    "name": "Cowaramup",
    "country": "AU",
    "lat": -33.85036,
    "lng": 115.10379
  },
  {
    "name": "Cottesloe",
    "country": "AU",
    "lat": -31.99426,
    "lng": 115.75816
  },
  {
    "name": "Coromandel Valley",
    "country": "AU",
    "lat": -35.05,
    "lng": 138.61667
  },
  {
    "name": "Coogee",
    "country": "AU",
    "lat": -32.11934,
    "lng": 115.7665
  },
  {
    "name": "Coober Pedy",
    "country": "AU",
    "lat": -29.01415,
    "lng": 134.75495
  },
  {
    "name": "Collie",
    "country": "AU",
    "lat": -33.36206,
    "lng": 116.15617
  },
  {
    "name": "Cowra",
    "country": "AU",
    "lat": -33.83554,
    "lng": 148.69663
  },
  {
    "name": "Cowes",
    "country": "AU",
    "lat": -38.45231,
    "lng": 145.23865
  },
  {
    "name": "Coutts Crossing",
    "country": "AU",
    "lat": -29.82619,
    "lng": 152.89156
  },
  {
    "name": "Corryong",
    "country": "AU",
    "lat": -36.19705,
    "lng": 147.90256
  },
  {
    "name": "Corrimal",
    "country": "AU",
    "lat": -34.37864,
    "lng": 150.90356
  },
  {
    "name": "Corowa",
    "country": "AU",
    "lat": -35.99704,
    "lng": 146.38552
  },
  {
    "name": "Cornubia",
    "country": "AU",
    "lat": -27.66667,
    "lng": 153.21667
  },
  {
    "name": "Corio",
    "country": "AU",
    "lat": -38.08333,
    "lng": 144.38333
  },
  {
    "name": "Corinda",
    "country": "AU",
    "lat": -27.54381,
    "lng": 152.98215
  },
  {
    "name": "Coraki",
    "country": "AU",
    "lat": -28.9926,
    "lng": 153.28374
  },
  {
    "name": "Cootamundra",
    "country": "AU",
    "lat": -34.64095,
    "lng": 148.02838
  },
  {
    "name": "Coorparoo",
    "country": "AU",
    "lat": -27.49325,
    "lng": 153.05826
  },
  {
    "name": "Cooroy",
    "country": "AU",
    "lat": -26.41778,
    "lng": 152.91149
  },
  {
    "name": "Cooranbong",
    "country": "AU",
    "lat": -33.07622,
    "lng": 151.45409
  },
  {
    "name": "Coonamble",
    "country": "AU",
    "lat": -30.95389,
    "lng": 148.38881
  },
  {
    "name": "Coonabarabran",
    "country": "AU",
    "lat": -31.27734,
    "lng": 149.27904
  },
  {
    "name": "Coominya",
    "country": "AU",
    "lat": -27.39009,
    "lng": 152.5006
  },
  {
    "name": "Cooma",
    "country": "AU",
    "lat": -36.23517,
    "lng": 149.12408
  },
  {
    "name": "Coolum Beach",
    "country": "AU",
    "lat": -26.5283,
    "lng": 153.08809
  },
  {
    "name": "Coolangatta",
    "country": "AU",
    "lat": -28.16944,
    "lng": 153.53471
  },
  {
    "name": "Coolamon",
    "country": "AU",
    "lat": -34.81641,
    "lng": 147.19577
  },
  {
    "name": "Coolah",
    "country": "AU",
    "lat": -31.82787,
    "lng": 149.71564
  },
  {
    "name": "Cooktown",
    "country": "AU",
    "lat": -15.4657,
    "lng": 145.24984
  },
  {
    "name": "Coogee",
    "country": "AU",
    "lat": -33.9205,
    "lng": 151.25522
  },
  {
    "name": "Coniston",
    "country": "AU",
    "lat": -34.45,
    "lng": 150.88333
  },
  {
    "name": "Condobolin",
    "country": "AU",
    "lat": -33.08877,
    "lng": 147.15139
  },
  {
    "name": "Concord",
    "country": "AU",
    "lat": -33.84722,
    "lng": 151.10381
  },
  {
    "name": "Como",
    "country": "AU",
    "lat": -33.99941,
    "lng": 151.06389
  },
  {
    "name": "Colo Vale",
    "country": "AU",
    "lat": -34.40095,
    "lng": 150.48573
  },
  {
    "name": "Collinsville",
    "country": "AU",
    "lat": -20.55223,
    "lng": 147.84399
  },
  {
    "name": "Collingwood",
    "country": "AU",
    "lat": -37.80253,
    "lng": 144.98872
  },
  {
    "name": "Collaroy",
    "country": "AU",
    "lat": -33.73205,
    "lng": 151.30118
  },
  {
    "name": "Coledale",
    "country": "AU",
    "lat": -34.29105,
    "lng": 150.9447
  },
  {
    "name": "Coldstream",
    "country": "AU",
    "lat": -37.7249,
    "lng": 145.37804
  },
  {
    "name": "Colac",
    "country": "AU",
    "lat": -38.339,
    "lng": 143.58489
  },
  {
    "name": "Cohuna",
    "country": "AU",
    "lat": -35.80697,
    "lng": 144.21886
  },
  {
    "name": "Coffs Harbour",
    "country": "AU",
    "lat": -30.29626,
    "lng": 153.11351
  },
  {
    "name": "Cockatoo",
    "country": "AU",
    "lat": -37.93677,
    "lng": 145.49376
  },
  {
    "name": "Coburg",
    "country": "AU",
    "lat": -37.75,
    "lng": 144.96667
  },
  {
    "name": "Cobram",
    "country": "AU",
    "lat": -35.92069,
    "lng": 145.64066
  },
  {
    "name": "Cobden",
    "country": "AU",
    "lat": -38.3286,
    "lng": 143.07484
  },
  {
    "name": "Cobbitty",
    "country": "AU",
    "lat": -34.01592,
    "lng": 150.67854
  },
  {
    "name": "Cobar",
    "country": "AU",
    "lat": -31.49666,
    "lng": 145.83439
  },
  {
    "name": "Connells Point",
    "country": "AU",
    "lat": -33.98827,
    "lng": 151.09094
  },
  {
    "name": "Corlette",
    "country": "AU",
    "lat": -32.72014,
    "lng": 152.10846
  },
  {
    "name": "Como",
    "country": "AU",
    "lat": -31.99119,
    "lng": 115.86336
  },
  {
    "name": "Collingwood Park",
    "country": "AU",
    "lat": -27.61282,
    "lng": 152.86008
  },
  {
    "name": "Cooloola Cove",
    "country": "AU",
    "lat": -25.9864,
    "lng": 152.99355
  },
  {
    "name": "Coleambally",
    "country": "AU",
    "lat": -34.80388,
    "lng": 145.88036
  },
  {
    "name": "Cooran",
    "country": "AU",
    "lat": -26.33689,
    "lng": 152.82246
  },
  {
    "name": "Cook",
    "country": "AU",
    "lat": -35.26014,
    "lng": 149.06566
  },
  {
    "name": "Cowandilla",
    "country": "AU",
    "lat": -34.93221,
    "lng": 138.55931
  },
  {
    "name": "Collinswood",
    "country": "AU",
    "lat": -34.8873,
    "lng": 138.61224
  },
  {
    "name": "Colonel Light Gardens",
    "country": "AU",
    "lat": -34.98628,
    "lng": 138.59746
  },
  {
    "name": "College Grove",
    "country": "AU",
    "lat": -33.37587,
    "lng": 115.65906
  },
  {
    "name": "Cotswold Hills",
    "country": "AU",
    "lat": -27.52241,
    "lng": 151.89516
  },
  {
    "name": "Coodanup",
    "country": "AU",
    "lat": -32.55187,
    "lng": 115.75352
  },
  {
    "name": "Colyton",
    "country": "AU",
    "lat": -33.78283,
    "lng": 150.79679
  },
  {
    "name": "Copacabana",
    "country": "AU",
    "lat": -33.48692,
    "lng": 151.43587
  },
  {
    "name": "Coes Creek",
    "country": "AU",
    "lat": -26.6472,
    "lng": 152.94943
  },
  {
    "name": "Connolly",
    "country": "AU",
    "lat": -31.74864,
    "lng": 115.75053
  },
  {
    "name": "Condell Park",
    "country": "AU",
    "lat": -33.92458,
    "lng": 151.01093
  },
  {
    "name": "Coombabah",
    "country": "AU",
    "lat": -27.91073,
    "lng": 153.37093
  },
  {
    "name": "Coral Cove",
    "country": "AU",
    "lat": -24.88309,
    "lng": 152.48266
  },
  {
    "name": "Condon",
    "country": "AU",
    "lat": -19.32968,
    "lng": 146.71663
  },
  {
    "name": "Coolaroo",
    "country": "AU",
    "lat": -37.65675,
    "lng": 144.9346
  },
  {
    "name": "Cooee Bay",
    "country": "AU",
    "lat": -23.14427,
    "lng": 150.76113
  },
  {
    "name": "Cockburn Central",
    "country": "AU",
    "lat": -32.12133,
    "lng": 115.84776
  },
  {
    "name": "Coolbellup",
    "country": "AU",
    "lat": -32.08124,
    "lng": 115.80606
  },
  {
    "name": "Cooloongup",
    "country": "AU",
    "lat": -32.295,
    "lng": 115.78
  },
  {
    "name": "Coconut Grove",
    "country": "AU",
    "lat": -12.39602,
    "lng": 130.85186
  },
  {
    "name": "Conder",
    "country": "AU",
    "lat": -35.45926,
    "lng": 149.10422
  },
  {
    "name": "Coppabella",
    "country": "AU",
    "lat": -21.9471,
    "lng": 148.3005
  },
  {
    "name": "Cossack",
    "country": "AU",
    "lat": -14.45551,
    "lng": 132.17482
  },
  {
    "name": "Coopers Plains",
    "country": "AU",
    "lat": -27.56463,
    "lng": 153.04067
  },
  {
    "name": "Coburg North",
    "country": "AU",
    "lat": -37.72867,
    "lng": 144.96134
  },
  {
    "name": "Colebee",
    "country": "AU",
    "lat": -33.72769,
    "lng": 150.84743
  },
  {
    "name": "Collaroy Plateau",
    "country": "AU",
    "lat": -33.72884,
    "lng": 151.29075
  },
  {
    "name": "Concord West",
    "country": "AU",
    "lat": -33.84809,
    "lng": 151.08609
  },
  {
    "name": "Constitution Hill",
    "country": "AU",
    "lat": -33.79259,
    "lng": 150.97627
  },
  {
    "name": "Coombs",
    "country": "AU",
    "lat": -35.31634,
    "lng": 149.03941
  },
  {
    "name": "Coolbinia",
    "country": "AU",
    "lat": -31.9147,
    "lng": 115.84894
  },
  {
    "name": "Cooks Hill",
    "country": "AU",
    "lat": -32.93244,
    "lng": 151.77114
  },
  {
    "name": "Coal Point",
    "country": "AU",
    "lat": -33.04225,
    "lng": 151.61159
  },
  {
    "name": "Cordeaux Heights",
    "country": "AU",
    "lat": -34.44043,
    "lng": 150.83748
  },
  {
    "name": "Cooroibah",
    "country": "AU",
    "lat": -26.36316,
    "lng": 152.98599
  },
  {
    "name": "Coomera",
    "country": "AU",
    "lat": -27.84333,
    "lng": 153.33901
  },
  {
    "name": "Corindi Beach",
    "country": "AU",
    "lat": -30.01668,
    "lng": 153.18555
  },
  {
    "name": "Cobblebank",
    "country": "AU",
    "lat": -37.70636,
    "lng": 144.60199
  },
  {
    "name": "Corat",
    "country": "AZ",
    "lat": 40.57176,
    "lng": 49.70509
  },
  {
    "name": "Comilla",
    "country": "BD",
    "lat": 23.46186,
    "lng": 91.18503
  },
  {
    "name": "Cox’s Bāzār",
    "country": "BD",
    "lat": 21.43973,
    "lng": 92.00955
  },
  {
    "name": "Couvin",
    "country": "BE",
    "lat": 50.05284,
    "lng": 4.49495
  },
  {
    "name": "Couture-Saint-Germain",
    "country": "BE",
    "lat": 50.67484,
    "lng": 4.47255
  },
  {
    "name": "Couthuin",
    "country": "BE",
    "lat": 50.5316,
    "lng": 5.12323
  },
  {
    "name": "Court-Saint-Étienne",
    "country": "BE",
    "lat": 50.63378,
    "lng": 4.56851
  },
  {
    "name": "Courrière",
    "country": "BE",
    "lat": 50.38023,
    "lng": 4.98608
  },
  {
    "name": "Courcelles",
    "country": "BE",
    "lat": 50.46379,
    "lng": 4.3747
  },
  {
    "name": "Couillet",
    "country": "BE",
    "lat": 50.39139,
    "lng": 4.45908
  },
  {
    "name": "Cortil-Noirmont",
    "country": "BE",
    "lat": 50.58111,
    "lng": 4.64344
  },
  {
    "name": "Corswarem",
    "country": "BE",
    "lat": 50.71097,
    "lng": 5.2137
  },
  {
    "name": "Corroy-le-Grand",
    "country": "BE",
    "lat": 50.66306,
    "lng": 4.674
  },
  {
    "name": "Corroy-le-Château",
    "country": "BE",
    "lat": 50.53896,
    "lng": 4.66284
  },
  {
    "name": "Corbais",
    "country": "BE",
    "lat": 50.64609,
    "lng": 4.65589
  },
  {
    "name": "Comines",
    "country": "BE",
    "lat": 50.7754,
    "lng": 3.00119
  },
  {
    "name": "Comblain-Fairon",
    "country": "BE",
    "lat": 50.4462,
    "lng": 5.5449
  },
  {
    "name": "Comblain-au-Pont",
    "country": "BE",
    "lat": 50.47488,
    "lng": 5.57711
  },
  {
    "name": "Colfontaine",
    "country": "BE",
    "lat": 50.4141,
    "lng": 3.85569
  },
  {
    "name": "Cové",
    "country": "BJ",
    "lat": 7.22097,
    "lng": 2.34017
  },
  {
    "name": "Cotonou",
    "country": "BJ",
    "lat": 6.36536,
    "lng": 2.41833
  },
  {
    "name": "Comé",
    "country": "BJ",
    "lat": 6.40764,
    "lng": 1.88198
  },
  {
    "name": "Cobly",
    "country": "BJ",
    "lat": 10.49222,
    "lng": 0.99972
  },
  {
    "name": "Cotoca",
    "country": "BO",
    "lat": -17.81667,
    "lng": -63.05
  },
  {
    "name": "Cotoca",
    "country": "BO",
    "lat": -17.74959,
    "lng": -62.83442
  },
  {
    "name": "Coroico",
    "country": "BO",
    "lat": -16.19386,
    "lng": -67.72998
  },
  {
    "name": "Coripata",
    "country": "BO",
    "lat": -16.3,
    "lng": -67.6
  },
  {
    "name": "Copacabana",
    "country": "BO",
    "lat": -16.1699,
    "lng": -69.07919
  },
  {
    "name": "Concepción",
    "country": "BO",
    "lat": -16.43333,
    "lng": -60.9
  },
  {
    "name": "Comarapa",
    "country": "BO",
    "lat": -17.91537,
    "lng": -64.53163
  },
  {
    "name": "Colquechaca",
    "country": "BO",
    "lat": -18.70031,
    "lng": -66.00397
  },
  {
    "name": "Colomi",
    "country": "BO",
    "lat": -17.35,
    "lng": -65.86667
  },
  {
    "name": "Colchani",
    "country": "BO",
    "lat": -20.3,
    "lng": -66.93333
  },
  {
    "name": "Colcapirhua",
    "country": "BO",
    "lat": -17.3857,
    "lng": -66.23814
  },
  {
    "name": "Cochabamba",
    "country": "BO",
    "lat": -17.38195,
    "lng": -66.15995
  },
  {
    "name": "Cobija",
    "country": "BO",
    "lat": -11.02671,
    "lng": -68.76918
  },
  {
    "name": "Conde",
    "country": "BR",
    "lat": -7.25972,
    "lng": -34.9075
  },
  {
    "name": "Coxixola",
    "country": "BR",
    "lat": -7.62667,
    "lng": -36.60583
  },
  {
    "name": "Couto Magalhães",
    "country": "BR",
    "lat": -8.36102,
    "lng": -49.17784
  },
  {
    "name": "Cortês",
    "country": "BR",
    "lat": -8.47028,
    "lng": -35.54111
  },
  {
    "name": "Correntes",
    "country": "BR",
    "lat": -9.12889,
    "lng": -36.33028
  },
  {
    "name": "Coronel João Pessoa",
    "country": "BR",
    "lat": -6.25972,
    "lng": -38.44361
  },
  {
    "name": "Coronel Ezequiel",
    "country": "BR",
    "lat": -6.3825,
    "lng": -36.21472
  },
  {
    "name": "Coroatá",
    "country": "BR",
    "lat": -4.13,
    "lng": -44.12417
  },
  {
    "name": "Coremas",
    "country": "BR",
    "lat": -7.01444,
    "lng": -37.94583
  },
  {
    "name": "Coreaú",
    "country": "BR",
    "lat": -3.55097,
    "lng": -40.65724
  },
  {
    "name": "Coqueiro Seco",
    "country": "BR",
    "lat": -9.63833,
    "lng": -35.80306
  },
  {
    "name": "Congo",
    "country": "BR",
    "lat": -7.79694,
    "lng": -36.65972
  },
  {
    "name": "Condado",
    "country": "BR",
    "lat": -7.58583,
    "lng": -35.10583
  },
  {
    "name": "Condado",
    "country": "BR",
    "lat": -6.91021,
    "lng": -37.6001
  },
  {
    "name": "Conceição do Canindé",
    "country": "BR",
    "lat": -7.87778,
    "lng": -41.59694
  },
  {
    "name": "Conceição do Araguaia",
    "country": "BR",
    "lat": -8.26441,
    "lng": -49.26982
  },
  {
    "name": "Conceição",
    "country": "BR",
    "lat": -7.56222,
    "lng": -38.50889
  },
  {
    "name": "Colônia Leopoldina",
    "country": "BR",
    "lat": -8.90889,
    "lng": -35.725
  },
  {
    "name": "Colônia do Piauí",
    "country": "BR",
    "lat": -7.22889,
    "lng": -42.1785
  },
  {
    "name": "Colinas",
    "country": "BR",
    "lat": -6.02583,
    "lng": -44.24917
  },
  {
    "name": "Colares",
    "country": "BR",
    "lat": -0.93667,
    "lng": -48.28167
  },
  {
    "name": "Coivaras",
    "country": "BR",
    "lat": -5.08944,
    "lng": -42.20333
  },
  {
    "name": "Coité do Nóia",
    "country": "BR",
    "lat": -9.63222,
    "lng": -36.57861
  },
  {
    "name": "Coelho Neto",
    "country": "BR",
    "lat": -4.25667,
    "lng": -43.01278
  },
  {
    "name": "Codó",
    "country": "BR",
    "lat": -4.45528,
    "lng": -43.88556
  },
  {
    "name": "Cocal dos Alves",
    "country": "BR",
    "lat": -3.60147,
    "lng": -41.44311
  },
  {
    "name": "Cocal",
    "country": "BR",
    "lat": -3.47194,
    "lng": -41.5575
  },
  {
    "name": "Colméia",
    "country": "BR",
    "lat": -8.72944,
    "lng": -48.76472
  },
  {
    "name": "Colinas do Tocantins",
    "country": "BR",
    "lat": -8.05917,
    "lng": -48.475
  },
  {
    "name": "Coronel Sapucaia",
    "country": "BR",
    "lat": -23.27346,
    "lng": -55.53135
  },
  {
    "name": "Cordeiros",
    "country": "BR",
    "lat": -15.03861,
    "lng": -41.93472
  },
  {
    "name": "Coxim",
    "country": "BR",
    "lat": -18.50667,
    "lng": -54.76
  },
  {
    "name": "Coxilha",
    "country": "BR",
    "lat": -28.12722,
    "lng": -52.29611
  },
  {
    "name": "Couto de Magalhães de Minas",
    "country": "BR",
    "lat": -18.07401,
    "lng": -43.47329
  },
  {
    "name": "Cotiporã",
    "country": "BR",
    "lat": -28.99444,
    "lng": -51.69583
  },
  {
    "name": "Cotia",
    "country": "BR",
    "lat": -23.60389,
    "lng": -46.91917
  },
  {
    "name": "Cotegipe",
    "country": "BR",
    "lat": -12.02833,
    "lng": -44.25778
  },
  {
    "name": "Costa Rica",
    "country": "BR",
    "lat": -23.41667,
    "lng": -54.65
  },
  {
    "name": "Cosmorama",
    "country": "BR",
    "lat": -20.47778,
    "lng": -49.77778
  },
  {
    "name": "Cosmópolis",
    "country": "BR",
    "lat": -22.64583,
    "lng": -47.19611
  },
  {
    "name": "Colinas",
    "country": "BR",
    "lat": -29.38933,
    "lng": -51.86929
  },
  {
    "name": "Coruripe",
    "country": "BR",
    "lat": -10.12556,
    "lng": -36.17556
  },
  {
    "name": "Corupá",
    "country": "BR",
    "lat": -26.42528,
    "lng": -49.24306
  },
  {
    "name": "Corumbataí",
    "country": "BR",
    "lat": -22.22,
    "lng": -47.62583
  },
  {
    "name": "Corumbaíba",
    "country": "BR",
    "lat": -18.1425,
    "lng": -48.56139
  },
  {
    "name": "Corumbá de Goiás",
    "country": "BR",
    "lat": -15.92361,
    "lng": -48.80861
  },
  {
    "name": "Corumbá",
    "country": "BR",
    "lat": -19.00917,
    "lng": -57.65333
  },
  {
    "name": "Correntina",
    "country": "BR",
    "lat": -13.34333,
    "lng": -44.63667
  },
  {
    "name": "Corrente",
    "country": "BR",
    "lat": -10.44333,
    "lng": -45.16222
  },
  {
    "name": "Correia Pinto",
    "country": "BR",
    "lat": -27.58472,
    "lng": -50.36111
  },
  {
    "name": "Coronel Vivida",
    "country": "BR",
    "lat": -25.97972,
    "lng": -52.56778
  },
  {
    "name": "Coronel Pilar",
    "country": "BR",
    "lat": -29.27222,
    "lng": -51.68583
  },
  {
    "name": "Coronel Pacheco",
    "country": "BR",
    "lat": -21.58778,
    "lng": -43.26556
  },
  {
    "name": "Coronel Murta",
    "country": "BR",
    "lat": -16.61889,
    "lng": -42.18222
  },
  {
    "name": "Coronel Martins",
    "country": "BR",
    "lat": -26.51222,
    "lng": -52.66917
  },
  {
    "name": "Coronel Macedo",
    "country": "BR",
    "lat": -23.63111,
    "lng": -49.31361
  },
  {
    "name": "Coronel Freitas",
    "country": "BR",
    "lat": -26.90861,
    "lng": -52.70306
  },
  {
    "name": "Coronel Fabriciano",
    "country": "BR",
    "lat": -19.51861,
    "lng": -42.62889
  },
  {
    "name": "Coronel Bicaco",
    "country": "BR",
    "lat": -27.71556,
    "lng": -53.70139
  },
  {
    "name": "Coronel Barros",
    "country": "BR",
    "lat": -28.38306,
    "lng": -54.06556
  },
  {
    "name": "Coromandel",
    "country": "BR",
    "lat": -18.47333,
    "lng": -47.20028
  },
  {
    "name": "Coronel Xavier Chaves",
    "country": "BR",
    "lat": -21.02444,
    "lng": -44.2233
  },
  {
    "name": "Coroados",
    "country": "BR",
    "lat": -21.35194,
    "lng": -50.28139
  },
  {
    "name": "Coroaci",
    "country": "BR",
    "lat": -18.62194,
    "lng": -42.28583
  },
  {
    "name": "Cornélio Procópio",
    "country": "BR",
    "lat": -23.18111,
    "lng": -50.64667
  },
  {
    "name": "Corinto",
    "country": "BR",
    "lat": -18.38083,
    "lng": -44.45639
  },
  {
    "name": "Coribe",
    "country": "BR",
    "lat": -13.82917,
    "lng": -44.45444
  },
  {
    "name": "Corguinho",
    "country": "BR",
    "lat": -19.83167,
    "lng": -54.82944
  },
  {
    "name": "Cordisburgo",
    "country": "BR",
    "lat": -19.125,
    "lng": -44.32083
  },
  {
    "name": "Cordeirópolis",
    "country": "BR",
    "lat": -22.48194,
    "lng": -47.45667
  },
  {
    "name": "Cordeiro",
    "country": "BR",
    "lat": -22.02861,
    "lng": -42.36083
  },
  {
    "name": "Corbélia",
    "country": "BR",
    "lat": -24.79889,
    "lng": -53.30667
  },
  {
    "name": "Coração de Maria",
    "country": "BR",
    "lat": -12.23333,
    "lng": -38.75
  },
  {
    "name": "Coração de Jesus",
    "country": "BR",
    "lat": -16.68528,
    "lng": -44.365
  },
  {
    "name": "Coqueiros do Sul",
    "country": "BR",
    "lat": -28.11875,
    "lng": -52.78185
  },
  {
    "name": "Coqueiral",
    "country": "BR",
    "lat": -21.18944,
    "lng": -45.44056
  },
  {
    "name": "Contendas do Sincorá",
    "country": "BR",
    "lat": -13.76278,
    "lng": -41.04111
  },
  {
    "name": "Contenda",
    "country": "BR",
    "lat": -25.67916,
    "lng": -49.53718
  },
  {
    "name": "Contagem",
    "country": "BR",
    "lat": -19.93167,
    "lng": -44.05361
  },
  {
    "name": "Constantina",
    "country": "BR",
    "lat": -27.73472,
    "lng": -52.99222
  },
  {
    "name": "Consolação",
    "country": "BR",
    "lat": -22.55139,
    "lng": -45.92111
  },
  {
    "name": "Conselheiro Pena",
    "country": "BR",
    "lat": -19.17222,
    "lng": -41.47222
  },
  {
    "name": "Conselheiro Mairinck",
    "country": "BR",
    "lat": -23.62972,
    "lng": -50.16861
  },
  {
    "name": "Conselheiro Lafaiete",
    "country": "BR",
    "lat": -20.66028,
    "lng": -43.78611
  },
  {
    "name": "Conquista",
    "country": "BR",
    "lat": -19.93722,
    "lng": -47.54167
  },
  {
    "name": "Congonhinhas",
    "country": "BR",
    "lat": -23.55111,
    "lng": -50.55361
  },
  {
    "name": "Congonhas do Norte",
    "country": "BR",
    "lat": -18.80722,
    "lng": -43.68139
  },
  {
    "name": "Congonhas",
    "country": "BR",
    "lat": -20.50525,
    "lng": -43.8588
  },
  {
    "name": "Congonhal",
    "country": "BR",
    "lat": -22.15278,
    "lng": -46.03944
  },
  {
    "name": "Confins",
    "country": "BR",
    "lat": -19.6325,
    "lng": -43.98278
  },
  {
    "name": "Condor",
    "country": "BR",
    "lat": -28.20778,
    "lng": -53.48722
  },
  {
    "name": "Condeúba",
    "country": "BR",
    "lat": -14.89528,
    "lng": -41.96861
  },
  {
    "name": "Conde",
    "country": "BR",
    "lat": -11.81361,
    "lng": -37.61056
  },
  {
    "name": "Concórdia",
    "country": "BR",
    "lat": -27.23417,
    "lng": -52.02778
  },
  {
    "name": "Conchas",
    "country": "BR",
    "lat": -23.01528,
    "lng": -48.01056
  },
  {
    "name": "Conchal",
    "country": "BR",
    "lat": -22.33028,
    "lng": -47.1725
  },
  {
    "name": "Conceição dos Ouros",
    "country": "BR",
    "lat": -22.41306,
    "lng": -45.79806
  },
  {
    "name": "Conceição do Rio Verde",
    "country": "BR",
    "lat": -21.88083,
    "lng": -45.08528
  },
  {
    "name": "Conceição do Pará",
    "country": "BR",
    "lat": -19.75306,
    "lng": -44.89667
  },
  {
    "name": "Conceição do Tocantins",
    "country": "BR",
    "lat": -12.21861,
    "lng": -47.29833
  },
  {
    "name": "Conceição do Mato Dentro",
    "country": "BR",
    "lat": -19.03722,
    "lng": -43.425
  },
  {
    "name": "Conceição do Coité",
    "country": "BR",
    "lat": -11.56389,
    "lng": -39.28278
  },
  {
    "name": "Conceição do Castelo",
    "country": "BR",
    "lat": -20.36833,
    "lng": -41.24389
  },
  {
    "name": "Conceição do Almeida",
    "country": "BR",
    "lat": -12.77944,
    "lng": -39.17
  },
  {
    "name": "Conceição de Macabu",
    "country": "BR",
    "lat": -22.08528,
    "lng": -41.86833
  },
  {
    "name": "Conceição do Jacuípe",
    "country": "BR",
    "lat": -12.31667,
    "lng": -38.76667
  },
  {
    "name": "Conceição de Ipanema",
    "country": "BR",
    "lat": -19.92806,
    "lng": -41.69389
  },
  {
    "name": "Conceição das Alagoas",
    "country": "BR",
    "lat": -19.91472,
    "lng": -48.38833
  },
  {
    "name": "Conceição das Pedras",
    "country": "BR",
    "lat": -22.16,
    "lng": -45.45472
  },
  {
    "name": "Conceição da Feira",
    "country": "BR",
    "lat": -12.50583,
    "lng": -38.99861
  },
  {
    "name": "Conceição da Barra",
    "country": "BR",
    "lat": -18.59333,
    "lng": -39.73222
  },
  {
    "name": "Conceição da Aparecida",
    "country": "BR",
    "lat": -21.09417,
    "lng": -46.20444
  },
  {
    "name": "Comercinho",
    "country": "BR",
    "lat": -16.29611,
    "lng": -41.79333
  },
  {
    "name": "Comendador Gomes",
    "country": "BR",
    "lat": -19.69833,
    "lng": -49.08056
  },
  {
    "name": "Coluna",
    "country": "BR",
    "lat": -18.23389,
    "lng": -42.84028
  },
  {
    "name": "Colorado",
    "country": "BR",
    "lat": -28.52389,
    "lng": -52.99417
  },
  {
    "name": "Colorado",
    "country": "BR",
    "lat": -22.8375,
    "lng": -51.97306
  },
  {
    "name": "Colombo",
    "country": "BR",
    "lat": -25.29167,
    "lng": -49.22417
  },
  {
    "name": "Colômbia",
    "country": "BR",
    "lat": -20.17583,
    "lng": -48.68889
  },
  {
    "name": "Colinas do Sul",
    "country": "BR",
    "lat": -14.1538,
    "lng": -48.07353
  },
  {
    "name": "Colina",
    "country": "BR",
    "lat": -20.71333,
    "lng": -48.54083
  },
  {
    "name": "Colatina",
    "country": "BR",
    "lat": -19.53944,
    "lng": -40.63056
  },
  {
    "name": "Coimbra",
    "country": "BR",
    "lat": -20.85667,
    "lng": -42.80278
  },
  {
    "name": "Cocos",
    "country": "BR",
    "lat": -14.18389,
    "lng": -44.53444
  },
  {
    "name": "Cocalinho",
    "country": "BR",
    "lat": -14.39722,
    "lng": -50.99583
  },
  {
    "name": "Cocal do Sul",
    "country": "BR",
    "lat": -28.59914,
    "lng": -49.32334
  },
  {
    "name": "Coaraci",
    "country": "BR",
    "lat": -14.64083,
    "lng": -39.55111
  },
  {
    "name": "Conceição da Barra de Minas",
    "country": "BR",
    "lat": -21.1287,
    "lng": -44.47304
  },
  {
    "name": "Comodoro",
    "country": "BR",
    "lat": -13.66306,
    "lng": -59.78583
  },
  {
    "name": "Comendador Levy Gasparian",
    "country": "BR",
    "lat": -22.02861,
    "lng": -43.205
  },
  {
    "name": "Codajás",
    "country": "BR",
    "lat": -3.83667,
    "lng": -62.05694
  },
  {
    "name": "Coari",
    "country": "BR",
    "lat": -4.085,
    "lng": -63.14139
  },
  {
    "name": "Colônia Boa Vista",
    "country": "BR",
    "lat": -3.29688,
    "lng": -60.44086
  },
  {
    "name": "Costa Marques",
    "country": "BR",
    "lat": -12.445,
    "lng": -64.22722
  },
  {
    "name": "Cocal de Telha",
    "country": "BR",
    "lat": -4.55889,
    "lng": -41.97222
  },
  {
    "name": "Cocalzinho de Goiás",
    "country": "BR",
    "lat": -15.79444,
    "lng": -48.77583
  },
  {
    "name": "Colíder",
    "country": "BR",
    "lat": -10.81778,
    "lng": -55.45083
  },
  {
    "name": "Colniza",
    "country": "BR",
    "lat": -9.40917,
    "lng": -59.025
  },
  {
    "name": "Colônia do Gurguéia",
    "country": "BR",
    "lat": -8.18194,
    "lng": -43.79194
  },
  {
    "name": "Colorado do Oeste",
    "country": "BR",
    "lat": -13.11667,
    "lng": -60.54167
  },
  {
    "name": "Combinado",
    "country": "BR",
    "lat": -12.79194,
    "lng": -46.53889
  },
  {
    "name": "Conceição do Lago-Açu",
    "country": "BR",
    "lat": -3.83444,
    "lng": -44.89333
  },
  {
    "name": "Concórdia do Pará",
    "country": "BR",
    "lat": -2.00167,
    "lng": -47.94972
  },
  {
    "name": "Confresa",
    "country": "BR",
    "lat": -10.64389,
    "lng": -51.56889
  },
  {
    "name": "Coqueiro Baixo",
    "country": "BR",
    "lat": -29.17861,
    "lng": -52.09
  },
  {
    "name": "Cordilheira Alta",
    "country": "BR",
    "lat": -26.98444,
    "lng": -52.60333
  },
  {
    "name": "Cordislândia",
    "country": "BR",
    "lat": -21.7925,
    "lng": -45.70083
  },
  {
    "name": "Coronel Domingos Soares",
    "country": "BR",
    "lat": -26.22778,
    "lng": -52.03194
  },
  {
    "name": "Coronel João Sá",
    "country": "BR",
    "lat": -10.28417,
    "lng": -37.92639
  },
  {
    "name": "Corumbataí do Sul",
    "country": "BR",
    "lat": -24.10111,
    "lng": -52.11972
  },
  {
    "name": "Corumbiara",
    "country": "BR",
    "lat": -12.96194,
    "lng": -60.88667
  },
  {
    "name": "Costa Rica",
    "country": "BR",
    "lat": -18.54389,
    "lng": -53.12917
  },
  {
    "name": "Cotriguaçu",
    "country": "BR",
    "lat": -9.90231,
    "lng": -58.56846
  },
  {
    "name": "Consolação",
    "country": "BR",
    "lat": -23.55242,
    "lng": -46.65735
  },
  {
    "name": "Corrego Grande",
    "country": "BR",
    "lat": -27.60141,
    "lng": -48.50593
  },
  {
    "name": "Costeira do Pirajubae",
    "country": "BR",
    "lat": -27.63586,
    "lng": -48.5212
  },
  {
    "name": "Colniza",
    "country": "BR",
    "lat": -9.45533,
    "lng": -59.21848
  },
  {
    "name": "Corumbiara",
    "country": "BR",
    "lat": -12.99851,
    "lng": -60.9431
  },
  {
    "name": "Coronel José Dias",
    "country": "BR",
    "lat": -8.82613,
    "lng": -42.4788
  },
  {
    "name": "Conquista d'Oeste",
    "country": "BR",
    "lat": -14.54118,
    "lng": -59.54122
  },
  {
    "name": "Combinado",
    "country": "BR",
    "lat": -12.81436,
    "lng": -46.54805
  },
  {
    "name": "Cooper’s Town",
    "country": "BS",
    "lat": 26.87137,
    "lng": -77.51131
  },
  {
    "name": "Colonel Hill",
    "country": "BS",
    "lat": 22.7545,
    "lng": -74.20415
  },
  {
    "name": "Cockburn Town",
    "country": "BS",
    "lat": 24.05179,
    "lng": -74.53138
  },
  {
    "name": "Cowpen",
    "country": "BZ",
    "lat": 16.56667,
    "lng": -88.53333
  },
  {
    "name": "Cotton Tree",
    "country": "BZ",
    "lat": 17.27357,
    "lng": -88.71397
  },
  {
    "name": "Corozal",
    "country": "BZ",
    "lat": 18.39375,
    "lng": -88.38849
  },
  {
    "name": "Concepcion",
    "country": "BZ",
    "lat": 18.32308,
    "lng": -88.47419
  },
  {
    "name": "Coaldale",
    "country": "CA",
    "lat": 49.7167,
    "lng": -112.61854
  },
  {
    "name": "Coalhurst",
    "country": "CA",
    "lat": 49.7464,
    "lng": -112.93246
  },
  {
    "name": "Coaticook",
    "country": "CA",
    "lat": 45.13339,
    "lng": -71.79907
  },
  {
    "name": "Cobden",
    "country": "CA",
    "lat": 45.63341,
    "lng": -76.88273
  },
  {
    "name": "Cobourg",
    "country": "CA",
    "lat": 43.95977,
    "lng": -78.16515
  },
  {
    "name": "Cochrane",
    "country": "CA",
    "lat": 49.06689,
    "lng": -81.03307
  },
  {
    "name": "Cochrane",
    "country": "CA",
    "lat": 51.18341,
    "lng": -114.46871
  },
  {
    "name": "Cold Lake",
    "country": "CA",
    "lat": 54.46525,
    "lng": -110.18154
  },
  {
    "name": "Coldstream",
    "country": "CA",
    "lat": 50.21649,
    "lng": -119.20235
  },
  {
    "name": "Coleman",
    "country": "CA",
    "lat": 49.63332,
    "lng": -114.502
  },
  {
    "name": "Collingwood",
    "country": "CA",
    "lat": 44.4834,
    "lng": -80.21638
  },
  {
    "name": "Colwood",
    "country": "CA",
    "lat": 48.43293,
    "lng": -123.48591
  },
  {
    "name": "Comox",
    "country": "CA",
    "lat": 49.68294,
    "lng": -124.93613
  },
  {
    "name": "Conception Bay South",
    "country": "CA",
    "lat": 47.49989,
    "lng": -52.99806
  },
  {
    "name": "Concord",
    "country": "CA",
    "lat": 43.80011,
    "lng": -79.48291
  },
  {
    "name": "Connaught Heights",
    "country": "CA",
    "lat": 49.2,
    "lng": -122.95
  },
  {
    "name": "Constance Bay",
    "country": "CA",
    "lat": 45.50011,
    "lng": -76.08267
  },
  {
    "name": "Contrecoeur",
    "country": "CA",
    "lat": 45.85008,
    "lng": -73.23245
  },
  {
    "name": "Cookshire",
    "country": "CA",
    "lat": 45.41536,
    "lng": -71.62962
  },
  {
    "name": "Cookshire-Eaton",
    "country": "CA",
    "lat": 45.41675,
    "lng": -71.6324
  },
  {
    "name": "Cookstown",
    "country": "CA",
    "lat": 44.18341,
    "lng": -79.69964
  },
  {
    "name": "Coombs",
    "country": "CA",
    "lat": 49.29963,
    "lng": -124.41946
  },
  {
    "name": "Coquitlam",
    "country": "CA",
    "lat": 49.2846,
    "lng": -122.78217
  },
  {
    "name": "Cordova Bay",
    "country": "CA",
    "lat": 48.51667,
    "lng": -123.36667
  },
  {
    "name": "Corner Brook",
    "country": "CA",
    "lat": 48.95001,
    "lng": -57.95202
  },
  {
    "name": "Cornwall",
    "country": "CA",
    "lat": 46.22652,
    "lng": -63.21809
  },
  {
    "name": "Cornwall",
    "country": "CA",
    "lat": 45.01809,
    "lng": -74.72815
  },
  {
    "name": "Corunna",
    "country": "CA",
    "lat": 42.88338,
    "lng": -82.43313
  },
  {
    "name": "Coteau-du-Lac",
    "country": "CA",
    "lat": 45.30008,
    "lng": -74.18253
  },
  {
    "name": "Courtenay",
    "country": "CA",
    "lat": 49.68657,
    "lng": -124.9936
  },
  {
    "name": "Cove Cliff",
    "country": "CA",
    "lat": 49.32282,
    "lng": -122.94888
  },
  {
    "name": "Cowansville",
    "country": "CA",
    "lat": 45.20008,
    "lng": -72.74913
  },
  {
    "name": "Cow Bay",
    "country": "CA",
    "lat": 44.63141,
    "lng": -63.43218
  },
  {
    "name": "Cole Harbour",
    "country": "CA",
    "lat": 44.67244,
    "lng": -63.47506
  },
  {
    "name": "Cowichan Bay",
    "country": "CA",
    "lat": 48.73366,
    "lng": -123.61739
  },
  {
    "name": "Coal Harbour",
    "country": "CA",
    "lat": 49.28977,
    "lng": -123.1232
  },
  {
    "name": "Corso Italia-Davenport",
    "country": "CA",
    "lat": 43.67766,
    "lng": -79.44747
  },
  {
    "name": "College Park",
    "country": "CA",
    "lat": 49.28199,
    "lng": -122.87865
  },
  {
    "name": "Coronation Park",
    "country": "CA",
    "lat": 49.27992,
    "lng": -122.81876
  },
  {
    "name": "Coquitlam Town Centre",
    "country": "CA",
    "lat": 49.27697,
    "lng": -122.79669
  },
  {
    "name": "Coquitlam West",
    "country": "CA",
    "lat": 49.25702,
    "lng": -122.87883
  },
  {
    "name": "Couvet",
    "country": "CH",
    "lat": 46.92525,
    "lng": 6.6327
  },
  {
    "name": "Courtételle",
    "country": "CH",
    "lat": 47.34074,
    "lng": 7.31827
  },
  {
    "name": "Courtelary",
    "country": "CH",
    "lat": 47.17822,
    "lng": 7.07236
  },
  {
    "name": "Court",
    "country": "CH",
    "lat": 47.23956,
    "lng": 7.33655
  },
  {
    "name": "Courroux",
    "country": "CH",
    "lat": 47.36069,
    "lng": 7.37371
  },
  {
    "name": "Courrendlin",
    "country": "CH",
    "lat": 47.33853,
    "lng": 7.37243
  },
  {
    "name": "Courgevaux",
    "country": "CH",
    "lat": 46.90648,
    "lng": 7.11215
  },
  {
    "name": "Courgenay",
    "country": "CH",
    "lat": 47.40483,
    "lng": 7.12522
  },
  {
    "name": "Courfaivre",
    "country": "CH",
    "lat": 47.33461,
    "lng": 7.28186
  },
  {
    "name": "Cossonay",
    "country": "CH",
    "lat": 46.61443,
    "lng": 6.50631
  },
  {
    "name": "Cortaillod",
    "country": "CH",
    "lat": 46.94306,
    "lng": 6.8444
  },
  {
    "name": "Corsier",
    "country": "CH",
    "lat": 46.26297,
    "lng": 6.22461
  },
  {
    "name": "Cornaux",
    "country": "CH",
    "lat": 47.0396,
    "lng": 7.01872
  },
  {
    "name": "Corminboeuf",
    "country": "CH",
    "lat": 46.81029,
    "lng": 7.10535
  },
  {
    "name": "Corgémont",
    "country": "CH",
    "lat": 47.19457,
    "lng": 7.14517
  },
  {
    "name": "Coppet",
    "country": "CH",
    "lat": 46.31682,
    "lng": 6.19114
  },
  {
    "name": "Conthey",
    "country": "CH",
    "lat": 46.2237,
    "lng": 7.30283
  },
  {
    "name": "Confignon",
    "country": "CH",
    "lat": 46.17341,
    "lng": 6.08437
  },
  {
    "name": "Comano",
    "country": "CH",
    "lat": 46.03635,
    "lng": 8.95526
  },
  {
    "name": "Collombey",
    "country": "CH",
    "lat": 46.27385,
    "lng": 6.94789
  },
  {
    "name": "Corcelles-le-Jorat",
    "country": "CH",
    "lat": 46.60647,
    "lng": 6.74273
  },
  {
    "name": "Cosrou",
    "country": "CI",
    "lat": 5.31906,
    "lng": -4.65889
  },
  {
    "name": "Copa",
    "country": "CI",
    "lat": 6.24298,
    "lng": -4.11802
  },
  {
    "name": "Complexe",
    "country": "CI",
    "lat": 7.60288,
    "lng": -6.14386
  },
  {
    "name": "Corral",
    "country": "CL",
    "lat": -39.8873,
    "lng": -73.43101
  },
  {
    "name": "Coronel",
    "country": "CL",
    "lat": -37.03386,
    "lng": -73.14019
  },
  {
    "name": "Coquimbo",
    "country": "CL",
    "lat": -29.95332,
    "lng": -71.33947
  },
  {
    "name": "Copiapó",
    "country": "CL",
    "lat": -27.36737,
    "lng": -70.33219
  },
  {
    "name": "Contulmo",
    "country": "CL",
    "lat": -38.01556,
    "lng": -73.22991
  },
  {
    "name": "Constitución",
    "country": "CL",
    "lat": -35.33321,
    "lng": -72.41156
  },
  {
    "name": "Concepción",
    "country": "CL",
    "lat": -36.82699,
    "lng": -73.04977
  },
  {
    "name": "Combarbalá",
    "country": "CL",
    "lat": -31.17863,
    "lng": -71.00304
  },
  {
    "name": "Collipulli",
    "country": "CL",
    "lat": -37.95453,
    "lng": -72.43438
  },
  {
    "name": "Colina",
    "country": "CL",
    "lat": -33.20443,
    "lng": -70.67474
  },
  {
    "name": "Colchane",
    "country": "CL",
    "lat": -19.27588,
    "lng": -68.63763
  },
  {
    "name": "Colbún",
    "country": "CL",
    "lat": -35.69494,
    "lng": -71.40568
  },
  {
    "name": "Coihueco",
    "country": "CL",
    "lat": -36.62785,
    "lng": -71.83068
  },
  {
    "name": "Coyhaique",
    "country": "CL",
    "lat": -45.57524,
    "lng": -72.06619
  },
  {
    "name": "Cochrane",
    "country": "CL",
    "lat": -47.2557,
    "lng": -72.5695
  },
  {
    "name": "Coka",
    "country": "CN",
    "lat": 30.9054,
    "lng": 94.6695
  },
  {
    "name": "Conglin",
    "country": "CN",
    "lat": 29.03028,
    "lng": 106.97028
  },
  {
    "name": "Congtai",
    "country": "CN",
    "lat": 36.6356,
    "lng": 114.49019
  },
  {
    "name": "College Park",
    "country": "CN",
    "lat": 22.65303,
    "lng": 113.83848
  },
  {
    "name": "Coyaima",
    "country": "CO",
    "lat": 3.79936,
    "lng": -75.19467
  },
  {
    "name": "Coveñas",
    "country": "CO",
    "lat": 9.40254,
    "lng": -75.68029
  },
  {
    "name": "Cotorra",
    "country": "CO",
    "lat": 9.03886,
    "lng": -75.78969
  },
  {
    "name": "Cota",
    "country": "CO",
    "lat": 4.80938,
    "lng": -74.098
  },
  {
    "name": "Corrales",
    "country": "CO",
    "lat": 5.82968,
    "lng": -72.84332
  },
  {
    "name": "Corozal",
    "country": "CO",
    "lat": 9.31847,
    "lng": -75.2933
  },
  {
    "name": "Coromoro",
    "country": "CO",
    "lat": 6.29461,
    "lng": -73.04022
  },
  {
    "name": "Corinto",
    "country": "CO",
    "lat": 3.17301,
    "lng": -76.26275
  },
  {
    "name": "Coper",
    "country": "CO",
    "lat": 5.47681,
    "lng": -74.04416
  },
  {
    "name": "Copacabana",
    "country": "CO",
    "lat": 6.34633,
    "lng": -75.50888
  },
  {
    "name": "Convención",
    "country": "CO",
    "lat": 8.46902,
    "lng": -73.33733
  },
  {
    "name": "Contratación",
    "country": "CO",
    "lat": 6.29005,
    "lng": -73.47354
  },
  {
    "name": "Contadero",
    "country": "CO",
    "lat": 0.90841,
    "lng": -77.5477
  },
  {
    "name": "Consacá",
    "country": "CO",
    "lat": 1.20805,
    "lng": -77.46548
  },
  {
    "name": "Confines",
    "country": "CO",
    "lat": 6.35625,
    "lng": -73.24131
  },
  {
    "name": "Condoto",
    "country": "CO",
    "lat": 5.09351,
    "lng": -76.64973
  },
  {
    "name": "Concordia",
    "country": "CO",
    "lat": 10.25757,
    "lng": -74.83333
  },
  {
    "name": "Concordia",
    "country": "CO",
    "lat": 9.83545,
    "lng": -74.45548
  },
  {
    "name": "Concordia",
    "country": "CO",
    "lat": 6.04639,
    "lng": -75.90705
  },
  {
    "name": "Concepción",
    "country": "CO",
    "lat": 6.76619,
    "lng": -72.694
  },
  {
    "name": "Concepción",
    "country": "CO",
    "lat": 6.39408,
    "lng": -75.2583
  },
  {
    "name": "Combita",
    "country": "CO",
    "lat": 5.63333,
    "lng": -73.31667
  },
  {
    "name": "Colosó",
    "country": "CO",
    "lat": 9.49477,
    "lng": -75.35271
  },
  {
    "name": "Colón",
    "country": "CO",
    "lat": 1.19034,
    "lng": -76.97369
  },
  {
    "name": "Colombia",
    "country": "CO",
    "lat": 3.37606,
    "lng": -74.8015
  },
  {
    "name": "Cogua",
    "country": "CO",
    "lat": 5.06051,
    "lng": -73.97925
  },
  {
    "name": "Coello",
    "country": "CO",
    "lat": 4.40306,
    "lng": -75.29417
  },
  {
    "name": "Coello",
    "country": "CO",
    "lat": 4.28908,
    "lng": -74.89825
  },
  {
    "name": "Cocorná",
    "country": "CO",
    "lat": 6.0573,
    "lng": -75.18524
  },
  {
    "name": "Coconuco",
    "country": "CO",
    "lat": 2.34249,
    "lng": -76.49581
  },
  {
    "name": "Covarachía",
    "country": "CO",
    "lat": 6.50563,
    "lng": -72.7331
  },
  {
    "name": "Cot",
    "country": "CR",
    "lat": 9.89472,
    "lng": -83.8745
  },
  {
    "name": "Corredor",
    "country": "CR",
    "lat": 8.64002,
    "lng": -82.946
  },
  {
    "name": "Concepción",
    "country": "CR",
    "lat": 9.92683,
    "lng": -84.00123
  },
  {
    "name": "Colón",
    "country": "CR",
    "lat": 9.91491,
    "lng": -84.2417
  },
  {
    "name": "Colima",
    "country": "CR",
    "lat": 9.95532,
    "lng": -84.08235
  },
  {
    "name": "Corralillo",
    "country": "CU",
    "lat": 22.98212,
    "lng": -80.58556
  },
  {
    "name": "Contramaestre",
    "country": "CU",
    "lat": 20.29879,
    "lng": -76.24511
  },
  {
    "name": "Consolación del Sur",
    "country": "CU",
    "lat": 22.50419,
    "lng": -83.51442
  },
  {
    "name": "Condado",
    "country": "CU",
    "lat": 21.8767,
    "lng": -79.84014
  },
  {
    "name": "Colón",
    "country": "CU",
    "lat": 22.72064,
    "lng": -80.90492
  },
  {
    "name": "Colombia",
    "country": "CU",
    "lat": 20.98812,
    "lng": -77.42598
  },
  {
    "name": "Cojímar",
    "country": "CU",
    "lat": 23.16481,
    "lng": -82.30116
  },
  {
    "name": "Cova Figueira",
    "country": "CV",
    "lat": 14.89054,
    "lng": -24.29343
  },
  {
    "name": "Cottbus",
    "country": "DE",
    "lat": 51.75769,
    "lng": 14.32888
  },
  {
    "name": "Coswig",
    "country": "DE",
    "lat": 51.88618,
    "lng": 12.45009
  },
  {
    "name": "Coswig",
    "country": "DE",
    "lat": 51.13204,
    "lng": 13.58312
  },
  {
    "name": "Cornberg",
    "country": "DE",
    "lat": 51.0416,
    "lng": 9.86051
  },
  {
    "name": "Coppenbrügge",
    "country": "DE",
    "lat": 52.11852,
    "lng": 9.5487
  },
  {
    "name": "Contwig",
    "country": "DE",
    "lat": 49.25,
    "lng": 7.43333
  },
  {
    "name": "Colmberg",
    "country": "DE",
    "lat": 49.3548,
    "lng": 10.41157
  },
  {
    "name": "Colditz",
    "country": "DE",
    "lat": 51.12821,
    "lng": 12.80295
  },
  {
    "name": "Colbitz",
    "country": "DE",
    "lat": 52.31708,
    "lng": 11.60534
  },
  {
    "name": "Coesfeld",
    "country": "DE",
    "lat": 51.94349,
    "lng": 7.16809
  },
  {
    "name": "Cochstedt",
    "country": "DE",
    "lat": 51.88247,
    "lng": 11.41085
  },
  {
    "name": "Cochem",
    "country": "DE",
    "lat": 50.14511,
    "lng": 7.16379
  },
  {
    "name": "Coburg",
    "country": "DE",
    "lat": 50.25937,
    "lng": 10.96384
  },
  {
    "name": "Copenhagen",
    "country": "DK",
    "lat": 55.67594,
    "lng": 12.56553
  },
  {
    "name": "Colihaut",
    "country": "DM",
    "lat": 15.48478,
    "lng": -61.46215
  },
  {
    "name": "Cotuí",
    "country": "DO",
    "lat": 19.05385,
    "lng": -70.15116
  },
  {
    "name": "Constanza",
    "country": "DO",
    "lat": 18.90919,
    "lng": -70.74499
  },
  {
    "name": "Comendador",
    "country": "DO",
    "lat": 18.87755,
    "lng": -71.70321
  },
  {
    "name": "Constantine",
    "country": "DZ",
    "lat": 36.365,
    "lng": 6.61472
  },
  {
    "name": "Collo",
    "country": "DZ",
    "lat": 37.00563,
    "lng": 6.56049
  },
  {
    "name": "Concepción",
    "country": "EC",
    "lat": 0.6054,
    "lng": -78.12651
  },
  {
    "name": "Cotaló",
    "country": "EC",
    "lat": -1.4315,
    "lng": -78.51301
  },
  {
    "name": "Cotacachi",
    "country": "EC",
    "lat": 0.29947,
    "lng": -78.26565
  },
  {
    "name": "Coronel Marcelino Maridueña",
    "country": "EC",
    "lat": -2.21025,
    "lng": -79.43734
  },
  {
    "name": "Convento",
    "country": "EC",
    "lat": -0.27689,
    "lng": -80.03679
  },
  {
    "name": "Concepción",
    "country": "EC",
    "lat": 1.03651,
    "lng": -78.82888
  },
  {
    "name": "Colón",
    "country": "EC",
    "lat": -1.11295,
    "lng": -80.41389
  },
  {
    "name": "Colimes",
    "country": "EC",
    "lat": -1.54566,
    "lng": -80.01158
  },
  {
    "name": "Colaisaca",
    "country": "EC",
    "lat": -4.31809,
    "lng": -79.69301
  },
  {
    "name": "Cojimíes",
    "country": "EC",
    "lat": 0.36644,
    "lng": -80.03592
  },
  {
    "name": "Colón Eloy del María",
    "country": "EC",
    "lat": 1.0192,
    "lng": -78.90993
  },
  {
    "name": "Conocoto",
    "country": "EC",
    "lat": -0.29341,
    "lng": -78.47569
  },
  {
    "name": "Comité del Pueblo",
    "country": "EC",
    "lat": -0.09497,
    "lng": -78.52776
  },
  {
    "name": "Cordoncillo",
    "country": "EC",
    "lat": -3.59246,
    "lng": -79.64823
  },
  {
    "name": "Cox",
    "country": "ES",
    "lat": 38.14164,
    "lng": -0.88736
  },
  {
    "name": "Cotillas",
    "country": "ES",
    "lat": 38.43115,
    "lng": -2.5055
  },
  {
    "name": "Cotes",
    "country": "ES",
    "lat": 39.0701,
    "lng": -0.57449
  },
  {
    "name": "Costitx",
    "country": "ES",
    "lat": 39.65675,
    "lng": 2.94953
  },
  {
    "name": "Cortes de Pallás",
    "country": "ES",
    "lat": 39.25,
    "lng": -0.93333
  },
  {
    "name": "Cortes de la Frontera",
    "country": "ES",
    "lat": 36.6171,
    "lng": -5.34266
  },
  {
    "name": "Cortes de Baza",
    "country": "ES",
    "lat": 37.65514,
    "lng": -2.77167
  },
  {
    "name": "Cortelazor",
    "country": "ES",
    "lat": 37.93639,
    "lng": -6.62462
  },
  {
    "name": "Cortegana",
    "country": "ES",
    "lat": 37.91116,
    "lng": -6.82045
  },
  {
    "name": "Corte de Peleas",
    "country": "ES",
    "lat": 38.72631,
    "lng": -6.67035
  },
  {
    "name": "Corteconcepción",
    "country": "ES",
    "lat": 37.9,
    "lng": -6.5
  },
  {
    "name": "Corral-Rubio",
    "country": "ES",
    "lat": 38.83462,
    "lng": -1.46034
  },
  {
    "name": "Corralejo",
    "country": "ES",
    "lat": 28.73079,
    "lng": -13.86749
  },
  {
    "name": "Corral de Calatrava",
    "country": "ES",
    "lat": 38.85793,
    "lng": -4.0814
  },
  {
    "name": "Corral de Almaguer",
    "country": "ES",
    "lat": 39.75987,
    "lng": -3.16452
  },
  {
    "name": "Coripe",
    "country": "ES",
    "lat": 36.97335,
    "lng": -5.44022
  },
  {
    "name": "Coria del Río",
    "country": "ES",
    "lat": 37.28766,
    "lng": -6.0541
  },
  {
    "name": "Coria",
    "country": "ES",
    "lat": 39.98406,
    "lng": -6.53603
  },
  {
    "name": "Cordobilla de Lácara",
    "country": "ES",
    "lat": 39.14763,
    "lng": -6.43619
  },
  {
    "name": "Corbera",
    "country": "ES",
    "lat": 39.15,
    "lng": -0.35
  },
  {
    "name": "Consuegra",
    "country": "ES",
    "lat": 39.46246,
    "lng": -3.608
  },
  {
    "name": "Constantina",
    "country": "ES",
    "lat": 37.86667,
    "lng": -5.61667
  },
  {
    "name": "Consell",
    "country": "ES",
    "lat": 39.66861,
    "lng": 2.81267
  },
  {
    "name": "Conquista de la Sierra",
    "country": "ES",
    "lat": 39.3507,
    "lng": -5.73464
  },
  {
    "name": "Conquista",
    "country": "ES",
    "lat": 38.4,
    "lng": -4.5
  },
  {
    "name": "Conil de la Frontera",
    "country": "ES",
    "lat": 36.27719,
    "lng": -6.0885
  },
  {
    "name": "Confrides",
    "country": "ES",
    "lat": 38.68451,
    "lng": -0.2689
  },
  {
    "name": "Comares",
    "country": "ES",
    "lat": 36.84929,
    "lng": -4.24664
  },
  {
    "name": "Colònia de Sant Jordi",
    "country": "ES",
    "lat": 39.3181,
    "lng": 2.99197
  },
  {
    "name": "Colomera",
    "country": "ES",
    "lat": 37.37156,
    "lng": -3.71393
  },
  {
    "name": "Colmenar",
    "country": "ES",
    "lat": 36.90519,
    "lng": -4.33557
  },
  {
    "name": "Coll d'en Rabassa",
    "country": "ES",
    "lat": 39.55083,
    "lng": 2.69468
  },
  {
    "name": "Coín",
    "country": "ES",
    "lat": 36.65947,
    "lng": -4.75639
  },
  {
    "name": "Cogollos de Guadix",
    "country": "ES",
    "lat": 37.22521,
    "lng": -3.16094
  },
  {
    "name": "Cofrentes",
    "country": "ES",
    "lat": 39.22926,
    "lng": -1.06061
  },
  {
    "name": "Cocentaina",
    "country": "ES",
    "lat": 38.73975,
    "lng": -0.43976
  },
  {
    "name": "Cobisa",
    "country": "ES",
    "lat": 39.80425,
    "lng": -4.02528
  },
  {
    "name": "Cobatillas",
    "country": "ES",
    "lat": 38.05545,
    "lng": -1.07683
  },
  {
    "name": "Cozuelos de Fuentidueña",
    "country": "ES",
    "lat": 41.39086,
    "lng": -4.09564
  },
  {
    "name": "Covelo",
    "country": "ES",
    "lat": 42.23152,
    "lng": -8.363
  },
  {
    "name": "Covarrubias",
    "country": "ES",
    "lat": 42.05927,
    "lng": -3.51956
  },
  {
    "name": "Covaleda",
    "country": "ES",
    "lat": 41.93493,
    "lng": -2.88325
  },
  {
    "name": "Cosuenda",
    "country": "ES",
    "lat": 41.36559,
    "lng": -1.29867
  },
  {
    "name": "Costur",
    "country": "ES",
    "lat": 40.11971,
    "lng": -0.17385
  },
  {
    "name": "Coslada",
    "country": "ES",
    "lat": 40.42378,
    "lng": -3.56129
  },
  {
    "name": "Coscurita",
    "country": "ES",
    "lat": 41.43483,
    "lng": -2.47571
  },
  {
    "name": "Cosa",
    "country": "ES",
    "lat": 40.83392,
    "lng": -1.1365
  },
  {
    "name": "Coruña del Conde",
    "country": "ES",
    "lat": 41.76566,
    "lng": -3.39059
  },
  {
    "name": "Corullón",
    "country": "ES",
    "lat": 42.57896,
    "lng": -6.81925
  },
  {
    "name": "Cortes de Arenoso",
    "country": "ES",
    "lat": 40.18812,
    "lng": -0.54195
  },
  {
    "name": "Cortes de Aragón",
    "country": "ES",
    "lat": 40.97366,
    "lng": -0.83575
  },
  {
    "name": "Cortes",
    "country": "ES",
    "lat": 41.92269,
    "lng": -1.42045
  },
  {
    "name": "Cortegada",
    "country": "ES",
    "lat": 42.20983,
    "lng": -8.1682
  },
  {
    "name": "Corçà",
    "country": "ES",
    "lat": 41.98333,
    "lng": 3.01667
  },
  {
    "name": "Corrales de Duero",
    "country": "ES",
    "lat": 41.67205,
    "lng": -4.04817
  },
  {
    "name": "Corrales",
    "country": "ES",
    "lat": 41.358,
    "lng": -5.72479
  },
  {
    "name": "Corral de Ayllón",
    "country": "ES",
    "lat": 41.39081,
    "lng": -3.45856
  },
  {
    "name": "Corporales",
    "country": "ES",
    "lat": 42.43208,
    "lng": -2.99535
  },
  {
    "name": "Corpa",
    "country": "ES",
    "lat": 40.42327,
    "lng": -3.26003
  },
  {
    "name": "Cornellà del Terri",
    "country": "ES",
    "lat": 42.08333,
    "lng": 2.81667
  },
  {
    "name": "Cornellà de Llobregat",
    "country": "ES",
    "lat": 41.35,
    "lng": 2.08333
  },
  {
    "name": "Cornago",
    "country": "ES",
    "lat": 42.06444,
    "lng": -2.09486
  },
  {
    "name": "Coristanco",
    "country": "ES",
    "lat": 43.2,
    "lng": -8.75
  },
  {
    "name": "Corgo",
    "country": "ES",
    "lat": 42.94434,
    "lng": -7.4314
  },
  {
    "name": "Coreses",
    "country": "ES",
    "lat": 41.54794,
    "lng": -5.62252
  },
  {
    "name": "Corera",
    "country": "ES",
    "lat": 42.34344,
    "lng": -2.22023
  },
  {
    "name": "Corella",
    "country": "ES",
    "lat": 42.11507,
    "lng": -1.78563
  },
  {
    "name": "Corduente",
    "country": "ES",
    "lat": 40.84304,
    "lng": -1.97841
  },
  {
    "name": "Cordovín",
    "country": "ES",
    "lat": 42.38557,
    "lng": -2.815
  },
  {
    "name": "Cordovilla la Real",
    "country": "ES",
    "lat": 42.07961,
    "lng": -4.25988
  },
  {
    "name": "Cordovilla",
    "country": "ES",
    "lat": 40.95095,
    "lng": -5.40725
  },
  {
    "name": "Corcubión",
    "country": "ES",
    "lat": 42.94414,
    "lng": -9.1926
  },
  {
    "name": "Corcos",
    "country": "ES",
    "lat": 41.80946,
    "lng": -4.6927
  },
  {
    "name": "Corbins",
    "country": "ES",
    "lat": 41.68333,
    "lng": 0.7
  },
  {
    "name": "Corbillos de los Oteros",
    "country": "ES",
    "lat": 42.40769,
    "lng": -5.45963
  },
  {
    "name": "Corbera de Llobregat",
    "country": "ES",
    "lat": 41.41702,
    "lng": 1.9197
  },
  {
    "name": "Corbalán",
    "country": "ES",
    "lat": 40.40308,
    "lng": -0.98525
  },
  {
    "name": "Copernal",
    "country": "ES",
    "lat": 40.86463,
    "lng": -3.05396
  },
  {
    "name": "Coomonte",
    "country": "ES",
    "lat": 42.11546,
    "lng": -5.81316
  },
  {
    "name": "Contreras",
    "country": "ES",
    "lat": 42.02004,
    "lng": -3.41084
  },
  {
    "name": "Contamina",
    "country": "ES",
    "lat": 41.30535,
    "lng": -1.91731
  },
  {
    "name": "Constanzana",
    "country": "ES",
    "lat": 40.93821,
    "lng": -4.87515
  },
  {
    "name": "Constantí",
    "country": "ES",
    "lat": 41.15392,
    "lng": 1.21262
  },
  {
    "name": "Congostrina",
    "country": "ES",
    "lat": 41.03719,
    "lng": -2.98569
  },
  {
    "name": "Congosto de Valdavia",
    "country": "ES",
    "lat": 42.71584,
    "lng": -4.63366
  },
  {
    "name": "Congosto",
    "country": "ES",
    "lat": 42.61755,
    "lng": -6.52048
  },
  {
    "name": "Conesa",
    "country": "ES",
    "lat": 41.51667,
    "lng": 1.3
  },
  {
    "name": "Condemios de Arriba",
    "country": "ES",
    "lat": 41.21644,
    "lng": -3.12543
  },
  {
    "name": "Condemios de Abajo",
    "country": "ES",
    "lat": 41.21667,
    "lng": -3.1
  },
  {
    "name": "Comillas",
    "country": "ES",
    "lat": 43.38603,
    "lng": -4.29162
  },
  {
    "name": "Combarro",
    "country": "ES",
    "lat": 42.43188,
    "lng": -8.70649
  },
  {
    "name": "Colungo",
    "country": "ES",
    "lat": 42.17125,
    "lng": 0.06812
  },
  {
    "name": "Colunga",
    "country": "ES",
    "lat": 43.48531,
    "lng": -5.27009
  },
  {
    "name": "Colomers",
    "country": "ES",
    "lat": 42.08333,
    "lng": 2.98333
  },
  {
    "name": "Colmenar Viejo",
    "country": "ES",
    "lat": 40.65909,
    "lng": -3.76762
  },
  {
    "name": "Colmenarejo",
    "country": "ES",
    "lat": 40.56063,
    "lng": -4.01713
  },
  {
    "name": "Colmenar de Oreja",
    "country": "ES",
    "lat": 40.10675,
    "lng": -3.38547
  },
  {
    "name": "Colmenar de Montemayor",
    "country": "ES",
    "lat": 40.39957,
    "lng": -5.95618
  },
  {
    "name": "Colmenar del Arroyo",
    "country": "ES",
    "lat": 40.41897,
    "lng": -4.19845
  },
  {
    "name": "Collsuspina",
    "country": "ES",
    "lat": 41.8258,
    "lng": 2.17546
  },
  {
    "name": "Coll de Nargó",
    "country": "ES",
    "lat": 42.17473,
    "lng": 1.31694
  },
  {
    "name": "Colldejou",
    "country": "ES",
    "lat": 41.0997,
    "lng": 0.88717
  },
  {
    "name": "Collbató",
    "country": "ES",
    "lat": 41.57009,
    "lng": 1.82712
  },
  {
    "name": "Collazos de Boedo",
    "country": "ES",
    "lat": 42.62009,
    "lng": -4.48294
  },
  {
    "name": "Collado-Villalba",
    "country": "ES",
    "lat": 40.63506,
    "lng": -4.00486
  },
  {
    "name": "Collado Mediano",
    "country": "ES",
    "lat": 40.69326,
    "lng": -4.0228
  },
  {
    "name": "Collado Hermoso",
    "country": "ES",
    "lat": 41.03869,
    "lng": -3.91859
  },
  {
    "name": "Collado del Mirón",
    "country": "ES",
    "lat": 40.55307,
    "lng": -5.35398
  },
  {
    "name": "Collado de Contreras",
    "country": "ES",
    "lat": 40.88743,
    "lng": -4.9314
  },
  {
    "name": "Collado",
    "country": "ES",
    "lat": 40.05729,
    "lng": -5.72052
  },
  {
    "name": "Colindres",
    "country": "ES",
    "lat": 43.39667,
    "lng": -3.45361
  },
  {
    "name": "Coles",
    "country": "ES",
    "lat": 42.40071,
    "lng": -7.83526
  },
  {
    "name": "Colera",
    "country": "ES",
    "lat": 42.40394,
    "lng": 3.15153
  },
  {
    "name": "Coirós",
    "country": "ES",
    "lat": 43.25,
    "lng": -8.16667
  },
  {
    "name": "Cogolludo",
    "country": "ES",
    "lat": 40.94691,
    "lng": -3.0893
  },
  {
    "name": "Cogollos",
    "country": "ES",
    "lat": 42.19982,
    "lng": -3.70005
  },
  {
    "name": "Cogollor",
    "country": "ES",
    "lat": 40.84818,
    "lng": -2.74425
  },
  {
    "name": "Cogeces del Monte",
    "country": "ES",
    "lat": 41.5103,
    "lng": -4.31721
  },
  {
    "name": "Codos",
    "country": "ES",
    "lat": 41.29266,
    "lng": -1.37425
  },
  {
    "name": "Codorniz",
    "country": "ES",
    "lat": 41.06745,
    "lng": -4.60021
  },
  {
    "name": "Coca de Alba",
    "country": "ES",
    "lat": 40.87833,
    "lng": -5.36537
  },
  {
    "name": "Coca",
    "country": "ES",
    "lat": 41.21767,
    "lng": -4.52145
  },
  {
    "name": "Cobreros",
    "country": "ES",
    "lat": 42.07323,
    "lng": -6.70053
  },
  {
    "name": "Cobos de Fuentidueña",
    "country": "ES",
    "lat": 41.38265,
    "lng": -3.92723
  },
  {
    "name": "Cobos de Cerrato",
    "country": "ES",
    "lat": 42.02808,
    "lng": -4.00251
  },
  {
    "name": "Cobeta",
    "country": "ES",
    "lat": 40.8656,
    "lng": -2.14211
  },
  {
    "name": "Cobeña",
    "country": "ES",
    "lat": 40.56667,
    "lng": -3.5
  },
  {
    "name": "Cobeja",
    "country": "ES",
    "lat": 40.02076,
    "lng": -3.85599
  },
  {
    "name": "Coaña",
    "country": "ES",
    "lat": 43.51392,
    "lng": -6.75527
  },
  {
    "name": "Costa Teguise",
    "country": "ES",
    "lat": 28.99838,
    "lng": -13.49911
  },
  {
    "name": "Coma-ruga",
    "country": "ES",
    "lat": 41.17995,
    "lng": 1.52538
  },
  {
    "name": "Costa Calma",
    "country": "ES",
    "lat": 28.16155,
    "lng": -14.22691
  },
  {
    "name": "Corvera de Asturias",
    "country": "ES",
    "lat": 43.53554,
    "lng": -5.88893
  },
  {
    "name": "Costacabana",
    "country": "ES",
    "lat": 36.83807,
    "lng": -2.38111
  },
  {
    "name": "Costillares",
    "country": "ES",
    "lat": 40.47665,
    "lng": -3.66852
  },
  {
    "name": "Comillas",
    "country": "ES",
    "lat": 40.3935,
    "lng": -3.71196
  },
  {
    "name": "Concepción",
    "country": "ES",
    "lat": 40.43932,
    "lng": -3.64928
  },
  {
    "name": "Colina",
    "country": "ES",
    "lat": 40.45805,
    "lng": -3.66031
  },
  {
    "name": "Corralejos",
    "country": "ES",
    "lat": 40.46414,
    "lng": -3.60727
  },
  {
    "name": "Colonia",
    "country": "FM",
    "lat": 9.51638,
    "lng": 138.12167
  },
  {
    "name": "Corcoué-sur-Logne",
    "country": "FR",
    "lat": 46.96667,
    "lng": -1.58333
  },
  {
    "name": "Cozes",
    "country": "FR",
    "lat": 45.58371,
    "lng": -0.83242
  },
  {
    "name": "Coye-la-Forêt",
    "country": "FR",
    "lat": 49.14233,
    "lng": 2.47038
  },
  {
    "name": "Couzon-au-Mont-d'Or",
    "country": "FR",
    "lat": 45.84436,
    "lng": 4.82883
  },
  {
    "name": "Couzeix",
    "country": "FR",
    "lat": 45.87645,
    "lng": 1.23842
  },
  {
    "name": "Coux",
    "country": "FR",
    "lat": 44.73484,
    "lng": 4.62057
  },
  {
    "name": "Couvron-et-Aumencourt",
    "country": "FR",
    "lat": 49.64476,
    "lng": 3.51857
  },
  {
    "name": "Coutras",
    "country": "FR",
    "lat": 45.04067,
    "lng": -0.12886
  },
  {
    "name": "Coutouvre",
    "country": "FR",
    "lat": 46.07303,
    "lng": 4.20535
  },
  {
    "name": "Coutiches",
    "country": "FR",
    "lat": 50.4552,
    "lng": 3.20384
  },
  {
    "name": "Couternon",
    "country": "FR",
    "lat": 47.33333,
    "lng": 5.15
  },
  {
    "name": "Couterne",
    "country": "FR",
    "lat": 48.51318,
    "lng": -0.41538
  },
  {
    "name": "Coutances",
    "country": "FR",
    "lat": 49.04541,
    "lng": -1.44518
  },
  {
    "name": "Coussac-Bonneval",
    "country": "FR",
    "lat": 45.51117,
    "lng": 1.32382
  },
  {
    "name": "Cousolre",
    "country": "FR",
    "lat": 50.24607,
    "lng": 4.14941
  },
  {
    "name": "Cousance",
    "country": "FR",
    "lat": 46.53324,
    "lng": 5.39214
  },
  {
    "name": "Courzieu",
    "country": "FR",
    "lat": 45.7427,
    "lng": 4.57084
  },
  {
    "name": "Courville-sur-Eure",
    "country": "FR",
    "lat": 48.44899,
    "lng": 1.24085
  },
  {
    "name": "Courtry",
    "country": "FR",
    "lat": 48.91906,
    "lng": 2.60431
  },
  {
    "name": "Courtisols",
    "country": "FR",
    "lat": 48.9867,
    "lng": 4.517
  },
  {
    "name": "Courthézon",
    "country": "FR",
    "lat": 44.0876,
    "lng": 4.88407
  },
  {
    "name": "Courtenay",
    "country": "FR",
    "lat": 48.03901,
    "lng": 3.05851
  },
  {
    "name": "Courteilles",
    "country": "FR",
    "lat": 48.77495,
    "lng": -0.19942
  },
  {
    "name": "Cours-les-Barres",
    "country": "FR",
    "lat": 47.02513,
    "lng": 3.03167
  },
  {
    "name": "Courseulles-sur-Mer",
    "country": "FR",
    "lat": 49.33027,
    "lng": -0.45612
  },
  {
    "name": "Cours-de-Pile",
    "country": "FR",
    "lat": 44.8413,
    "lng": 0.54549
  },
  {
    "name": "Coursan",
    "country": "FR",
    "lat": 43.2337,
    "lng": 3.05712
  },
  {
    "name": "Coursac",
    "country": "FR",
    "lat": 45.12925,
    "lng": 0.63837
  },
  {
    "name": "Cours-la-Ville",
    "country": "FR",
    "lat": 46.1,
    "lng": 4.31667
  },
  {
    "name": "Courrières",
    "country": "FR",
    "lat": 50.45701,
    "lng": 2.94725
  },
  {
    "name": "Courpière",
    "country": "FR",
    "lat": 45.75689,
    "lng": 3.54216
  },
  {
    "name": "Courpalay",
    "country": "FR",
    "lat": 48.64947,
    "lng": 2.96116
  },
  {
    "name": "Cournonterral",
    "country": "FR",
    "lat": 43.55889,
    "lng": 3.72
  },
  {
    "name": "Cournonsec",
    "country": "FR",
    "lat": 43.54944,
    "lng": 3.70556
  },
  {
    "name": "Cournon-d'Auvergne",
    "country": "FR",
    "lat": 45.74123,
    "lng": 3.19643
  },
  {
    "name": "Courmelles",
    "country": "FR",
    "lat": 49.34595,
    "lng": 3.31215
  },
  {
    "name": "Courlon-sur-Yonne",
    "country": "FR",
    "lat": 48.33927,
    "lng": 3.1666
  },
  {
    "name": "Courlay",
    "country": "FR",
    "lat": 46.77937,
    "lng": -0.56763
  },
  {
    "name": "Courdimanche",
    "country": "FR",
    "lat": 49.03513,
    "lng": 2.00096
  },
  {
    "name": "Courcy",
    "country": "FR",
    "lat": 49.32361,
    "lng": 4.00257
  },
  {
    "name": "Courcouronnes",
    "country": "FR",
    "lat": 48.61429,
    "lng": 2.40762
  },
  {
    "name": "Courçon",
    "country": "FR",
    "lat": 46.24364,
    "lng": -0.81303
  },
  {
    "name": "Courcité",
    "country": "FR",
    "lat": 48.30601,
    "lng": -0.24984
  },
  {
    "name": "Cour-Cheverny",
    "country": "FR",
    "lat": 47.51033,
    "lng": 1.45583
  },
  {
    "name": "Courchevel",
    "country": "FR",
    "lat": 45.41538,
    "lng": 6.63643
  },
  {
    "name": "Courchelettes",
    "country": "FR",
    "lat": 50.34043,
    "lng": 3.05938
  },
  {
    "name": "Courcelles-sur-Seine",
    "country": "FR",
    "lat": 49.18285,
    "lng": 1.36008
  },
  {
    "name": "Courcelles-lès-Montbéliard",
    "country": "FR",
    "lat": 47.50113,
    "lng": 6.78461
  },
  {
    "name": "Courcelles-lès-Lens",
    "country": "FR",
    "lat": 50.41667,
    "lng": 3.01667
  },
  {
    "name": "Courcelles-Chaussy",
    "country": "FR",
    "lat": 49.1094,
    "lng": 6.40153
  },
  {
    "name": "Courbevoie",
    "country": "FR",
    "lat": 48.89672,
    "lng": 2.25666
  },
  {
    "name": "Coupvray",
    "country": "FR",
    "lat": 48.89289,
    "lng": 2.7967
  },
  {
    "name": "Coulounieix-Chamiers",
    "country": "FR",
    "lat": 45.15774,
    "lng": 0.68798
  },
  {
    "name": "Coulonges-sur-l'Autize",
    "country": "FR",
    "lat": 46.4834,
    "lng": -0.59884
  },
  {
    "name": "Coulon",
    "country": "FR",
    "lat": 46.32401,
    "lng": -0.58489
  },
  {
    "name": "Coulommiers",
    "country": "FR",
    "lat": 48.81451,
    "lng": 3.08498
  },
  {
    "name": "Coulombs",
    "country": "FR",
    "lat": 48.65253,
    "lng": 1.54646
  },
  {
    "name": "Coulombiers",
    "country": "FR",
    "lat": 46.48615,
    "lng": 0.18734
  },
  {
    "name": "Coulogne",
    "country": "FR",
    "lat": 50.92463,
    "lng": 1.88137
  },
  {
    "name": "Coullons",
    "country": "FR",
    "lat": 47.62105,
    "lng": 2.49258
  },
  {
    "name": "Coulans-sur-Gée",
    "country": "FR",
    "lat": 48.02145,
    "lng": 0.01064
  },
  {
    "name": "Coulanges-lès-Nevers",
    "country": "FR",
    "lat": 47.00509,
    "lng": 3.18756
  },
  {
    "name": "Coulaines",
    "country": "FR",
    "lat": 48.02409,
    "lng": 0.20411
  },
  {
    "name": "Couiza",
    "country": "FR",
    "lat": 42.94299,
    "lng": 2.2555
  },
  {
    "name": "Couilly-Pont-aux-Dames",
    "country": "FR",
    "lat": 48.88473,
    "lng": 2.85677
  },
  {
    "name": "Couhé",
    "country": "FR",
    "lat": 46.29982,
    "lng": 0.18199
  },
  {
    "name": "Coufouleux",
    "country": "FR",
    "lat": 43.81713,
    "lng": 1.73078
  },
  {
    "name": "Couffé",
    "country": "FR",
    "lat": 47.39191,
    "lng": -1.29151
  },
  {
    "name": "Couëron",
    "country": "FR",
    "lat": 47.21473,
    "lng": -1.72452
  },
  {
    "name": "Coudun",
    "country": "FR",
    "lat": 49.46146,
    "lng": 2.81248
  },
  {
    "name": "Coudoux",
    "country": "FR",
    "lat": 43.558,
    "lng": 5.24889
  },
  {
    "name": "Coudekerque-Branche",
    "country": "FR",
    "lat": 51.02288,
    "lng": 2.39359
  },
  {
    "name": "Coudekerque-Village",
    "country": "FR",
    "lat": 51.0,
    "lng": 2.41667
  },
  {
    "name": "Coucy-le-Château-Auffrique",
    "country": "FR",
    "lat": 49.52083,
    "lng": 3.32381
  },
  {
    "name": "Couchey",
    "country": "FR",
    "lat": 47.25991,
    "lng": 4.98257
  },
  {
    "name": "Couches",
    "country": "FR",
    "lat": 46.86667,
    "lng": 4.56667
  },
  {
    "name": "Coubron",
    "country": "FR",
    "lat": 48.91667,
    "lng": 2.58333
  },
  {
    "name": "Coubon",
    "country": "FR",
    "lat": 44.99731,
    "lng": 3.91783
  },
  {
    "name": "Coublevie",
    "country": "FR",
    "lat": 45.35856,
    "lng": 5.61146
  },
  {
    "name": "Coubert",
    "country": "FR",
    "lat": 48.67186,
    "lng": 2.69733
  },
  {
    "name": "Cotignac",
    "country": "FR",
    "lat": 43.52876,
    "lng": 6.14955
  },
  {
    "name": "Cossé-le-Vivien",
    "country": "FR",
    "lat": 47.94538,
    "lng": -0.91184
  },
  {
    "name": "Cosne-Cours-sur-Loire",
    "country": "FR",
    "lat": 47.41101,
    "lng": 2.92528
  },
  {
    "name": "Cosnes",
    "country": "FR",
    "lat": 49.51964,
    "lng": 5.7121
  },
  {
    "name": "Cosnac",
    "country": "FR",
    "lat": 45.13423,
    "lng": 1.58544
  },
  {
    "name": "Corzé",
    "country": "FR",
    "lat": 47.55956,
    "lng": -0.39062
  },
  {
    "name": "Corte",
    "country": "FR",
    "lat": 42.30956,
    "lng": 9.14917
  },
  {
    "name": "Corseul",
    "country": "FR",
    "lat": 48.48155,
    "lng": -2.16979
  },
  {
    "name": "Corsept",
    "country": "FR",
    "lat": 47.27678,
    "lng": -2.06062
  },
  {
    "name": "Corrèze",
    "country": "FR",
    "lat": 45.37244,
    "lng": 1.87513
  },
  {
    "name": "Corquilleroy",
    "country": "FR",
    "lat": 48.04212,
    "lng": 2.70382
  },
  {
    "name": "Corps-Nuds",
    "country": "FR",
    "lat": 47.97812,
    "lng": -1.58727
  },
  {
    "name": "Corpeau",
    "country": "FR",
    "lat": 46.92917,
    "lng": 4.75226
  },
  {
    "name": "Coron",
    "country": "FR",
    "lat": 47.12763,
    "lng": -0.64703
  },
  {
    "name": "Corny-sur-Moselle",
    "country": "FR",
    "lat": 49.03557,
    "lng": 6.06084
  },
  {
    "name": "Cornimont",
    "country": "FR",
    "lat": 47.95998,
    "lng": 6.83038
  },
  {
    "name": "Cornillon-Confoux",
    "country": "FR",
    "lat": 43.56267,
    "lng": 5.07162
  },
  {
    "name": "Cornil",
    "country": "FR",
    "lat": 45.21062,
    "lng": 1.69173
  },
  {
    "name": "Cornier",
    "country": "FR",
    "lat": 46.09304,
    "lng": 6.29895
  },
  {
    "name": "Corneville-sur-Risle",
    "country": "FR",
    "lat": 49.34128,
    "lng": 0.58628
  },
  {
    "name": "Corneilla-la-Rivière",
    "country": "FR",
    "lat": 42.69736,
    "lng": 2.73007
  },
  {
    "name": "Corneilla-del-Vercol",
    "country": "FR",
    "lat": 42.62454,
    "lng": 2.95171
  },
  {
    "name": "Corneilhan",
    "country": "FR",
    "lat": 43.39962,
    "lng": 3.19238
  },
  {
    "name": "Cornebarrieu",
    "country": "FR",
    "lat": 43.64967,
    "lng": 1.32588
  },
  {
    "name": "Corné",
    "country": "FR",
    "lat": 47.47091,
    "lng": -0.34992
  },
  {
    "name": "Cornas",
    "country": "FR",
    "lat": 44.96382,
    "lng": 4.84839
  },
  {
    "name": "Cormontreuil",
    "country": "FR",
    "lat": 49.21667,
    "lng": 4.05
  },
  {
    "name": "Cormicy",
    "country": "FR",
    "lat": 49.37071,
    "lng": 3.89595
  },
  {
    "name": "Cormery",
    "country": "FR",
    "lat": 47.26812,
    "lng": 0.83583
  },
  {
    "name": "Corme-Royal",
    "country": "FR",
    "lat": 45.74543,
    "lng": -0.8135
  },
  {
    "name": "Cormeray",
    "country": "FR",
    "lat": 47.49195,
    "lng": 1.4061
  },
  {
    "name": "Cormelles-le-Royal",
    "country": "FR",
    "lat": 49.15398,
    "lng": -0.33062
  },
  {
    "name": "Cormeilles-en-Parisis",
    "country": "FR",
    "lat": 48.97111,
    "lng": 2.20491
  },
  {
    "name": "Cormeilles",
    "country": "FR",
    "lat": 49.24803,
    "lng": 0.37654
  },
  {
    "name": "Corlay",
    "country": "FR",
    "lat": 48.31649,
    "lng": -3.05737
  },
  {
    "name": "Corenc",
    "country": "FR",
    "lat": 45.21889,
    "lng": 5.76497
  },
  {
    "name": "Cordon",
    "country": "FR",
    "lat": 45.92099,
    "lng": 6.60536
  },
  {
    "name": "Cordes-sur-Ciel",
    "country": "FR",
    "lat": 44.06667,
    "lng": 1.95
  },
  {
    "name": "Cordemais",
    "country": "FR",
    "lat": 47.2914,
    "lng": -1.87887
  },
  {
    "name": "Corcieux",
    "country": "FR",
    "lat": 48.17236,
    "lng": 6.88148
  },
  {
    "name": "Corbreuse",
    "country": "FR",
    "lat": 48.50065,
    "lng": 1.95913
  },
  {
    "name": "Corbigny",
    "country": "FR",
    "lat": 47.25678,
    "lng": 3.68285
  },
  {
    "name": "Corbie",
    "country": "FR",
    "lat": 49.90672,
    "lng": 2.50682
  },
  {
    "name": "Corbenay",
    "country": "FR",
    "lat": 47.89275,
    "lng": 6.33047
  },
  {
    "name": "Corbelin",
    "country": "FR",
    "lat": 45.60733,
    "lng": 5.54261
  },
  {
    "name": "Corbeilles",
    "country": "FR",
    "lat": 48.07201,
    "lng": 2.5503
  },
  {
    "name": "Corbeil-Essonnes",
    "country": "FR",
    "lat": 48.60603,
    "lng": 2.48757
  },
  {
    "name": "Corbehem",
    "country": "FR",
    "lat": 50.33141,
    "lng": 3.04995
  },
  {
    "name": "Corbas",
    "country": "FR",
    "lat": 45.66798,
    "lng": 4.90198
  },
  {
    "name": "Corbarieu",
    "country": "FR",
    "lat": 43.94422,
    "lng": 1.36808
  },
  {
    "name": "Coray",
    "country": "FR",
    "lat": 48.06089,
    "lng": -3.83035
  },
  {
    "name": "Coquelles",
    "country": "FR",
    "lat": 50.93461,
    "lng": 1.7988
  },
  {
    "name": "Conty",
    "country": "FR",
    "lat": 49.741,
    "lng": 2.1512
  },
  {
    "name": "Contrexéville",
    "country": "FR",
    "lat": 48.18424,
    "lng": 5.89572
  },
  {
    "name": "Contres",
    "country": "FR",
    "lat": 47.41754,
    "lng": 1.42849
  },
  {
    "name": "Contes",
    "country": "FR",
    "lat": 43.81278,
    "lng": 7.31444
  },
  {
    "name": "Contamine-sur-Arve",
    "country": "FR",
    "lat": 46.14223,
    "lng": 6.33215
  },
  {
    "name": "Conques-sur-Orbiel",
    "country": "FR",
    "lat": 43.26667,
    "lng": 2.41667
  },
  {
    "name": "Conquereuil",
    "country": "FR",
    "lat": 47.62486,
    "lng": -1.75112
  },
  {
    "name": "Connerré",
    "country": "FR",
    "lat": 48.06003,
    "lng": 0.49237
  },
  {
    "name": "Connaux",
    "country": "FR",
    "lat": 44.09127,
    "lng": 4.59374
  },
  {
    "name": "Connantre",
    "country": "FR",
    "lat": 48.72657,
    "lng": 3.92403
  },
  {
    "name": "Conlie",
    "country": "FR",
    "lat": 48.12261,
    "lng": -0.01666
  },
  {
    "name": "Congrier",
    "country": "FR",
    "lat": 47.81033,
    "lng": -1.1167
  },
  {
    "name": "Congis-sur-Thérouanne",
    "country": "FR",
    "lat": 49.0,
    "lng": 2.98333
  },
  {
    "name": "Congénies",
    "country": "FR",
    "lat": 43.77804,
    "lng": 4.15964
  },
  {
    "name": "Confolens",
    "country": "FR",
    "lat": 46.01311,
    "lng": 0.67195
  },
  {
    "name": "Conflans-Sainte-Honorine",
    "country": "FR",
    "lat": 49.00158,
    "lng": 2.09694
  },
  {
    "name": "Conflans-en-Jarnisy",
    "country": "FR",
    "lat": 49.16725,
    "lng": 5.85515
  },
  {
    "name": "Condrieu",
    "country": "FR",
    "lat": 45.463,
    "lng": 4.76765
  },
  {
    "name": "Condom",
    "country": "FR",
    "lat": 43.95816,
    "lng": 0.37199
  },
  {
    "name": "Condette",
    "country": "FR",
    "lat": 50.65817,
    "lng": 1.63386
  },
  {
    "name": "Condé-sur-Vire",
    "country": "FR",
    "lat": 49.05,
    "lng": -1.03333
  },
  {
    "name": "Condé-sur-Vesgre",
    "country": "FR",
    "lat": 48.74199,
    "lng": 1.66069
  },
  {
    "name": "Condé-sur-Sarthe",
    "country": "FR",
    "lat": 48.43197,
    "lng": 0.03398
  },
  {
    "name": "Condé-sur-Noireau",
    "country": "FR",
    "lat": 48.84881,
    "lng": -0.55214
  },
  {
    "name": "Condé-sur-l'Escaut",
    "country": "FR",
    "lat": 50.45436,
    "lng": 3.58884
  },
  {
    "name": "Condé-sur-Huisne",
    "country": "FR",
    "lat": 48.38103,
    "lng": 0.85093
  },
  {
    "name": "Condé-Sainte-Libiaire",
    "country": "FR",
    "lat": 48.89695,
    "lng": 2.83904
  },
  {
    "name": "Condat-sur-Vienne",
    "country": "FR",
    "lat": 45.79336,
    "lng": 1.23187
  },
  {
    "name": "Condat",
    "country": "FR",
    "lat": 45.34093,
    "lng": 2.75791
  },
  {
    "name": "Conches-en-Ouche",
    "country": "FR",
    "lat": 48.95768,
    "lng": 0.94052
  },
  {
    "name": "Conches-sur-Gondoire",
    "country": "FR",
    "lat": 48.85624,
    "lng": 2.71783
  },
  {
    "name": "Concarneau",
    "country": "FR",
    "lat": 47.87536,
    "lng": -3.91896
  },
  {
    "name": "Comps",
    "country": "FR",
    "lat": 43.85304,
    "lng": 4.60567
  },
  {
    "name": "Compreignac",
    "country": "FR",
    "lat": 45.99213,
    "lng": 1.27455
  },
  {
    "name": "Compiègne",
    "country": "FR",
    "lat": 49.41794,
    "lng": 2.82606
  },
  {
    "name": "Compertrix",
    "country": "FR",
    "lat": 48.94179,
    "lng": 4.34631
  },
  {
    "name": "Communay",
    "country": "FR",
    "lat": 45.60442,
    "lng": 4.83488
  },
  {
    "name": "Commercy",
    "country": "FR",
    "lat": 48.76128,
    "lng": 5.59067
  },
  {
    "name": "Commer",
    "country": "FR",
    "lat": 48.24009,
    "lng": -0.62025
  },
  {
    "name": "Commequiers",
    "country": "FR",
    "lat": 46.76264,
    "lng": -1.83815
  },
  {
    "name": "Commentry",
    "country": "FR",
    "lat": 46.28876,
    "lng": 2.74163
  },
  {
    "name": "Commelle",
    "country": "FR",
    "lat": 46.00086,
    "lng": 4.05794
  },
  {
    "name": "Comines",
    "country": "FR",
    "lat": 50.7615,
    "lng": 3.01063
  },
  {
    "name": "Combs-la-Ville",
    "country": "FR",
    "lat": 48.66497,
    "lng": 2.56957
  },
  {
    "name": "Combronde",
    "country": "FR",
    "lat": 45.98099,
    "lng": 3.08807
  },
  {
    "name": "Combrit",
    "country": "FR",
    "lat": 47.88719,
    "lng": -4.16051
  },
  {
    "name": "Combrée",
    "country": "FR",
    "lat": 47.70446,
    "lng": -1.03003
  },
  {
    "name": "Combrand",
    "country": "FR",
    "lat": 46.86451,
    "lng": -0.68924
  },
  {
    "name": "Combourg",
    "country": "FR",
    "lat": 48.40883,
    "lng": -1.75146
  },
  {
    "name": "Combloux",
    "country": "FR",
    "lat": 45.8979,
    "lng": 6.6442
  },
  {
    "name": "Combaillaux",
    "country": "FR",
    "lat": 43.67666,
    "lng": 3.76611
  },
  {
    "name": "Colpo",
    "country": "FR",
    "lat": 47.81937,
    "lng": -2.81045
  },
  {
    "name": "Colomiers",
    "country": "FR",
    "lat": 43.61058,
    "lng": 1.33467
  },
  {
    "name": "Colombiès",
    "country": "FR",
    "lat": 44.3443,
    "lng": 2.33673
  },
  {
    "name": "Colombiers",
    "country": "FR",
    "lat": 46.77229,
    "lng": 0.42508
  },
  {
    "name": "Colombiers",
    "country": "FR",
    "lat": 43.31317,
    "lng": 3.13994
  },
  {
    "name": "Colombier-Fontaine",
    "country": "FR",
    "lat": 47.45224,
    "lng": 6.6901
  },
  {
    "name": "Colombey-les-Belles",
    "country": "FR",
    "lat": 48.5292,
    "lng": 5.89451
  },
  {
    "name": "Colombes",
    "country": "FR",
    "lat": 48.91882,
    "lng": 2.25404
  },
  {
    "name": "Colombelles",
    "country": "FR",
    "lat": 49.2049,
    "lng": -0.29571
  },
  {
    "name": "Colombe",
    "country": "FR",
    "lat": 45.40024,
    "lng": 5.45441
  },
  {
    "name": "Colomars",
    "country": "FR",
    "lat": 43.7632,
    "lng": 7.22191
  },
  {
    "name": "Colmar",
    "country": "FR",
    "lat": 48.08078,
    "lng": 7.35584
  },
  {
    "name": "Collonges-sous-Salève",
    "country": "FR",
    "lat": 46.1416,
    "lng": 6.15372
  },
  {
    "name": "Collonges",
    "country": "FR",
    "lat": 46.13819,
    "lng": 5.90506
  },
  {
    "name": "Collobrières",
    "country": "FR",
    "lat": 43.23718,
    "lng": 6.30901
  },
  {
    "name": "Collioure",
    "country": "FR",
    "lat": 42.52462,
    "lng": 3.08235
  },
  {
    "name": "Colleville-Montgomery",
    "country": "FR",
    "lat": 49.27528,
    "lng": -0.30052
  },
  {
    "name": "Colleret",
    "country": "FR",
    "lat": 50.25693,
    "lng": 4.08083
  },
  {
    "name": "Collégien",
    "country": "FR",
    "lat": 48.83571,
    "lng": 2.67365
  },
  {
    "name": "Coligny",
    "country": "FR",
    "lat": 46.38252,
    "lng": 5.34554
  },
  {
    "name": "Colayrac-Saint-Cirq",
    "country": "FR",
    "lat": 44.21996,
    "lng": 0.55282
  },
  {
    "name": "Coise",
    "country": "FR",
    "lat": 45.52822,
    "lng": 6.14389
  },
  {
    "name": "Coincy",
    "country": "FR",
    "lat": 49.16036,
    "lng": 3.42202
  },
  {
    "name": "Coignières",
    "country": "FR",
    "lat": 48.7501,
    "lng": 1.92082
  },
  {
    "name": "Cogolin",
    "country": "FR",
    "lat": 43.25294,
    "lng": 6.52981
  },
  {
    "name": "Cogny",
    "country": "FR",
    "lat": 45.98747,
    "lng": 4.62475
  },
  {
    "name": "Cognin",
    "country": "FR",
    "lat": 45.55952,
    "lng": 5.89113
  },
  {
    "name": "Cognac-la-Forêt",
    "country": "FR",
    "lat": 45.83328,
    "lng": 1.00989
  },
  {
    "name": "Cognac",
    "country": "FR",
    "lat": 45.69581,
    "lng": -0.32867
  },
  {
    "name": "Coëx",
    "country": "FR",
    "lat": 46.69748,
    "lng": -1.7602
  },
  {
    "name": "Coëtmieux",
    "country": "FR",
    "lat": 48.49166,
    "lng": -2.60029
  },
  {
    "name": "Coësmes",
    "country": "FR",
    "lat": 47.88338,
    "lng": -1.44112
  },
  {
    "name": "Codognan",
    "country": "FR",
    "lat": 43.73214,
    "lng": 4.2195
  },
  {
    "name": "Cocheren",
    "country": "FR",
    "lat": 49.14384,
    "lng": 6.85649
  },
  {
    "name": "Coarraze",
    "country": "FR",
    "lat": 43.16996,
    "lng": -0.22998
  },
  {
    "name": "Cocobeach",
    "country": "GA",
    "lat": 1.00019,
    "lng": 9.58229
  },
  {
    "name": "Cornforth",
    "country": "GB",
    "lat": 54.70286,
    "lng": -1.51938
  },
  {
    "name": "Coylton",
    "country": "GB",
    "lat": 55.44528,
    "lng": -4.5195
  },
  {
    "name": "Coxhoe",
    "country": "GB",
    "lat": 54.71475,
    "lng": -1.50356
  },
  {
    "name": "Cowpen",
    "country": "GB",
    "lat": 55.12728,
    "lng": -1.54033
  },
  {
    "name": "Cowley",
    "country": "GB",
    "lat": 51.73213,
    "lng": -1.20631
  },
  {
    "name": "Cowie",
    "country": "GB",
    "lat": 56.07974,
    "lng": -3.86753
  },
  {
    "name": "Cowfold",
    "country": "GB",
    "lat": 50.98945,
    "lng": -0.27243
  },
  {
    "name": "Cowes",
    "country": "GB",
    "lat": 50.76252,
    "lng": -1.29781
  },
  {
    "name": "Cowdenbeath",
    "country": "GB",
    "lat": 56.11194,
    "lng": -3.34426
  },
  {
    "name": "Cowbridge",
    "country": "GB",
    "lat": 51.46028,
    "lng": -3.44167
  },
  {
    "name": "Cowbit",
    "country": "GB",
    "lat": 52.74523,
    "lng": -0.12978
  },
  {
    "name": "Coventry",
    "country": "GB",
    "lat": 52.40656,
    "lng": -1.51217
  },
  {
    "name": "Cove",
    "country": "GB",
    "lat": 57.1,
    "lng": -2.08333
  },
  {
    "name": "Cove",
    "country": "GB",
    "lat": 51.29547,
    "lng": -0.79076
  },
  {
    "name": "Coupar Angus",
    "country": "GB",
    "lat": 56.54552,
    "lng": -3.26774
  },
  {
    "name": "Countesthorpe",
    "country": "GB",
    "lat": 52.55379,
    "lng": -1.14526
  },
  {
    "name": "Coundon",
    "country": "GB",
    "lat": 54.6628,
    "lng": -1.62688
  },
  {
    "name": "Coulsdon",
    "country": "GB",
    "lat": 51.32002,
    "lng": -0.14088
  },
  {
    "name": "Cottingham",
    "country": "GB",
    "lat": 53.78057,
    "lng": -0.41542
  },
  {
    "name": "Cottingham",
    "country": "GB",
    "lat": 52.50243,
    "lng": -0.7554
  },
  {
    "name": "Cottesmore",
    "country": "GB",
    "lat": 52.71384,
    "lng": -0.6633
  },
  {
    "name": "Cottenham",
    "country": "GB",
    "lat": 52.28743,
    "lng": 0.1254
  },
  {
    "name": "Cotgrave",
    "country": "GB",
    "lat": 52.90859,
    "lng": -1.03752
  },
  {
    "name": "Costessey",
    "country": "GB",
    "lat": 52.65914,
    "lng": 1.2097
  },
  {
    "name": "Cosham",
    "country": "GB",
    "lat": 50.84654,
    "lng": -1.06344
  },
  {
    "name": "Cosby",
    "country": "GB",
    "lat": 52.55127,
    "lng": -1.19395
  },
  {
    "name": "Corston",
    "country": "GB",
    "lat": 51.385,
    "lng": -2.44028
  },
  {
    "name": "Corsley",
    "country": "GB",
    "lat": 51.21933,
    "lng": -2.2464
  },
  {
    "name": "Corsham",
    "country": "GB",
    "lat": 51.43433,
    "lng": -2.18437
  },
  {
    "name": "Corsenside",
    "country": "GB",
    "lat": 55.18333,
    "lng": -2.16667
  },
  {
    "name": "Corse",
    "country": "GB",
    "lat": 51.95943,
    "lng": -2.30636
  },
  {
    "name": "Corris",
    "country": "GB",
    "lat": 52.65145,
    "lng": -3.84315
  },
  {
    "name": "Cornholme",
    "country": "GB",
    "lat": 53.7323,
    "lng": -2.13851
  },
  {
    "name": "Corfe Castle",
    "country": "GB",
    "lat": 50.63947,
    "lng": -2.05672
  },
  {
    "name": "Corby",
    "country": "GB",
    "lat": 52.49637,
    "lng": -0.68939
  },
  {
    "name": "Corbridge",
    "country": "GB",
    "lat": 54.97365,
    "lng": -2.01798
  },
  {
    "name": "Coppull",
    "country": "GB",
    "lat": 53.62527,
    "lng": -2.65854
  },
  {
    "name": "Copplestone",
    "country": "GB",
    "lat": 50.81073,
    "lng": -3.74607
  },
  {
    "name": "Copmanthorpe",
    "country": "GB",
    "lat": 53.91419,
    "lng": -1.14209
  },
  {
    "name": "Cople",
    "country": "GB",
    "lat": 52.12342,
    "lng": -0.38933
  },
  {
    "name": "Cooling",
    "country": "GB",
    "lat": 51.45474,
    "lng": 0.52395
  },
  {
    "name": "Cookstown",
    "country": "GB",
    "lat": 54.64305,
    "lng": -6.74595
  },
  {
    "name": "Cookley",
    "country": "GB",
    "lat": 52.31667,
    "lng": 1.45
  },
  {
    "name": "Cookham",
    "country": "GB",
    "lat": 51.55936,
    "lng": -0.7081
  },
  {
    "name": "Conwy",
    "country": "GB",
    "lat": 53.28077,
    "lng": -3.83039
  },
  {
    "name": "Consett",
    "country": "GB",
    "lat": 54.85404,
    "lng": -1.8316
  },
  {
    "name": "Conon Bridge",
    "country": "GB",
    "lat": 57.5663,
    "lng": -4.43678
  },
  {
    "name": "Connor",
    "country": "GB",
    "lat": 54.8,
    "lng": -6.2
  },
  {
    "name": "Conisbrough",
    "country": "GB",
    "lat": 53.48188,
    "lng": -1.23214
  },
  {
    "name": "Coningsby",
    "country": "GB",
    "lat": 53.10598,
    "lng": -0.17595
  },
  {
    "name": "Congresbury",
    "country": "GB",
    "lat": 51.37135,
    "lng": -2.81018
  },
  {
    "name": "Congleton",
    "country": "GB",
    "lat": 53.16314,
    "lng": -2.21253
  },
  {
    "name": "Comrie",
    "country": "GB",
    "lat": 56.3688,
    "lng": -3.97882
  },
  {
    "name": "Compton Martin",
    "country": "GB",
    "lat": 51.31056,
    "lng": -2.65528
  },
  {
    "name": "Compton Dando",
    "country": "GB",
    "lat": 51.37909,
    "lng": -2.51445
  },
  {
    "name": "Compton",
    "country": "GB",
    "lat": 51.51585,
    "lng": -1.2551
  },
  {
    "name": "Compton",
    "country": "GB",
    "lat": 51.02385,
    "lng": -1.33713
  },
  {
    "name": "Comberton",
    "country": "GB",
    "lat": 52.18709,
    "lng": 0.01905
  },
  {
    "name": "Comber",
    "country": "GB",
    "lat": 54.54937,
    "lng": -5.74379
  },
  {
    "name": "Combe Martin",
    "country": "GB",
    "lat": 51.19873,
    "lng": -4.02343
  },
  {
    "name": "Colyton",
    "country": "GB",
    "lat": 50.74006,
    "lng": -3.07021
  },
  {
    "name": "Colwyn Bay",
    "country": "GB",
    "lat": 53.29483,
    "lng": -3.72674
  },
  {
    "name": "Colwich",
    "country": "GB",
    "lat": 52.78764,
    "lng": -1.98206
  },
  {
    "name": "Coltishall",
    "country": "GB",
    "lat": 52.72804,
    "lng": 1.36653
  },
  {
    "name": "Colsterworth",
    "country": "GB",
    "lat": 52.8066,
    "lng": -0.62056
  },
  {
    "name": "Colne",
    "country": "GB",
    "lat": 53.85713,
    "lng": -2.16851
  },
  {
    "name": "Colnbrook",
    "country": "GB",
    "lat": 51.48384,
    "lng": -0.52142
  },
  {
    "name": "Colmworth",
    "country": "GB",
    "lat": 52.21681,
    "lng": -0.37826
  },
  {
    "name": "Collington",
    "country": "GB",
    "lat": 52.25,
    "lng": -2.51667
  },
  {
    "name": "Collingham",
    "country": "GB",
    "lat": 53.91167,
    "lng": -1.41174
  },
  {
    "name": "Collingbourne Kingston",
    "country": "GB",
    "lat": 51.30105,
    "lng": -1.65876
  },
  {
    "name": "Colinton",
    "country": "GB",
    "lat": 55.90739,
    "lng": -3.25609
  },
  {
    "name": "Colerne",
    "country": "GB",
    "lat": 51.43833,
    "lng": -2.2628
  },
  {
    "name": "Coleraine",
    "country": "GB",
    "lat": 55.13333,
    "lng": -6.66667
  },
  {
    "name": "Coleford",
    "country": "GB",
    "lat": 51.79535,
    "lng": -2.61354
  },
  {
    "name": "Coldstream",
    "country": "GB",
    "lat": 55.65111,
    "lng": -2.25295
  },
  {
    "name": "Cold Norton",
    "country": "GB",
    "lat": 51.67209,
    "lng": 0.66997
  },
  {
    "name": "Cold Ashton",
    "country": "GB",
    "lat": 51.45083,
    "lng": -2.36139
  },
  {
    "name": "Cold Ash",
    "country": "GB",
    "lat": 51.42426,
    "lng": -1.26463
  },
  {
    "name": "Colchester",
    "country": "GB",
    "lat": 51.88921,
    "lng": 0.90421
  },
  {
    "name": "Coity",
    "country": "GB",
    "lat": 51.522,
    "lng": -3.55531
  },
  {
    "name": "Coggeshall",
    "country": "GB",
    "lat": 51.87077,
    "lng": 0.68536
  },
  {
    "name": "Cogenhoe",
    "country": "GB",
    "lat": 52.23758,
    "lng": -0.78381
  },
  {
    "name": "Coedpoeth",
    "country": "GB",
    "lat": 53.05391,
    "lng": -3.06234
  },
  {
    "name": "Codsall",
    "country": "GB",
    "lat": 52.62989,
    "lng": -2.20148
  },
  {
    "name": "Codicote",
    "country": "GB",
    "lat": 51.85052,
    "lng": -0.2367
  },
  {
    "name": "Codford",
    "country": "GB",
    "lat": 51.15,
    "lng": -2.05
  },
  {
    "name": "Coddington",
    "country": "GB",
    "lat": 53.08333,
    "lng": -2.81667
  },
  {
    "name": "Cockfosters",
    "country": "GB",
    "lat": 51.64926,
    "lng": -0.14823
  },
  {
    "name": "Cockfield",
    "country": "GB",
    "lat": 54.61373,
    "lng": -1.80897
  },
  {
    "name": "Cockermouth",
    "country": "GB",
    "lat": 54.66209,
    "lng": -3.36086
  },
  {
    "name": "Cockenzie",
    "country": "GB",
    "lat": 55.96823,
    "lng": -2.96562
  },
  {
    "name": "Cobham",
    "country": "GB",
    "lat": 51.32997,
    "lng": -0.4113
  },
  {
    "name": "Coates",
    "country": "GB",
    "lat": 51.7075,
    "lng": -2.03389
  },
  {
    "name": "Coatbridge",
    "country": "GB",
    "lat": 55.86216,
    "lng": -4.02469
  },
  {
    "name": "Coalville",
    "country": "GB",
    "lat": 52.72247,
    "lng": -1.3702
  },
  {
    "name": "Coalisland",
    "country": "GB",
    "lat": 54.5418,
    "lng": -6.70166
  },
  {
    "name": "Coalburn",
    "country": "GB",
    "lat": 55.59295,
    "lng": -3.88637
  },
  {
    "name": "Copthorne",
    "country": "GB",
    "lat": 51.13929,
    "lng": -0.11742
  },