[
  {
    "name": "Cukalat",
    "country": "AL",
    "lat": 40.73028,
    "lng": 19.79056
  },
  {
    "name": "Cudhi Zall",
    "country": "AL",
    "lat": 41.50944,
    "lng": 19.84583
  },
  {
    "name": "Cunda diá Baze",
    "country": "AO",
    "lat": -8.90769,
    "lng": 17.05339
  },
  {
    "name": "Cuímba",
    "country": "AO",
    "lat": -6.12085,
    "lng": 14.62086
  },
  {
    "name": "Cuilo",
    "country": "AO",
    "lat": -8.23619,
    "lng": 19.52566
  },
  {
    "name": "Cuango-Luzamba",
    "country": "AO",
    "lat": -9.14583,
    "lng": 18.04453
  },
  {
    "name": "Cuíto",
    "country": "AO",
    "lat": -12.38333,
    "lng": 16.93333
  },
  {
    "name": "Cunhinga",
    "country": "AO",
    "lat": -12.23333,
    "lng": 16.78333
  },
  {
    "name": "Cuemba",
    "country": "AO",
    "lat": -12.15,
    "lng": 18.08333
  },
  {
    "name": "Cuchi",
    "country": "AO",
    "lat": -14.64978,
    "lng": 16.89929
  },
  {
    "name": "Cubal",
    "country": "AO",
    "lat": -13.03865,
    "lng": 14.2455
  },
  {
    "name": "Curuzú Cuatiá",
    "country": "AR",
    "lat": -29.79145,
    "lng": -58.0499
  },
  {
    "name": "Cutral-Có",
    "country": "AR",
    "lat": -38.93424,
    "lng": -69.23052
  },
  {
    "name": "Cuchillo Có",
    "country": "AR",
    "lat": -38.33368,
    "lng": -64.64225
  },
  {
    "name": "Cuesta Blanca",
    "country": "AR",
    "lat": -31.48658,
    "lng": -64.5715
  },
  {
    "name": "Currie",
    "country": "AU",
    "lat": -39.92976,
    "lng": 143.85385
  },
  {
    "name": "Curra",
    "country": "AU",
    "lat": -26.06667,
    "lng": 152.58333
  },
  {
    "name": "Cunnamulla",
    "country": "AU",
    "lat": -28.06766,
    "lng": 145.68439
  },
  {
    "name": "Cundletown",
    "country": "AU",
    "lat": -31.8941,
    "lng": 152.52141
  },
  {
    "name": "Cumbalum",
    "country": "AU",
    "lat": -28.8225,
    "lng": 153.5284
  },
  {
    "name": "Culcairn",
    "country": "AU",
    "lat": -35.66669,
    "lng": 147.03845
  },
  {
    "name": "Curl Curl",
    "country": "AU",
    "lat": -33.76886,
    "lng": 151.28888
  },
  {
    "name": "Currambine",
    "country": "AU",
    "lat": -31.73306,
    "lng": 115.74766
  },
  {
    "name": "Cumberland Park",
    "country": "AU",
    "lat": -34.97204,
    "lng": 138.5867
  },
  {
    "name": "Currajong",
    "country": "AU",
    "lat": -19.27566,
    "lng": 146.77918
  },
  {
    "name": "Currumbin Valley",
    "country": "AU",
    "lat": -28.20805,
    "lng": 153.39424
  },
  {
    "name": "Currans Hill",
    "country": "AU",
    "lat": -34.04311,
    "lng": 150.77301
  },
  {
    "name": "Curtin",
    "country": "AU",
    "lat": -35.32464,
    "lng": 149.07763
  },
  {
    "name": "Currimundi",
    "country": "AU",
    "lat": -26.76925,
    "lng": 153.12237
  },
  {
    "name": "Currumbin Waters",
    "country": "AU",
    "lat": -28.15442,
    "lng": 153.47282
  },
  {
    "name": "Currumbin",
    "country": "AU",
    "lat": -28.13649,
    "lng": 153.48158
  },
  {
    "name": "Culburra Beach",
    "country": "AU",
    "lat": -34.92788,
    "lng": 150.75766
  },
  {
    "name": "Culfa",
    "country": "AZ",
    "lat": 38.95397,
    "lng": 45.62961
  },
  {
    "name": "Cul-des-Sarts",
    "country": "BE",
    "lat": 49.96248,
    "lng": 4.45427
  },
  {
    "name": "Cuesmes",
    "country": "BE",
    "lat": 50.43624,
    "lng": 3.92323
  },
  {
    "name": "Curahuara de Carangas",
    "country": "BO",
    "lat": -17.84265,
    "lng": -68.40877
  },
  {
    "name": "Custódia",
    "country": "BR",
    "lat": -8.0875,
    "lng": -37.64306
  },
  {
    "name": "Cururupu",
    "country": "BR",
    "lat": -1.82833,
    "lng": -44.86833
  },
  {
    "name": "Curuçá",
    "country": "BR",
    "lat": -0.72889,
    "lng": -47.84806
  },
  {
    "name": "Curuá",
    "country": "BR",
    "lat": -1.88806,
    "lng": -55.11667
  },
  {
    "name": "Curral Velho",
    "country": "BR",
    "lat": -7.58111,
    "lng": -38.19833
  },
  {
    "name": "Curral Novo do Piauí",
    "country": "BR",
    "lat": -7.83297,
    "lng": -40.90082
  },
  {
    "name": "Curralinhos",
    "country": "BR",
    "lat": -5.6187,
    "lng": -42.82842
  },
  {
    "name": "Curralinho",
    "country": "BR",
    "lat": -1.81361,
    "lng": -49.79528
  },
  {
    "name": "Currais Novos",
    "country": "BR",
    "lat": -6.26083,
    "lng": -36.51778
  },
  {
    "name": "Currais",
    "country": "BR",
    "lat": -9.01391,
    "lng": -44.39892
  },
  {
    "name": "Curaçá",
    "country": "BR",
    "lat": -8.99028,
    "lng": -39.90944
  },
  {
    "name": "Cupira",
    "country": "BR",
    "lat": -8.61667,
    "lng": -35.95
  },
  {
    "name": "Cumaru",
    "country": "BR",
    "lat": -8.00611,
    "lng": -35.69722
  },
  {
    "name": "Cuitegi",
    "country": "BR",
    "lat": -6.89333,
    "lng": -35.52333
  },
  {
    "name": "Cuité",
    "country": "BR",
    "lat": -6.48361,
    "lng": -36.15361
  },
  {
    "name": "Curvelo",
    "country": "BR",
    "lat": -18.75639,
    "lng": -44.43083
  },
  {
    "name": "Curral de Dentro",
    "country": "BR",
    "lat": -15.9375,
    "lng": -41.84444
  },
  {
    "name": "Curiúva",
    "country": "BR",
    "lat": -24.0325,
    "lng": -50.45833
  },
  {
    "name": "Curitibanos",
    "country": "BR",
    "lat": -27.28278,
    "lng": -50.58444
  },
  {
    "name": "Curitiba",
    "country": "BR",
    "lat": -25.42778,
    "lng": -49.27306
  },
  {
    "name": "Curimatá",
    "country": "BR",
    "lat": -10.03639,
    "lng": -44.30611
  },
  {
    "name": "Cuparaque",
    "country": "BR",
    "lat": -18.96944,
    "lng": -41.09917
  },
  {
    "name": "Cunha Porã",
    "country": "BR",
    "lat": -26.89361,
    "lng": -53.16806
  },
  {
    "name": "Cunha",
    "country": "BR",
    "lat": -23.07444,
    "lng": -44.95972
  },
  {
    "name": "Cumbe",
    "country": "BR",
    "lat": -10.355,
    "lng": -37.18306
  },
  {
    "name": "Cumari",
    "country": "BR",
    "lat": -18.26306,
    "lng": -48.15111
  },
  {
    "name": "Cuiabá",
    "country": "BR",
    "lat": -15.59611,
    "lng": -56.09667
  },
  {
    "name": "Cubatão",
    "country": "BR",
    "lat": -23.895,
    "lng": -46.42528
  },
  {
    "name": "Cujubim",
    "country": "BR",
    "lat": -9.36278,
    "lng": -62.58528
  },
  {
    "name": "Cuité de Mamanguape",
    "country": "BR",
    "lat": -6.91472,
    "lng": -35.25194
  },
  {
    "name": "Cumaru do Norte",
    "country": "BR",
    "lat": -7.825,
    "lng": -50.77278
  },
  {
    "name": "Cunhataí",
    "country": "BR",
    "lat": -26.96944,
    "lng": -53.09333
  },
  {
    "name": "Curionópolis",
    "country": "BR",
    "lat": -6.10167,
    "lng": -49.59806
  },
  {
    "name": "Curral de Cima",
    "country": "BR",
    "lat": -6.71694,
    "lng": -35.26944
  },
  {
    "name": "Curvelândia",
    "country": "BR",
    "lat": -15.6025,
    "lng": -57.92278
  },
  {
    "name": "Cutias",
    "country": "BR",
    "lat": 0.98611,
    "lng": -50.80222
  },
  {
    "name": "Cursino",
    "country": "BR",
    "lat": -23.63143,
    "lng": -46.62072
  },
  {
    "name": "Cubati",
    "country": "BR",
    "lat": -6.86579,
    "lng": -36.35085
  },
  {
    "name": "Cultus Lake",
    "country": "CA",
    "lat": 49.06667,
    "lng": -121.96667
  },
  {
    "name": "Cumberland",
    "country": "CA",
    "lat": 49.61634,
    "lng": -125.03613
  },
  {
    "name": "Cully",
    "country": "CH",
    "lat": 46.48892,
    "lng": 6.72945
  },
  {
    "name": "Cugy",
    "country": "CH",
    "lat": 46.81479,
    "lng": 6.88888
  },
  {
    "name": "Cugnasco",
    "country": "CH",
    "lat": 46.17473,
    "lng": 8.91684
  },
  {
    "name": "Cuarnens",
    "country": "CH",
    "lat": 46.62545,
    "lng": 6.43713
  },
  {
    "name": "Cuya",
    "country": "CL",
    "lat": -19.16062,
    "lng": -70.17953
  },
  {
    "name": "Curicó",
    "country": "CL",
    "lat": -34.98279,
    "lng": -71.23943
  },
  {
    "name": "Curanilahue",
    "country": "CL",
    "lat": -37.47793,
    "lng": -73.34495
  },
  {
    "name": "Cuifeng",
    "country": "CN",
    "lat": 36.84517,
    "lng": 111.78172
  },
  {
    "name": "Cuntan",
    "country": "CN",
    "lat": 29.60248,
    "lng": 106.57055
  },
  {
    "name": "Cuijiamatou",
    "country": "CN",
    "lat": 39.07472,
    "lng": 117.30056
  },
  {
    "name": "Cuijiaji",
    "country": "CN",
    "lat": 36.62528,
    "lng": 119.71333
  },
  {
    "name": "Cuihuangkou",
    "country": "CN",
    "lat": 39.52583,
    "lng": 117.18056
  },
  {
    "name": "Cuihua",
    "country": "CN",
    "lat": 27.73766,
    "lng": 103.85738
  },
  {
    "name": "Cuiyun",
    "country": "CN",
    "lat": 29.68817,
    "lng": 106.58852
  },
  {
    "name": "Cunzai",
    "country": "CN",
    "lat": 22.52558,
    "lng": 114.02508
  },
  {
    "name": "Cubarral",
    "country": "CO",
    "lat": 3.79536,
    "lng": -73.84063
  },
  {
    "name": "Curumaní",
    "country": "CO",
    "lat": 9.19992,
    "lng": -73.54274
  },
  {
    "name": "Curití",
    "country": "CO",
    "lat": 6.60519,
    "lng": -73.06809
  },
  {
    "name": "Cunday",
    "country": "CO",
    "lat": 4.06004,
    "lng": -74.69212
  },
  {
    "name": "Cumbitara",
    "country": "CO",
    "lat": 1.64786,
    "lng": -77.57819
  },
  {
    "name": "Cumbal",
    "country": "CO",
    "lat": 0.90875,
    "lng": -77.79145
  },
  {
    "name": "Cumaribo",
    "country": "CO",
    "lat": 4.44552,
    "lng": -69.79897
  },
  {
    "name": "Cumaral",
    "country": "CO",
    "lat": 4.2708,
    "lng": -73.48669
  },
  {
    "name": "Cuítiva",
    "country": "CO",
    "lat": 5.58007,
    "lng": -72.96687
  },
  {
    "name": "Cucutilla",
    "country": "CO",
    "lat": 7.53941,
    "lng": -72.77238
  },
  {
    "name": "Cucunubá",
    "country": "CO",
    "lat": 5.24958,
    "lng": -73.7661
  },
  {
    "name": "Cucaita",
    "country": "CO",
    "lat": 5.54373,
    "lng": -73.45433
  },
  {
    "name": "Cubará",
    "country": "CO",
    "lat": 7.00578,
    "lng": -72.10568
  },
  {
    "name": "Curbaradó",
    "country": "CO",
    "lat": 7.15778,
    "lng": -76.97111
  },
  {
    "name": "Curillo",
    "country": "CO",
    "lat": 1.03327,
    "lng": -75.91907
  },
  {
    "name": "Curridabat",
    "country": "CR",
    "lat": 9.9139,
    "lng": -84.03595
  },
  {
    "name": "Cumanayagua",
    "country": "CU",
    "lat": 22.15247,
    "lng": -80.20354
  },
  {
    "name": "Cueto",
    "country": "CU",
    "lat": 20.64855,
    "lng": -75.92967
  },
  {
    "name": "Cubitas",
    "country": "CU",
    "lat": 21.71212,
    "lng": -77.7613
  },
  {
    "name": "Cuxhaven",
    "country": "DE",
    "lat": 53.86828,
    "lng": 8.69902
  },
  {
    "name": "Cunewalde",
    "country": "DE",
    "lat": 51.1,
    "lng": 14.51667
  },
  {
    "name": "Cuellaje",
    "country": "EC",
    "lat": 0.39824,
    "lng": -78.52654
  },
  {
    "name": "Cuyabeno",
    "country": "EC",
    "lat": -0.26501,
    "lng": -75.89186
  },
  {
    "name": "Curtincapa",
    "country": "EC",
    "lat": -3.73102,
    "lng": -79.54934
  },
  {
    "name": "Cumbayá",
    "country": "EC",
    "lat": -0.19874,
    "lng": -78.43013
  },
  {
    "name": "Cumbaratza",
    "country": "EC",
    "lat": -3.99422,
    "lng": -78.86671
  },
  {
    "name": "Cumandá",
    "country": "EC",
    "lat": -2.20497,
    "lng": -79.1358
  },
  {
    "name": "Cuenca",
    "country": "EC",
    "lat": -2.8953,
    "lng": -78.9963
  },
  {
    "name": "Cubijíes",
    "country": "EC",
    "lat": -1.64471,
    "lng": -78.58815
  },
  {
    "name": "Cube",
    "country": "EC",
    "lat": 0.57364,
    "lng": -79.64418
  },
  {
    "name": "Cuatro de Diciembre",
    "country": "EC",
    "lat": -0.25046,
    "lng": -79.48814
  },
  {
    "name": "Cuyuja",
    "country": "EC",
    "lat": -0.41475,
    "lng": -78.02634
  },
  {
    "name": "Cumbres Mayores",
    "country": "ES",
    "lat": 38.06194,
    "lng": -6.64565
  },
  {
    "name": "Cullera",
    "country": "ES",
    "lat": 39.16667,
    "lng": -0.25
  },
  {
    "name": "Cuevas de San Marcos",
    "country": "ES",
    "lat": 37.26666,
    "lng": -4.41432
  },
  {
    "name": "Cuevas del Campo",
    "country": "ES",
    "lat": 37.60755,
    "lng": -2.92938
  },
  {
    "name": "Cuevas del Becerro",
    "country": "ES",
    "lat": 36.87537,
    "lng": -5.04488
  },
  {
    "name": "Cuevas del Almanzora",
    "country": "ES",
    "lat": 37.29678,
    "lng": -1.88218
  },
  {
    "name": "Cuevas Bajas",
    "country": "ES",
    "lat": 37.23526,
    "lng": -4.48714
  },
  {
    "name": "Cuerva",
    "country": "ES",
    "lat": 39.66374,
    "lng": -4.21085
  },
  {
    "name": "Cuzcurrita de Río Tirón",
    "country": "ES",
    "lat": 42.54151,
    "lng": -2.96421
  },
  {
    "name": "Curtis",
    "country": "ES",
    "lat": 43.12374,
    "lng": -8.14818
  },
  {
    "name": "Curiel de Duero",
    "country": "ES",
    "lat": 41.64327,
    "lng": -4.1011
  },
  {
    "name": "Cuntis",
    "country": "ES",
    "lat": 42.63396,
    "lng": -8.56256
  },
  {
    "name": "Cunit",
    "country": "ES",
    "lat": 41.19829,
    "lng": 1.63645
  },
  {
    "name": "Culleredo",
    "country": "ES",
    "lat": 43.28788,
    "lng": -8.38858
  },
  {
    "name": "Culla",
    "country": "ES",
    "lat": 40.3365,
    "lng": -0.16569
  },
  {
    "name": "Cuevas Labradas",
    "country": "ES",
    "lat": 40.4535,
    "lng": -1.05008
  },
  {
    "name": "Cuevas de Vinromá",
    "country": "ES",
    "lat": 40.30976,
    "lng": 0.12084
  },
  {
    "name": "Cuevas de San Clemente",
    "country": "ES",
    "lat": 42.13009,
    "lng": -3.5684
  },
  {
    "name": "Cuevas de Provanco",
    "country": "ES",
    "lat": 41.54209,
    "lng": -3.96203
  },
  {
    "name": "Cuevas del Valle",
    "country": "ES",
    "lat": 40.29418,
    "lng": -5.00938
  },
  {
    "name": "Cuevas de Almudén",
    "country": "ES",
    "lat": 40.71342,
    "lng": -0.82958
  },
  {
    "name": "Cueva del Hierro",
    "country": "ES",
    "lat": 40.58258,
    "lng": -2.03612
  },
  {
    "name": "Cueva de Ágreda",
    "country": "ES",
    "lat": 41.7631,
    "lng": -1.88818
  },
  {
    "name": "Cuenca de Campos",
    "country": "ES",
    "lat": 42.05927,
    "lng": -5.05539
  },
  {
    "name": "Cuenca",
    "country": "ES",
    "lat": 40.06667,
    "lng": -2.13333
  },
  {
    "name": "Cuéllar",
    "country": "ES",
    "lat": 41.40155,
    "lng": -4.31474
  },
  {
    "name": "Cuelgamures",
    "country": "ES",
    "lat": 41.30738,
    "lng": -5.65769
  },
  {
    "name": "Cudillero",
    "country": "ES",
    "lat": 43.56217,
    "lng": -6.14589
  },
  {
    "name": "Cucalón",
    "country": "ES",
    "lat": 41.08608,
    "lng": -1.21475
  },
  {
    "name": "Cubo de la Solana",
    "country": "ES",
    "lat": 41.60224,
    "lng": -2.42179
  },
  {
    "name": "Cubo de Bureba",
    "country": "ES",
    "lat": 42.64011,
    "lng": -3.20626
  },
  {
    "name": "Cubo de Benavente",
    "country": "ES",
    "lat": 42.1249,
    "lng": -6.16342
  },
  {
    "name": "Cubla",
    "country": "ES",
    "lat": 40.20978,
    "lng": -1.07917
  },
  {
    "name": "Cubillos del Sil",
    "country": "ES",
    "lat": 42.62519,
    "lng": -6.5636
  },
  {
    "name": "Cubillos",
    "country": "ES",
    "lat": 41.57436,
    "lng": -5.7392
  },
  {
    "name": "Cubillo del Campo",
    "country": "ES",
    "lat": 42.16854,
    "lng": -3.61025
  },
  {
    "name": "Cubillo",
    "country": "ES",
    "lat": 41.12138,
    "lng": -3.90878
  },
  {
    "name": "Cubillas de Santa Marta",
    "country": "ES",
    "lat": 41.83358,
    "lng": -4.61463
  },
  {
    "name": "Cubillas de Rueda",
    "country": "ES",
    "lat": 42.65626,
    "lng": -5.17528
  },
  {
    "name": "Cubillas de los Oteros",
    "country": "ES",
    "lat": 42.37199,
    "lng": -5.50877
  },
  {
    "name": "Cubillas de Cerrato",
    "country": "ES",
    "lat": 41.79844,
    "lng": -4.4672
  },
  {
    "name": "Cubilla",
    "country": "ES",
    "lat": 41.74905,
    "lng": -2.93717
  },
  {
    "name": "Cubells",
    "country": "ES",
    "lat": 41.85062,
    "lng": 0.959
  },
  {
    "name": "Cubelles",
    "country": "ES",
    "lat": 41.20772,
    "lng": 1.67267
  },
  {
    "name": "Cubel",
    "country": "ES",
    "lat": 41.09604,
    "lng": -1.63729
  },
  {
    "name": "Cubas",
    "country": "ES",
    "lat": 40.189,
    "lng": -3.83526
  },
  {
    "name": "Cuatro Vientos",
    "country": "ES",
    "lat": 40.371,
    "lng": -3.77372
  },
  {
    "name": "Cuarte de Huerva",
    "country": "ES",
    "lat": 41.59466,
    "lng": -0.93268
  },
  {
    "name": "Cualedro",
    "country": "ES",
    "lat": 41.98897,
    "lng": -7.59464
  },
  {
    "name": "Cuadros",
    "country": "ES",
    "lat": 42.71163,
    "lng": -5.63828
  },
  {
    "name": "Cuatro Caminos",
    "country": "ES",
    "lat": 40.44682,
    "lng": -3.70347
  },
  {
    "name": "Cuzieu",
    "country": "FR",
    "lat": 45.60764,
    "lng": 4.25761
  },
  {
    "name": "Cuxac-Cabardès",
    "country": "FR",
    "lat": 43.37081,
    "lng": 2.28324
  },
  {
    "name": "Cuverville",
    "country": "FR",
    "lat": 49.18998,
    "lng": -0.26474
  },
  {
    "name": "Cuttoli-Corticchiato",
    "country": "FR",
    "lat": 41.98333,
    "lng": 8.91667
  },
  {
    "name": "Cusy",
    "country": "FR",
    "lat": 45.76603,
    "lng": 6.02825
  },
  {
    "name": "Custines",
    "country": "FR",
    "lat": 48.79127,
    "lng": 6.14461
  },
  {
    "name": "Cusset",
    "country": "FR",
    "lat": 46.13452,
    "lng": 3.45639
  },
  {
    "name": "Cussac",
    "country": "FR",
    "lat": 45.70677,
    "lng": 0.84974
  },
  {
    "name": "Cussac-Fort-Médoc",
    "country": "FR",
    "lat": 45.11667,
    "lng": -0.73333
  },
  {
    "name": "Cussac-sur-Loire",
    "country": "FR",
    "lat": 44.98807,
    "lng": 3.88416
  },
  {
    "name": "Curtin",
    "country": "FR",
    "lat": 45.64353,
    "lng": 5.48982
  },
  {
    "name": "Curgy",
    "country": "FR",
    "lat": 46.98714,
    "lng": 4.38452
  },
  {
    "name": "Curgies",
    "country": "FR",
    "lat": 50.32975,
    "lng": 3.60299
  },
  {
    "name": "Cunlhat",
    "country": "FR",
    "lat": 45.63198,
    "lng": 3.55927
  },
  {
    "name": "Cunac",
    "country": "FR",
    "lat": 43.92846,
    "lng": 2.22052
  },
  {
    "name": "Culoz",
    "country": "FR",
    "lat": 45.84886,
    "lng": 5.78537
  },
  {
    "name": "Culhat",
    "country": "FR",
    "lat": 45.86259,
    "lng": 3.33676
  },
  {
    "name": "Cuisiat",
    "country": "FR",
    "lat": 46.30021,
    "lng": 5.38809
  },
  {
    "name": "Cuisery",
    "country": "FR",
    "lat": 46.55696,
    "lng": 4.99797
  },
  {
    "name": "Cuise-la-Motte",
    "country": "FR",
    "lat": 49.38642,
    "lng": 3.00588
  },
  {
    "name": "Cuiseaux",
    "country": "FR",
    "lat": 46.49473,
    "lng": 5.38931
  },
  {
    "name": "Cuincy",
    "country": "FR",
    "lat": 50.37933,
    "lng": 3.05301
  },
  {
    "name": "Cuinchy",
    "country": "FR",
    "lat": 50.5175,
    "lng": 2.7488
  },
  {
    "name": "Cugnaux",
    "country": "FR",
    "lat": 43.53635,
    "lng": 1.34428
  },
  {
    "name": "Cuges-les-Pins",
    "country": "FR",
    "lat": 43.27607,
    "lng": 5.69955
  },
  {
    "name": "Cugand",
    "country": "FR",
    "lat": 47.06353,
    "lng": -1.25463
  },
  {
    "name": "Cuffy",
    "country": "FR",
    "lat": 46.96275,
    "lng": 3.05238
  },
  {
    "name": "Cuffies",
    "country": "FR",
    "lat": 49.40358,
    "lng": 3.32119
  },
  {
    "name": "Cuers",
    "country": "FR",
    "lat": 43.23754,
    "lng": 6.07178
  },
  {
    "name": "Cucuron",
    "country": "FR",
    "lat": 43.77298,
    "lng": 5.43858
  },
  {
    "name": "Cucq",
    "country": "FR",
    "lat": 50.47733,
    "lng": 1.62018
  },
  {
    "name": "Cubzac-les-Ponts",
    "country": "FR",
    "lat": 44.97117,
    "lng": -0.45364
  },
  {
    "name": "Cublize",
    "country": "FR",
    "lat": 46.0181,
    "lng": 4.37738
  },
  {
    "name": "Cublac",
    "country": "FR",
    "lat": 45.14488,
    "lng": 1.30609
  },
  {
    "name": "Cuxton",
    "country": "GB",
    "lat": 51.3743,
    "lng": 0.45688
  },
  {
    "name": "Cushendall",
    "country": "GB",
    "lat": 55.08033,
    "lng": -6.06291
  },
  {
    "name": "Curry Rivel",
    "country": "GB",
    "lat": 51.02306,
    "lng": -2.86753
  },
  {
    "name": "Currie",
    "country": "GB",
    "lat": 55.8964,
    "lng": -3.30845
  },
  {
    "name": "Cupar",
    "country": "GB",
    "lat": 56.31876,
    "lng": -3.01204
  },
  {
    "name": "Cumnock",
    "country": "GB",
    "lat": 55.45445,
    "lng": -4.26644
  },
  {
    "name": "Cumbernauld",
    "country": "GB",
    "lat": 55.94685,
    "lng": -3.99051
  },
  {
    "name": "Cults",
    "country": "GB",
    "lat": 57.11667,
    "lng": -2.16667
  },
  {
    "name": "Culmore",
    "country": "GB",
    "lat": 55.05,
    "lng": -7.26667
  },
  {
    "name": "Cullybackey",
    "country": "GB",
    "lat": 54.88875,
    "lng": -6.34701
  },
  {
    "name": "Cullompton",
    "country": "GB",
    "lat": 50.8553,
    "lng": -3.39268
  },
  {
    "name": "Cullingworth",
    "country": "GB",
    "lat": 53.82444,
    "lng": -1.8973
  },
  {
    "name": "Cullen",
    "country": "GB",
    "lat": 57.69045,
    "lng": -2.81818
  },
  {
    "name": "Culcheth",
    "country": "GB",
    "lat": 53.4511,
    "lng": -2.52104
  },
  {
    "name": "Cuffley",
    "country": "GB",
    "lat": 51.70799,
    "lng": -0.11209
  },
  {
    "name": "Cudworth",
    "country": "GB",
    "lat": 53.57131,
    "lng": -1.41595
  },
  {
    "name": "Cuddington",
    "country": "GB",
    "lat": 53.24488,
    "lng": -2.61879
  },
  {
    "name": "Cuckfield",
    "country": "GB",
    "lat": 51.01073,
    "lng": -0.14068
  },
  {
    "name": "Culverstone Green",
    "country": "GB",
    "lat": 51.34085,
    "lng": 0.34686
  },
  {
    "name": "Curdworth",
    "country": "GB",
    "lat": 52.53382,
    "lng": -1.73687
  },
  {
    "name": "Culloden",
    "country": "GB",
    "lat": 57.48699,
    "lng": -4.1415
  },
  {
    "name": "Cunningham",
    "country": "GB",
    "lat": 51.74307,
    "lng": -0.3127
  },
  {
    "name": "Cuyotenango",
    "country": "GT",
    "lat": 14.54006,
    "lng": -91.57179
  },
  {
    "name": "Cunén",
    "country": "GT",
    "lat": 15.33626,
    "lng": -91.02776
  },
  {
    "name": "Cuilco",
    "country": "GT",
    "lat": 15.40719,
    "lng": -91.94667
  },
  {
    "name": "Cuilapa",
    "country": "GT",
    "lat": 14.27537,
    "lng": -90.29865
  },
  {
    "name": "Cubulco",
    "country": "GT",
    "lat": 15.10452,
    "lng": -90.62871
  },
  {
    "name": "Cullinan West",
    "country": "HK",
    "lat": 22.32702,
    "lng": 114.15409
  },
  {
    "name": "Cuyamel",
    "country": "HN",
    "lat": 15.66505,
    "lng": -88.19478
  },
  {
    "name": "Cuyalí",
    "country": "HN",
    "lat": 13.88333,
    "lng": -86.55
  },
  {
    "name": "Cusuna",
    "country": "HN",
    "lat": 15.85,
    "lng": -85.23333
  },
  {
    "name": "Cucuyagua",
    "country": "HN",
    "lat": 14.64777,
    "lng": -88.87385
  },
  {
    "name": "Curup",
    "country": "ID",
    "lat": -3.4703,
    "lng": 102.5207
  },
  {
    "name": "Curug",
    "country": "ID",
    "lat": -6.26583,
    "lng": 106.55639
  },
  {
    "name": "Curug",
    "country": "ID",
    "lat": -5.9813,
    "lng": 106.0193
  },
  {
    "name": "Cumbum",
    "country": "IN",
    "lat": 9.73647,
    "lng": 77.2847
  },
  {
    "name": "Cuttack",
    "country": "IN",
    "lat": 20.46497,
    "lng": 85.87927
  },
  {
    "name": "Curtorim",
    "country": "IN",
    "lat": 15.27563,
    "lng": 74.02158
  },
  {
    "name": "Curti",
    "country": "IN",
    "lat": 15.41667,
    "lng": 74.01667
  },
  {
    "name": "Curchorem",
    "country": "IN",
    "lat": 15.26349,
    "lng": 74.10875
  },
  {
    "name": "Cuncolim",
    "country": "IN",
    "lat": 15.1773,
    "lng": 73.99392
  },
  {
    "name": "Cumbum",
    "country": "IN",
    "lat": 15.58171,
    "lng": 79.11059
  },
  {
    "name": "Cuddalore",
    "country": "IN",
    "lat": 11.75617,
    "lng": 79.76693
  },
  {
    "name": "Cumbarjua",
    "country": "IN",
    "lat": 15.51598,
    "lng": 73.94678
  },
  {
    "name": "Cutro",
    "country": "IT",
    "lat": 39.03484,
    "lng": 16.98658
  },
  {
    "name": "Custonaci",
    "country": "IT",
    "lat": 38.07931,
    "lng": 12.68571
  },
  {
    "name": "Curinga",
    "country": "IT",
    "lat": 38.82811,
    "lng": 16.31344
  },
  {
    "name": "Curcuris",
    "country": "IT",
    "lat": 39.74625,
    "lng": 8.83154
  },
  {
    "name": "Cursolo",
    "country": "IT",
    "lat": 46.09858,
    "lng": 8.56822
  },
  {
    "name": "Cutrofiano",
    "country": "IT",
    "lat": 40.12616,
    "lng": 18.2026
  },
  {
    "name": "Cutigliano",
    "country": "IT",
    "lat": 44.10059,
    "lng": 10.75617
  },
  {
    "name": "Cusio",
    "country": "IT",
    "lat": 45.99089,
    "lng": 9.60175
  },
  {
    "name": "Cusercoli",
    "country": "IT",
    "lat": 44.04514,
    "lng": 12.0074
  },
  {
    "name": "Cusano Mutri",
    "country": "IT",
    "lat": 41.33624,
    "lng": 14.51013
  },
  {
    "name": "Cusano",
    "country": "IT",
    "lat": 45.55187,
    "lng": 9.18373
  },
  {
    "name": "Curtarolo",
    "country": "IT",
    "lat": 45.52366,
    "lng": 11.83691
  },
  {
    "name": "Cursi",
    "country": "IT",
    "lat": 40.14847,
    "lng": 18.31605
  },
  {
    "name": "Curon Venosta",
    "country": "IT",
    "lat": 46.80832,
    "lng": 10.54265
  },
  {
    "name": "Curno",
    "country": "IT",
    "lat": 45.68876,
    "lng": 9.60872
  },
  {
    "name": "Curiglia",
    "country": "IT",
    "lat": 46.06065,
    "lng": 8.80484
  },
  {
    "name": "Cupramontana",
    "country": "IT",
    "lat": 43.44975,
    "lng": 13.11312
  },
  {
    "name": "Cupra Marittima",
    "country": "IT",
    "lat": 43.01905,
    "lng": 13.86171
  },
  {
    "name": "Cupello",
    "country": "IT",
    "lat": 42.06936,
    "lng": 14.67054
  },
  {
    "name": "Cuorgnè",
    "country": "IT",
    "lat": 45.39341,
    "lng": 7.65015
  },
  {
    "name": "Cunico",
    "country": "IT",
    "lat": 45.0405,
    "lng": 8.09554
  },
  {
    "name": "Cuneo",
    "country": "IT",
    "lat": 44.39071,
    "lng": 7.54828
  },
  {
    "name": "Cumignano sul Naviglio",
    "country": "IT",
    "lat": 45.35459,
    "lng": 9.83621
  },
  {
    "name": "Cumiana",
    "country": "IT",
    "lat": 44.97629,
    "lng": 7.37761
  },
  {
    "name": "Cugnoli",
    "country": "IT",
    "lat": 42.30692,
    "lng": 13.9349
  },
  {
    "name": "Cuglieri",
    "country": "IT",
    "lat": 40.18804,
    "lng": 8.56806
  },
  {
    "name": "Cuggiono",
    "country": "IT",
    "lat": 45.50683,
    "lng": 8.8155
  },
  {
    "name": "Cuceglio",
    "country": "IT",
    "lat": 45.35853,
    "lng": 7.81588
  },
  {
    "name": "Cuccurano",
    "country": "IT",
    "lat": 43.79311,
    "lng": 12.95927
  },
  {
    "name": "Cuccaro Vetere",
    "country": "IT",
    "lat": 40.16404,
    "lng": 15.30677
  },
  {
    "name": "Curino",
    "country": "IT",
    "lat": 45.62717,
    "lng": 8.23622
  },
  {
    "name": "Cuccaro Monferrato",
    "country": "IT",
    "lat": 44.99365,
    "lng": 8.45754
  },
  {
    "name": "Cuasso al Monte",
    "country": "IT",
    "lat": 45.91478,
    "lng": 8.87923
  },
  {
    "name": "Cugliate-Fabiasco",
    "country": "IT",
    "lat": 45.94568,
    "lng": 8.81863
  },
  {
    "name": "Cunardo",
    "country": "IT",
    "lat": 45.93428,
    "lng": 8.80773
  },
  {
    "name": "Cunevo",
    "country": "IT",
    "lat": 46.28641,
    "lng": 11.03457
  },
  {
    "name": "Cuveglio",
    "country": "IT",
    "lat": 45.90608,
    "lng": 8.73333
  },
  {
    "name": "Cuvio",
    "country": "IT",
    "lat": 45.89618,
    "lng": 8.73413
  },
  {
    "name": "Cucciago",
    "country": "IT",
    "lat": 45.73928,
    "lng": 9.09294
  },
  {
    "name": "Cusino",
    "country": "IT",
    "lat": 46.07489,
    "lng": 9.15264
  },
  {
    "name": "Cureggio",
    "country": "IT",
    "lat": 45.67487,
    "lng": 8.45973
  },
  {
    "name": "Curti",
    "country": "IT",
    "lat": 41.07616,
    "lng": 14.28039
  },
  {
    "name": "Cusago",
    "country": "IT",
    "lat": 45.44997,
    "lng": 9.03744
  },
  {
    "name": "Cura Carpignano",
    "country": "IT",
    "lat": 45.21247,
    "lng": 9.25565
  },
  {
    "name": "Cuasso al Piano",
    "country": "IT",
    "lat": 45.89454,
    "lng": 8.87951
  },
  {
    "name": "Cunettone-Villa",
    "country": "IT",
    "lat": 45.58789,
    "lng": 10.51756
  },
  {
    "name": "Curepipe",
    "country": "MU",
    "lat": -20.31628,
    "lng": 57.52594
  },
  {
    "name": "Cuauhtémoc",
    "country": "MX",
    "lat": 22.54501,
    "lng": -98.15139
  },
  {
    "name": "Cuautitlán Izcalli",
    "country": "MX",
    "lat": 19.64388,
    "lng": -99.21598
  },
  {
    "name": "Cuicatlan",
    "country": "MX",
    "lat": 17.80272,
    "lng": -96.95939
  },
  {
    "name": "Cuecuecuatitla",
    "country": "MX",
    "lat": 19.01349,
    "lng": -98.84351
  },
  {
    "name": "Cuautempan",
    "country": "MX",
    "lat": 19.9138,
    "lng": -97.79498
  },
  {
    "name": "Cuaxomulco",
    "country": "MX",
    "lat": 19.35264,
    "lng": -98.0967
  },
  {
    "name": "Cuzama",
    "country": "MX",
    "lat": 20.74202,
    "lng": -89.31732
  },
  {
    "name": "Cuyoaco",
    "country": "MX",
    "lat": 19.60192,
    "lng": -97.62024
  },
  {
    "name": "Cupilco",
    "country": "MX",
    "lat": 18.23776,
    "lng": -93.1273
  },
  {
    "name": "Cunduacán",
    "country": "MX",
    "lat": 18.06557,
    "lng": -93.17302
  },
  {
    "name": "Cuncunul",
    "country": "MX",
    "lat": 20.64049,
    "lng": -88.29748
  },
  {
    "name": "Cumpich",
    "country": "MX",
    "lat": 20.18612,
    "lng": -89.97081
  },
  {
    "name": "Cuitláhuac",
    "country": "MX",
    "lat": 18.81429,
    "lng": -96.72281
  },
  {
    "name": "Cuilapan de Guerrero",
    "country": "MX",
    "lat": 16.97756,
    "lng": -96.78081
  },
  {
    "name": "Cuichapa",
    "country": "MX",
    "lat": 18.7715,
    "lng": -96.8689
  },
  {
    "name": "Cuexpala",
    "country": "MX",
    "lat": 18.6272,
    "lng": -98.55842
  },
  {
    "name": "Cuetzalan",
    "country": "MX",
    "lat": 20.01766,
    "lng": -97.52277
  },
  {
    "name": "Cuetzala del Progreso",
    "country": "MX",
    "lat": 18.13472,
    "lng": -99.8319
  },
  {
    "name": "Cuernavaca",
    "country": "MX",
    "lat": 18.9261,
    "lng": -99.23075
  },
  {
    "name": "Cuentepec",
    "country": "MX",
    "lat": 18.86159,
    "lng": -99.32611
  },
  {
    "name": "Cucuyulapa",
    "country": "MX",
    "lat": 17.99089,
    "lng": -93.25591
  },
  {
    "name": "Cuautotola",
    "country": "MX",
    "lat": 20.06841,
    "lng": -97.79806
  },
  {
    "name": "Cuautlapán",
    "country": "MX",
    "lat": 18.87747,
    "lng": -97.02291
  },
  {
    "name": "Cuautlancingo",
    "country": "MX",
    "lat": 19.08995,
    "lng": -98.27319
  },
  {
    "name": "Cuautla",
    "country": "MX",
    "lat": 18.8106,
    "lng": -98.93525
  },
  {
    "name": "Cuautitlán",
    "country": "MX",
    "lat": 19.67052,
    "lng": -99.17989
  },
  {
    "name": "Cuautinchán",
    "country": "MX",
    "lat": 18.95463,
    "lng": -98.01566
  },
  {
    "name": "Cuautepec de Hinojosa",
    "country": "MX",
    "lat": 20.03557,
    "lng": -98.31015
  },
  {
    "name": "Cuautepec",
    "country": "MX",
    "lat": 16.75004,
    "lng": -99.0024
  },
  {
    "name": "Cuauchichinola",
    "country": "MX",
    "lat": 18.66389,
    "lng": -99.37583
  },
  {
    "name": "Cuatolol",
    "country": "MX",
    "lat": 21.11967,
    "lng": -98.82563
  },
  {
    "name": "Cuapiaxtla de Madero",
    "country": "MX",
    "lat": 18.91544,
    "lng": -97.82382
  },
  {
    "name": "Cuapiaxtla",
    "country": "MX",
    "lat": 19.29588,
    "lng": -97.7688
  },
  {
    "name": "Cuanalá",
    "country": "MX",
    "lat": 19.10917,
    "lng": -98.32788
  },
  {
    "name": "Cualác",
    "country": "MX",
    "lat": 17.7435,
    "lng": -98.66039
  },
  {
    "name": "Cuajinicuilapa",
    "country": "MX",
    "lat": 16.47347,
    "lng": -98.41389
  },
  {
    "name": "Cuacnopalan",
    "country": "MX",
    "lat": 18.81758,
    "lng": -97.51116
  },
  {
    "name": "Cuauhtempan (San Andrés Cuauhtempan)",
    "country": "MX",
    "lat": 18.97472,
    "lng": -98.94639
  },
  {
    "name": "Cuauhtémoc",
    "country": "MX",
    "lat": 17.10149,
    "lng": -94.88532
  },
  {
    "name": "Cumuapa 1ra. Sección",
    "country": "MX",
    "lat": 17.98519,
    "lng": -93.13806
  },
  {
    "name": "Cuazahuatl",
    "country": "MX",
    "lat": 21.01637,
    "lng": -98.88691
  },
  {
    "name": "Cuapaxtitla",
    "country": "MX",
    "lat": 21.13292,
    "lng": -98.55264
  },
  {
    "name": "Cuauhtémoc",
    "country": "MX",
    "lat": 16.55,
    "lng": -93.71611
  },
  {
    "name": "Cuauhtémoc",
    "country": "MX",
    "lat": 16.31449,
    "lng": -93.21049
  },
  {
    "name": "Cuautlacingo",
    "country": "MX",
    "lat": 19.69405,
    "lng": -98.78385
  },
  {
    "name": "Cuacuila",
    "country": "MX",
    "lat": 20.17205,
    "lng": -98.0315
  },
  {
    "name": "Cuesta Blanca",
    "country": "MX",
    "lat": 18.84536,
    "lng": -97.46753
  },
  {
    "name": "Cuauhtenango",
    "country": "MX",
    "lat": 17.54625,
    "lng": -99.20683
  },
  {
    "name": "Cuyuxtlahuaca",
    "country": "MX",
    "lat": 17.48213,
    "lng": -98.34456
  },
  {
    "name": "Cuanacaxtitlán",
    "country": "MX",
    "lat": 16.79953,
    "lng": -98.63992
  },
  {
    "name": "Cuch Holoch",
    "country": "MX",
    "lat": 20.43558,
    "lng": -90.09807
  },
  {
    "name": "Cuiyachapa",
    "country": "MX",
    "lat": 19.04569,
    "lng": -97.17436
  },
  {
    "name": "Cucharas",
    "country": "MX",
    "lat": 21.61568,
    "lng": -97.66099
  },
  {
    "name": "Cuadrilla Vieja",
    "country": "MX",
    "lat": 19.51205,
    "lng": -99.98692
  },
  {
    "name": "Cuendo",
    "country": "MX",
    "lat": 19.80028,
    "lng": -99.94778
  },
  {
    "name": "Cuauhtémoc",
    "country": "MX",
    "lat": 19.44506,
    "lng": -99.14612
  },
  {
    "name": "Cubiri de Portelas",
    "country": "MX",
    "lat": 25.78651,
    "lng": -108.26044
  },
  {
    "name": "Cualata",
    "country": "MX",
    "lat": 19.01076,
    "lng": -104.11049
  },
  {
    "name": "Curungueo",
    "country": "MX",
    "lat": 19.46459,
    "lng": -100.3434
  },
  {
    "name": "Cuxpala",
    "country": "MX",
    "lat": 20.55972,
    "lng": -103.64442
  },
  {
    "name": "Cutzamala de Pinzón",
    "country": "MX",
    "lat": 18.46783,
    "lng": -100.58089
  },
  {
    "name": "Cusihuiriachi",
    "country": "MX",
    "lat": 28.24151,
    "lng": -106.83651
  },
  {
    "name": "Curimeo",
    "country": "MX",
    "lat": 20.02043,
    "lng": -101.69534
  },
  {
    "name": "Cuquío",
    "country": "MX",
    "lat": 20.92757,
    "lng": -103.02393
  },
  {
    "name": "Cupareo",
    "country": "MX",
    "lat": 20.22876,
    "lng": -101.01806
  },
  {
    "name": "Cumuato",
    "country": "MX",
    "lat": 20.25724,
    "lng": -102.5906
  },
  {
    "name": "Cumpas",
    "country": "MX",
    "lat": 29.9948,
    "lng": -109.78037
  },
  {
    "name": "Culiacancito",
    "country": "MX",
    "lat": 24.82492,
    "lng": -107.53444
  },
  {
    "name": "Culiacán",
    "country": "MX",
    "lat": 24.80209,
    "lng": -107.39421
  },
  {
    "name": "Cuitzeo del Porvenir",
    "country": "MX",
    "lat": 19.97025,
    "lng": -101.1429
  },
  {
    "name": "Cuitzeo (La Estancia)",
    "country": "MX",
    "lat": 20.34278,
    "lng": -102.78389
  },
  {
    "name": "Cuisillos",
    "country": "MX",
    "lat": 20.60938,
    "lng": -103.77604
  },
  {
    "name": "Cuexcomatitlán",
    "country": "MX",
    "lat": 20.4281,
    "lng": -103.36189
  },
  {
    "name": "Cuerámaro",
    "country": "MX",
    "lat": 20.62546,
    "lng": -101.67242
  },
  {
    "name": "Cuencamé de Ceniceros",
    "country": "MX",
    "lat": 24.87116,
    "lng": -103.69731
  },
  {
    "name": "Cucurpe",
    "country": "MX",
    "lat": 30.33073,
    "lng": -110.70534
  },
  {
    "name": "Cucuchucho",
    "country": "MX",
    "lat": 19.58275,
    "lng": -101.63111
  },
  {
    "name": "Cuautla",
    "country": "MX",
    "lat": 20.20139,
    "lng": -104.4075
  },
  {
    "name": "Cuautitlán",
    "country": "MX",
    "lat": 19.45189,
    "lng": -104.35846
  },
  {
    "name": "Cuauhtémoc",
    "country": "MX",
    "lat": 28.40688,
    "lng": -106.86658
  },
  {
    "name": "Cuauhtémoc",
    "country": "MX",
    "lat": 24.2905,
    "lng": -103.8087
  },
  {
    "name": "Cuauhtémoc",
    "country": "MX",
    "lat": 19.32861,
    "lng": -103.60284
  },
  {
    "name": "Cuatro Ciénegas de Carranza",
    "country": "MX",
    "lat": 26.98542,
    "lng": -102.06386
  },
  {
    "name": "Cuaracurío",
    "country": "MX",
    "lat": 20.06102,
    "lng": -101.14774
  },
  {
    "name": "Cuanajo",
    "country": "MX",
    "lat": 19.48485,
    "lng": -101.50794
  },
  {
    "name": "Cuamio",
    "country": "MX",
    "lat": 20.0339,
    "lng": -101.15167
  },
  {
    "name": "Cuamiles",
    "country": "MX",
    "lat": 21.92347,
    "lng": -105.25405
  },
  {
    "name": "Cuesta de Peñones",
    "country": "MX",
    "lat": 21.084,
    "lng": -100.23671
  },
  {
    "name": "Cuchicuato",
    "country": "MX",
    "lat": 20.66092,
    "lng": -101.46203
  },
  {
    "name": "Cuparátaro",
    "country": "MX",
    "lat": 19.85071,
    "lng": -101.08903
  },
  {
    "name": "Cuto del Porvenir",
    "country": "MX",
    "lat": 19.86976,
    "lng": -101.14339
  },
  {
    "name": "Cuatro Caminos",
    "country": "MX",
    "lat": 18.98826,
    "lng": -102.1036
  },
  {
    "name": "Cuadrilla de Dolores",
    "country": "MX",
    "lat": 19.14,
    "lng": -100.06944
  },
  {
    "name": "Cuyutlán",
    "country": "MX",
    "lat": 18.9192,
    "lng": -104.06969
  },
  {
    "name": "Cuichapa",
    "country": "MX",
    "lat": 17.93889,
    "lng": -94.28
  },
  {
    "name": "Cuarta Brigada",
    "country": "MX",
    "lat": 20.62194,
    "lng": -101.28001
  },
  {
    "name": "Cuauhtémoc (Campo Cinco)",
    "country": "MX",
    "lat": 27.43333,
    "lng": -110.01667
  },
  {
    "name": "Cuatzoquitengo",
    "country": "MX",
    "lat": 17.28822,
    "lng": -98.61523
  },
  {
    "name": "Cuaxuxpa",
    "country": "MX",
    "lat": 18.46211,
    "lng": -97.03556
  },
  {
    "name": "Cuautotolapan (San José)",
    "country": "MX",
    "lat": 18.43299,
    "lng": -97.12091
  },
  {
    "name": "Cuonetzingo",
    "country": "MX",
    "lat": 17.52722,
    "lng": -99.26583
  },
  {
    "name": "Cuaxoxpan",
    "country": "MX",
    "lat": 19.80806,
    "lng": -97.34583
  },
  {
    "name": "Cuauhtamingo",
    "country": "MX",
    "lat": 19.76472,
    "lng": -97.31417
  },
  {
    "name": "Cuauhtémoc",
    "country": "MX",
    "lat": 19.22306,
    "lng": -97.33833
  },
  {
    "name": "Cumbres III",
    "country": "MX",
    "lat": 21.92222,
    "lng": -102.2375
  },
  {
    "name": "Cuchulumtic",
    "country": "MX",
    "lat": 16.77722,
    "lng": -92.70417
  },
  {
    "name": "Cuapinolito (Azulillo)",
    "country": "MX",
    "lat": 15.82194,
    "lng": -96.31833
  },
  {
    "name": "Cuatro Caminos",
    "country": "MX",
    "lat": 18.4913,
    "lng": -97.12901
  },
  {
    "name": "Cumbre de Barranca Honda",
    "country": "MX",
    "lat": 16.73167,
    "lng": -98.33667
  },
  {
    "name": "Cuesta de Laja",
    "country": "MX",
    "lat": 18.29333,
    "lng": -95.22111
  },
  {
    "name": "Cuesta Amarilla",
    "country": "MX",
    "lat": 18.34667,
    "lng": -95.23389
  },
  {
    "name": "Cupuán del Río",
    "country": "MX",
    "lat": 18.77806,
    "lng": -102.18778
  },
  {
    "name": "Cuauhtamazaco",
    "country": "MX",
    "lat": 20.025,
    "lng": -97.48722
  },
  {
    "name": "Cuartel la Mesa (El Asoleadero)",
    "country": "MX",
    "lat": 19.56972,
    "lng": -100.28694
  },
  {
    "name": "Cuto de la Esperanza",
    "country": "MX",
    "lat": 19.73083,
    "lng": -101.34028
  },
  {
    "name": "Cukai",
    "country": "MY",
    "lat": 4.25,
    "lng": 103.41667
  },
  {
    "name": "Cuamba",
    "country": "MZ",
    "lat": -14.80306,
    "lng": 36.53722
  },
  {
    "name": "Cuapa",
    "country": "NI",
    "lat": 12.26875,
    "lng": -85.38205
  },
  {
    "name": "Culemborg",
    "country": "NL",
    "lat": 51.955,
    "lng": 5.22778
  },
  {
    "name": "Cuijk",
    "country": "NL",
    "lat": 51.73083,
    "lng": 5.87917
  },
  {
    "name": "Curundú",
    "country": "PA",
    "lat": 8.97092,
    "lng": -79.54612
  },
  {
    "name": "Cuipo",
    "country": "PA",
    "lat": 9.08048,
    "lng": -80.05391
  },
  {
    "name": "Cucunatí",
    "country": "PA",
    "lat": 8.57906,
    "lng": -78.25579
  },
  {
    "name": "Cuango",
    "country": "PA",
    "lat": 9.56872,
    "lng": -79.31065
  },
  {
    "name": "Cutervo",
    "country": "PE",
    "lat": -6.36667,
    "lng": -78.85
  },
  {
    "name": "Cusca",
    "country": "PE",
    "lat": -8.51313,
    "lng": -77.86471
  },
  {
    "name": "Curgos",
    "country": "PE",
    "lat": -7.85972,
    "lng": -77.94333
  },
  {
    "name": "Cumba",
    "country": "PE",
    "lat": -5.93306,
    "lng": -78.66278
  },
  {
    "name": "Cujillo",
    "country": "PE",
    "lat": -6.11667,
    "lng": -78.53333
  },
  {
    "name": "Cuispes",
    "country": "PE",
    "lat": -5.91667,
    "lng": -77.93333
  },
  {
    "name": "Cuñumbuqui",
    "country": "PE",
    "lat": -6.51111,
    "lng": -76.48
  },
  {
    "name": "Cuyocuyo",
    "country": "PE",
    "lat": -14.47139,
    "lng": -69.53722
  },
  {
    "name": "Cusipata",
    "country": "PE",
    "lat": -13.90662,
    "lng": -71.50284
  },
  {
    "name": "Cusco",
    "country": "PE",
    "lat": -13.53188,
    "lng": -71.96701
  },
  {
    "name": "Curibaya",
    "country": "PE",
    "lat": -17.38135,
    "lng": -70.3345
  },
  {
    "name": "Curasco",
    "country": "PE",
    "lat": -14.06169,
    "lng": -72.56745
  },
  {
    "name": "Curahuasi",
    "country": "PE",
    "lat": -13.55,
    "lng": -72.7
  },
  {
    "name": "Cupi",
    "country": "PE",
    "lat": -14.9056,
    "lng": -70.86659
  },
  {
    "name": "Cullhuas",
    "country": "PE",
    "lat": -12.22282,
    "lng": -75.17179
  },
  {
    "name": "Cuenca",
    "country": "PE",
    "lat": -12.43317,
    "lng": -75.03866
  },
  {
    "name": "Cuchumbaya",
    "country": "PE",
    "lat": -16.751,
    "lng": -70.68593
  },
  {
    "name": "Curpahuasi",
    "country": "PE",
    "lat": -14.06355,
    "lng": -72.6703
  },
  {
    "name": "Cullcuyre",
    "country": "PE",
    "lat": -14.09272,
    "lng": -71.33119
  },
  {
    "name": "Curimaná",
    "country": "PE",
    "lat": -8.4341,
    "lng": -75.15296
  },
  {
    "name": "Cumadcad",
    "country": "PH",
    "lat": 12.98056,
    "lng": 123.78917
  },
  {
    "name": "Culit",
    "country": "PH",
    "lat": 8.94722,
    "lng": 125.35694
  },
  {
    "name": "Cuyo",
    "country": "PH",
    "lat": 10.8525,
    "lng": 121.00861
  },
  {
    "name": "Cuyapo",
    "country": "PH",
    "lat": 15.78194,
    "lng": 120.66472
  },
  {
    "name": "Cut-cut Primero",
    "country": "PH",
    "lat": 15.48277,
    "lng": 120.58604
  },
  {
    "name": "Curuan",
    "country": "PH",
    "lat": 7.20528,
    "lng": 122.23306
  },
  {
    "name": "Curry",
    "country": "PH",
    "lat": 13.6,
    "lng": 123.3
  },
  {
    "name": "Currimao",
    "country": "PH",
    "lat": 18.0182,
    "lng": 120.4876
  },
  {
    "name": "Culubasa",
    "country": "PH",
    "lat": 15.14431,
    "lng": 120.65223
  },
  {
    "name": "Cullalabo del Sur",
    "country": "PH",
    "lat": 17.10267,
    "lng": 121.70394
  },
  {
    "name": "Culion",
    "country": "PH",
    "lat": 11.8904,
    "lng": 120.0222
  },
  {
    "name": "Culianin",
    "country": "PH",
    "lat": 14.91511,
    "lng": 120.89847
  },
  {
    "name": "Culianan",
    "country": "PH",
    "lat": 6.98028,
    "lng": 122.14667
  },
  {
    "name": "Culasi",
    "country": "PH",
    "lat": 11.42721,
    "lng": 122.05601
  },
  {
    "name": "Culasi",
    "country": "PH",
    "lat": 11.07917,
    "lng": 122.98194
  },
  {
    "name": "Culaman",
    "country": "PH",
    "lat": 5.96028,
    "lng": 125.65861
  },
  {
    "name": "Culaba",
    "country": "PH",
    "lat": 11.65778,
    "lng": 124.5425
  },
  {
    "name": "Cuevas",
    "country": "PH",
    "lat": 8.01917,
    "lng": 126.09417
  },
  {
    "name": "Cuenca",
    "country": "PH",
    "lat": 13.902,
    "lng": 121.0521
  },
  {
    "name": "Cuartero",
    "country": "PH",
    "lat": 11.3407,
    "lng": 122.6694
  },
  {
    "name": "Cuambog",
    "country": "PH",
    "lat": 7.30861,
    "lng": 125.84806
  },
  {
    "name": "Culasian",
    "country": "PH",
    "lat": 11.30694,
    "lng": 124.61056
  },
  {
    "name": "Culacling",
    "country": "PH",
    "lat": 13.7815,
    "lng": 122.8767
  },
  {
    "name": "Culebra",
    "country": "PR",
    "lat": 18.30301,
    "lng": -65.30099
  },
  {
    "name": "Curral das Freiras",
    "country": "PT",
    "lat": 32.72029,
    "lng": -16.96993
  },
  {
    "name": "Cuba",
    "country": "PT",
    "lat": 38.16544,
    "lng": -7.8924
  },
  {
    "name": "Custoias",
    "country": "PT",
    "lat": 41.1053,
    "lng": -7.32097
  },
  {
    "name": "Cucujães",
    "country": "PT",
    "lat": 40.87413,
    "lng": -8.50687
  },
  {
    "name": "Cuza Vodă",
    "country": "RO",
    "lat": 45.59595,
    "lng": 27.79267
  },
  {
    "name": "Cuza Vodă",
    "country": "RO",
    "lat": 45.39017,
    "lng": 27.44838
  },
  {
    "name": "Cuza Vodă",
    "country": "RO",
    "lat": 44.92513,
    "lng": 27.73273
  },
  {
    "name": "Cuza Vodă",
    "country": "RO",
    "lat": 44.28773,
    "lng": 28.31005
  },
  {
    "name": "Cuza Vodă",
    "country": "RO",
    "lat": 44.26667,
    "lng": 27.26667
  },
  {
    "name": "Cuzăplac",
    "country": "RO",
    "lat": 46.96667,
    "lng": 23.2
  },
  {
    "name": "Cuzap",
    "country": "RO",
    "lat": 47.20288,
    "lng": 22.41523
  },
  {
    "name": "Cuvin",
    "country": "RO",
    "lat": 46.17001,
    "lng": 21.5936
  },
  {
    "name": "Cut",
    "country": "RO",
    "lat": 46.88258,
    "lng": 26.41928
  },
  {
    "name": "Cut",
    "country": "RO",
    "lat": 45.93972,
    "lng": 23.66719
  },
  {
    "name": "Cuzdrioara",
    "country": "RO",
    "lat": 47.16667,
    "lng": 23.91667
  },
  {
    "name": "Curtuișeni",
    "country": "RO",
    "lat": 47.54633,
    "lng": 22.20263
  },
  {
    "name": "Curtişoara",
    "country": "RO",
    "lat": 44.5,
    "lng": 24.33333
  },
  {
    "name": "Curtici",
    "country": "RO",
    "lat": 46.35,
    "lng": 21.3
  },
  {
    "name": "Curteşti",
    "country": "RO",
    "lat": 47.71667,
    "lng": 26.65
  },
  {
    "name": "Curtea de Argeş",
    "country": "RO",
    "lat": 45.13422,
    "lng": 24.67409
  },
  {
    "name": "Curtea",
    "country": "RO",
    "lat": 45.81667,
    "lng": 22.3
  },
  {
    "name": "Curcani",
    "country": "RO",
    "lat": 44.2,
    "lng": 26.58333
  },
  {
    "name": "Curăţele",
    "country": "RO",
    "lat": 46.7,
    "lng": 22.41667
  },
  {
    "name": "Cupşeni",
    "country": "RO",
    "lat": 47.55,
    "lng": 23.93333
  },
  {
    "name": "Cungrea",
    "country": "RO",
    "lat": 44.66667,
    "lng": 24.38333
  },
  {
    "name": "Cumpăna",
    "country": "RO",
    "lat": 44.11667,
    "lng": 28.56667
  },
  {
    "name": "Culciu Mic",
    "country": "RO",
    "lat": 47.76147,
    "lng": 23.03382
  },
  {
    "name": "Cujmir",
    "country": "RO",
    "lat": 44.20667,
    "lng": 22.92667
  },
  {
    "name": "Cugir",
    "country": "RO",
    "lat": 45.83651,
    "lng": 23.36998
  },
  {
    "name": "Cuejdiu",
    "country": "RO",
    "lat": 46.9904,
    "lng": 26.29455
  },
  {
    "name": "Cudalbi",
    "country": "RO",
    "lat": 45.78333,
    "lng": 27.7
  },
  {
    "name": "Cucuteni",
    "country": "RO",
    "lat": 47.28333,
    "lng": 26.93333
  },
  {
    "name": "Cucuruzu",
    "country": "RO",
    "lat": 44.0802,
    "lng": 25.73242
  },
  {
    "name": "Cucuieți",
    "country": "RO",
    "lat": 46.5898,
    "lng": 26.52875
  },
  {
    "name": "Cucuieți",
    "country": "RO",
    "lat": 46.32731,
    "lng": 26.55504
  },
  {
    "name": "Cucueți",
    "country": "RO",
    "lat": 44.18432,
    "lng": 24.94826
  },
  {
    "name": "Cuciulata",
    "country": "RO",
    "lat": 45.94389,
    "lng": 25.27541
  },
  {
    "name": "Cuci",
    "country": "RO",
    "lat": 46.46667,
    "lng": 24.15
  },
  {
    "name": "Cucerdea",
    "country": "RO",
    "lat": 46.4,
    "lng": 24.26667
  },
  {
    "name": "Cuca",
    "country": "RO",
    "lat": 45.73333,
    "lng": 27.88333
  },
  {
    "name": "Cuca",
    "country": "RO",
    "lat": 44.95,
    "lng": 24.51667
  },
  {
    "name": "Cubulcut",
    "country": "RO",
    "lat": 47.3227,
    "lng": 22.18648
  },
  {
    "name": "Culmea",
    "country": "RO",
    "lat": 44.25759,
    "lng": 28.46643
  },
  {
    "name": "Cuscatancingo",
    "country": "SV",
    "lat": 13.72702,
    "lng": -89.18161
  },
  {
    "name": "Cul de Sac",
    "country": "SX",
    "lat": 18.04852,
    "lng": -63.06513
  },
  {
    "name": "Cumalı",
    "country": "TR",
    "lat": 36.91667,
    "lng": 31.06667
  },
  {
    "name": "Cumaçay",
    "country": "TR",
    "lat": 39.91524,
    "lng": 43.18653
  },
  {
    "name": "Cumayeri",
    "country": "TR",
    "lat": 40.87389,
    "lng": 30.95091
  },
  {
    "name": "Cullman",
    "country": "US",
    "lat": 34.17482,
    "lng": -86.84361
  },
  {
    "name": "Cudjoe Key",
    "country": "US",
    "lat": 24.67153,
    "lng": -81.49842
  },
  {
    "name": "Cutler",
    "country": "US",
    "lat": 25.6151,
    "lng": -80.31061
  },
  {
    "name": "Cutler Ridge",
    "country": "US",
    "lat": 25.58066,
    "lng": -80.34672
  },
  {
    "name": "Cumming",
    "country": "US",
    "lat": 34.20732,
    "lng": -84.14019
  },
  {
    "name": "Cusseta",
    "country": "US",
    "lat": 32.30543,
    "lng": -84.7727
  },
  {
    "name": "Cuthbert",
    "country": "US",
    "lat": 31.77127,
    "lng": -84.78937
  },
  {
    "name": "Cumberland",
    "country": "US",
    "lat": 39.77615,
    "lng": -85.9572
  },
  {
    "name": "Cumberland",
    "country": "US",
    "lat": 36.97815,
    "lng": -82.9885
  },
  {
    "name": "Cullen",
    "country": "US",
    "lat": 32.96903,
    "lng": -93.45073
  },
  {
    "name": "Cut Off",
    "country": "US",
    "lat": 29.54272,
    "lng": -90.33814
  },
  {
    "name": "Curtis Bay",
    "country": "US",
    "lat": 39.22677,
    "lng": -76.58802
  },
  {
    "name": "Cumberland",
    "country": "US",
    "lat": 39.65287,
    "lng": -78.76252
  },
  {
    "name": "Cuba",
    "country": "US",
    "lat": 38.06282,
    "lng": -91.40348
  },
  {
    "name": "Cullowhee",
    "country": "US",
    "lat": 35.31371,
    "lng": -83.17653
  },
  {
    "name": "Currituck",
    "country": "US",
    "lat": 36.44988,
    "lng": -76.01548
  },
  {
    "name": "Cushing",
    "country": "US",
    "lat": 35.98506,
    "lng": -96.76697
  },
  {
    "name": "Cuero",
    "country": "US",
    "lat": 29.09387,
    "lng": -97.28916
  },
  {
    "name": "Cut and Shoot",
    "country": "US",
    "lat": 30.33327,
    "lng": -95.35799
  },
  {
    "name": "Culpeper",
    "country": "US",
    "lat": 38.47318,
    "lng": -77.99666
  },
  {
    "name": "Cumberland",
    "country": "US",
    "lat": 37.49598,
    "lng": -78.24527
  },
  {
    "name": "Culloden",
    "country": "US",
    "lat": 38.42009,
    "lng": -82.05542
  },
  {
    "name": "Cuba",
    "country": "US",
    "lat": 40.49282,
    "lng": -90.19068
  },
  {
    "name": "Cuba",
    "country": "US",
    "lat": 42.18391,
    "lng": -88.19091
  },
  {
    "name": "Culver",
    "country": "US",
    "lat": 41.21893,
    "lng": -86.42306
  },
  {
    "name": "Cumberland Center",
    "country": "US",
    "lat": 43.79647,
    "lng": -70.25894
  },
  {
    "name": "Cushing",
    "country": "US",
    "lat": 44.01925,
    "lng": -69.23977
  },
  {
    "name": "Cutlerville",
    "country": "US",
    "lat": 42.84086,
    "lng": -85.66364
  },
  {
    "name": "Cuba",
    "country": "US",
    "lat": 42.21757,
    "lng": -78.27529
  },
  {
    "name": "Cumberland Head",
    "country": "US",
    "lat": 44.71643,
    "lng": -73.40263
  },
  {
    "name": "Cutchogue",
    "country": "US",
    "lat": 41.01066,
    "lng": -72.48509
  },
  {
    "name": "Curtice",
    "country": "US",
    "lat": 41.61838,
    "lng": -83.36771
  },
  {
    "name": "Cuyahoga Falls",
    "country": "US",
    "lat": 41.13394,
    "lng": -81.48456
  },
  {
    "name": "Curtisville",
    "country": "US",
    "lat": 40.64229,
    "lng": -79.85089
  },
  {
    "name": "Curwensville",
    "country": "US",
    "lat": 40.97561,
    "lng": -78.52502
  },
  {
    "name": "Cumberland",
    "country": "US",
    "lat": 41.96677,
    "lng": -71.43284
  },
  {
    "name": "Cumberland Hill",
    "country": "US",
    "lat": 41.97454,
    "lng": -71.467
  },
  {
    "name": "Cuba City",
    "country": "US",
    "lat": 42.60555,
    "lng": -90.42985
  },
  {
    "name": "Cudahy",
    "country": "US",
    "lat": 42.95974,
    "lng": -87.86147
  },
  {
    "name": "Cumberland",
    "country": "US",
    "lat": 45.53218,
    "lng": -92.01935
  },
  {
    "name": "Cudahy",
    "country": "US",
    "lat": 33.96057,
    "lng": -118.18535
  },
  {
    "name": "Culver City",
    "country": "US",
    "lat": 34.02112,
    "lng": -118.39647
  },
  {
    "name": "Cupertino",
    "country": "US",
    "lat": 37.323,
    "lng": -122.03218
  },
  {
    "name": "Cutler",
    "country": "US",
    "lat": 36.52328,
    "lng": -119.28678
  },
  {
    "name": "Cutten",
    "country": "US",
    "lat": 40.76985,
    "lng": -124.14284
  },
  {
    "name": "Cut Bank",
    "country": "US",
    "lat": 48.63304,
    "lng": -112.32616
  },
  {
    "name": "Culp Creek",
    "country": "US",
    "lat": 43.70346,
    "lng": -122.84757
  },
  {
    "name": "Culver",
    "country": "US",
    "lat": 44.52568,
    "lng": -121.2131
  },
  {
    "name": "Custer",
    "country": "US",
    "lat": 43.76665,
    "lng": -103.59881
  },
  {
    "name": "Cutler Bay",
    "country": "US",
    "lat": 25.5783,
    "lng": -80.3377
  },
  {
    "name": "Curtina",
    "country": "UY",
    "lat": -32.15,
    "lng": -56.11667
  },
  {
    "name": "Cuareim",
    "country": "UY",
    "lat": -30.22519,
    "lng": -57.56802
  },
  {
    "name": "Curiapo",
    "country": "VE",
    "lat": 8.58057,
    "lng": -60.99778
  },
  {
    "name": "Curbatí",
    "country": "VE",
    "lat": 8.45443,
    "lng": -70.55441
  },
  {
    "name": "Cumanacoa",
    "country": "VE",
    "lat": 10.25056,
    "lng": -63.91938
  },
  {
    "name": "Cumaná",
    "country": "VE",
    "lat": 10.4639,
    "lng": -64.17859
  },
  {
    "name": "Cung Kiệm",
    "country": "VN",
    "lat": 21.18697,
    "lng": 106.16076
  },
  {
    "name": "Cullinan",
    "country": "ZA",
    "lat": -25.67088,
    "lng": 28.52364
  }
]