[
  {
    "name": "Cwmbran",
    "country": "GB",
    "lat": 51.65446,
    "lng": -3.02281
  },
  {
    "name": "Cwmafan",
    "country": "GB",
    "lat": 51.61671,
    "lng": -3.76205
  },
  {
    "name": "Cwm",
    "country": "GB",
    "lat": 53.28333,
    "lng": -3.4
  },
  {
    "name": "Cwm",
    "country": "GB",
    "lat": 51.74,
    "lng": -3.18028
  },
  {
    "name": "Cwmbach",
    "country": "GB",
    "lat": 51.70556,
    "lng": -3.40944
  },
  {
    "name": "Cwmtillery",
    "country": "GB",
    "lat": 51.74495,
    "lng": -3.13188
  }
]