[
  {
    "name": "Dnestrovsc",
    "country": "MD",
    "lat": 46.624,
    "lng": 29.906
  },
  {
    "name": "Dno",
    "country": "RU",
    "lat": 57.82882,
    "lng": 29.96917
  },
  {
    "name": "Dneprovskaya",
    "country": "RU",
    "lat": 45.62359,
    "lng": 38.80807
  },
  {
    "name": "Dneprovka",
    "country": "UA",
    "lat": 45.71373,
    "lng": 34.36256
  },
  {
    "name": "Dnipro",
    "country": "UA",
    "lat": 48.46664,
    "lng": 35.04066
  },
  {
    "name": "Dnistrivka",
    "country": "UA",
    "lat": 48.53673,
    "lng": 26.9268
  },
  {
    "name": "Dnipryany",
    "country": "UA",
    "lat": 46.74849,
    "lng": 33.26632
  },
  {
    "name": "Dniprovske",
    "country": "UA",
    "lat": 48.59042,
    "lng": 34.41394
  },
  {
    "name": "Dniprovka",
    "country": "UA",
    "lat": 47.42844,
    "lng": 34.61824
  },
  {
    "name": "Dniprorudne",
    "country": "UA",
    "lat": 47.38993,
    "lng": 35.00065
  }
]