[
  {
    "name": "Dysart",
    "country": "AU",
    "lat": -22.58825,
    "lng": 148.34924
  },
  {
    "name": "Dynnyrne",
    "country": "AU",
    "lat": -42.90541,
    "lng": 147.31576
  },
  {
    "name": "Dyatlovo",
    "country": "BY",
    "lat": 53.46215,
    "lng": 25.40757
  },
  {
    "name": "Dyougoublé",
    "country": "CI",
    "lat": 9.52789,
    "lng": -5.935
  },
  {
    "name": "Dyotrou",
    "country": "CI",
    "lat": 7.27738,
    "lng": -7.48796
  },
  {
    "name": "Dyoronakaha",
    "country": "CI",
    "lat": 9.35997,
    "lng": -5.13982
  },
  {
    "name": "Dyobala",
    "country": "CI",
    "lat": 7.81247,
    "lng": -6.41398
  },
  {
    "name": "Dyingélé",
    "country": "CI",
    "lat": 9.54271,
    "lng": -7.13751
  },
  {
    "name": "Dyéou",
    "country": "CI",
    "lat": 7.119,
    "lng": -7.43232
  },
  {
    "name": "Dyenfé",
    "country": "CI",
    "lat": 7.78663,
    "lng": -6.4763
  },
  {
    "name": "Dyénéné",
    "country": "CI",
    "lat": 8.58528,
    "lng": -6.2175
  },
  {
    "name": "Dyémédougou",
    "country": "CI",
    "lat": 8.54583,
    "lng": -6.13056
  },
  {
    "name": "Dyéliso",
    "country": "CI",
    "lat": 8.78861,
    "lng": -6.50262
  },
  {
    "name": "Dyéifla",
    "country": "CI",
    "lat": 7.71736,
    "lng": -6.00154
  },
  {
    "name": "Dyégon",
    "country": "CI",
    "lat": 9.06472,
    "lng": -5.69735
  },
  {
    "name": "Dyarala",
    "country": "CI",
    "lat": 8.47489,
    "lng": -6.10289
  },
  {
    "name": "Dyapléan",
    "country": "CI",
    "lat": 7.13512,
    "lng": -7.39486
  },
  {
    "name": "Dyaondi",
    "country": "CI",
    "lat": 7.18452,
    "lng": -7.35662
  },
  {
    "name": "Dyantégéla",
    "country": "CI",
    "lat": 9.92618,
    "lng": -7.81629
  },
  {
    "name": "Dyamonso",
    "country": "CI",
    "lat": 8.30114,
    "lng": -6.93248
  },
  {
    "name": "Dyakobou",
    "country": "CI",
    "lat": 8.21935,
    "lng": -5.80576
  },
  {
    "name": "Dybbøl",
    "country": "DK",
    "lat": 54.91079,
    "lng": 9.73601
  },
  {
    "name": "Dyserth",
    "country": "GB",
    "lat": 53.30032,
    "lng": -3.41262
  },
  {
    "name": "Dymchurch",
    "country": "GB",
    "lat": 51.02544,
    "lng": 0.99392
  },
  {
    "name": "Dyce",
    "country": "GB",
    "lat": 57.20522,
    "lng": -2.17676
  },
  {
    "name": "Dyffryn Ardudwy",
    "country": "GB",
    "lat": 52.77748,
    "lng": -4.06468
  },
  {
    "name": "Dyāne",
    "country": "IN",
    "lat": 20.56743,
    "lng": 74.52845
  },
  {
    "name": "Dywity",
    "country": "PL",
    "lat": 53.83759,
    "lng": 20.47817
  },
  {
    "name": "Dys",
    "country": "PL",
    "lat": 51.31591,
    "lng": 22.58514
  },
  {
    "name": "Dynów",
    "country": "PL",
    "lat": 49.81506,
    "lng": 22.23388
  },
  {
    "name": "Dydnia",
    "country": "PL",
    "lat": 49.6864,
    "lng": 22.17196
  },
  {
    "name": "Dygowo",
    "country": "PL",
    "lat": 54.13031,
    "lng": 15.71993
  },
  {
    "name": "Dyurtyuli",
    "country": "RU",
    "lat": 55.4873,
    "lng": 54.86176
  },
  {
    "name": "Dyshne-Vedeno",
    "country": "RU",
    "lat": 42.96435,
    "lng": 46.11578
  },
  {
    "name": "Dylym",
    "country": "RU",
    "lat": 43.07099,
    "lng": 46.63454
  },
  {
    "name": "Dyat’kovo",
    "country": "RU",
    "lat": 53.59782,
    "lng": 34.33825
  },
  {
    "name": "Dyakivtsi",
    "country": "UA",
    "lat": 48.1,
    "lng": 26.25
  },
  {
    "name": "Dymka",
    "country": "UA",
    "lat": 48.09363,
    "lng": 25.96784
  },
  {
    "name": "Dymer",
    "country": "UA",
    "lat": 50.78647,
    "lng": 30.3026
  },
  {
    "name": "Dyviziya",
    "country": "UA",
    "lat": 45.94382,
    "lng": 29.96516
  },
  {
    "name": "Dynivtsy",
    "country": "UA",
    "lat": 48.31773,
    "lng": 26.29448
  },
  {
    "name": "Dykhtynets",
    "country": "UA",
    "lat": 48.05913,
    "lng": 25.04375
  },
  {
    "name": "Dykanka",
    "country": "UA",
    "lat": 49.82586,
    "lng": 34.522
  },
  {
    "name": "Dyer",
    "country": "US",
    "lat": 36.06673,
    "lng": -88.99395
  },
  {
    "name": "Dyersburg",
    "country": "US",
    "lat": 36.03452,
    "lng": -89.38563
  },
  {
    "name": "Dyersville",
    "country": "US",
    "lat": 42.48444,
    "lng": -91.12291
  },
  {
    "name": "Dysart",
    "country": "US",
    "lat": 42.17166,
    "lng": -92.3063
  },
  {
    "name": "Dyer",
    "country": "US",
    "lat": 41.4942,
    "lng": -87.52171
  },
  {
    "name": "Dyker Heights",
    "country": "US",
    "lat": 40.62149,
    "lng": -74.00958
  },
  {
    "name": "Dysselsdorp",
    "country": "ZA",
    "lat": -33.57565,
    "lng": 22.44391
  }
]