[
  {
    "name": "Eernegem",
    "country": "BE",
    "lat": 51.1326,
    "lng": 3.02562
  },
  {
    "name": "Eeklo",
    "country": "BE",
    "lat": 51.18703,
    "lng": 3.55654
  },
  {
    "name": "Eenhana",
    "country": "NA",
    "lat": -17.48535,
    "lng": 16.3294
  },
  {
    "name": "Eexta",
    "country": "NL",
    "lat": 53.16386,
    "lng": 6.98344
  },
  {
    "name": "Eext",
    "country": "NL",
    "lat": 53.0175,
    "lng": 6.73472
  },
  {
    "name": "Eersel",
    "country": "NL",
    "lat": 51.3575,
    "lng": 5.31806
  },
  {
    "name": "Eerschot",
    "country": "NL",
    "lat": 51.56833,
    "lng": 5.47361
  },
  {
    "name": "Eerde",
    "country": "NL",
    "lat": 51.60417,
    "lng": 5.49861
  },
  {
    "name": "Eerbeek",
    "country": "NL",
    "lat": 52.105,
    "lng": 6.05833
  },
  {
    "name": "Eenrum",
    "country": "NL",
    "lat": 53.3625,
    "lng": 6.45833
  },
  {
    "name": "Eelde",
    "country": "NL",
    "lat": 53.13583,
    "lng": 6.5625
  },
  {
    "name": "Eefde",
    "country": "NL",
    "lat": 52.16667,
    "lng": 6.225
  },
  {
    "name": "Eendekuil",
    "country": "ZA",
    "lat": -32.68709,
    "lng": 18.88363
  }
]