[
  {
    "name": "Florentino Ameghino",
    "country": "AR",
    "lat": -27.63335,
    "lng": -55.08372
  },
  {
    "name": "Florentino Ameghino",
    "country": "AR",
    "lat": -34.84405,
    "lng": -62.46701
  },
  {
    "name": "Floridsdorf",
    "country": "AT",
    "lat": 48.25,
    "lng": 16.4
  },
  {
    "name": "Floing",
    "country": "AT",
    "lat": 47.26356,
    "lng": 15.7465
  },
  {
    "name": "Flirsch",
    "country": "AT",
    "lat": 47.15,
    "lng": 10.4
  },
  {
    "name": "Fliess",
    "country": "AT",
    "lat": 47.11667,
    "lng": 10.61667
  },
  {
    "name": "Flaurling",
    "country": "AT",
    "lat": 47.29143,
    "lng": 11.12319
  },
  {
    "name": "Flattach",
    "country": "AT",
    "lat": 46.93861,
    "lng": 13.13444
  },
  {
    "name": "Flatschach",
    "country": "AT",
    "lat": 47.21667,
    "lng": 14.75
  },
  {
    "name": "Fladnitz im Raabtal",
    "country": "AT",
    "lat": 46.99167,
    "lng": 15.78528
  },
  {
    "name": "Flachau",
    "country": "AT",
    "lat": 47.34406,
    "lng": 13.39148
  },
  {
    "name": "Flinders",
    "country": "AU",
    "lat": -34.58333,
    "lng": 150.85516
  },
  {
    "name": "Flinders View",
    "country": "AU",
    "lat": -27.65046,
    "lng": 152.77451
  },
  {
    "name": "Flora Hill",
    "country": "AU",
    "lat": -36.78123,
    "lng": 144.29562
  },
  {
    "name": "Fletcher",
    "country": "AU",
    "lat": -32.87232,
    "lng": 151.64008
  },
  {
    "name": "Flagstaff Hill",
    "country": "AU",
    "lat": -35.04861,
    "lng": 138.58285
  },
  {
    "name": "Flinders Park",
    "country": "AU",
    "lat": -34.91026,
    "lng": 138.54322
  },
  {
    "name": "Florey",
    "country": "AU",
    "lat": -35.22588,
    "lng": 149.05
  },
  {
    "name": "Flynn",
    "country": "AU",
    "lat": -35.20593,
    "lng": 149.04389
  },
  {
    "name": "Floreat",
    "country": "AU",
    "lat": -31.93862,
    "lng": 115.79211
  },
  {
    "name": "Flemington",
    "country": "AU",
    "lat": -37.78825,
    "lng": 144.93001
  },
  {
    "name": "Floraville",
    "country": "AU",
    "lat": -33.01116,
    "lng": 151.6648
  },
  {
    "name": "Floriffoux",
    "country": "BE",
    "lat": 50.45242,
    "lng": 4.77004
  },
  {
    "name": "Florenville",
    "country": "BE",
    "lat": 49.69983,
    "lng": 5.3074
  },
  {
    "name": "Florennes",
    "country": "BE",
    "lat": 50.25127,
    "lng": 4.60636
  },
  {
    "name": "Floreffe",
    "country": "BE",
    "lat": 50.43452,
    "lng": 4.7596
  },
  {
    "name": "Flobecq",
    "country": "BE",
    "lat": 50.73733,
    "lng": 3.73876
  },
  {
    "name": "Fleurus",
    "country": "BE",
    "lat": 50.48351,
    "lng": 4.55006
  },
  {
    "name": "Fléron",
    "country": "BE",
    "lat": 50.61516,
    "lng": 5.68062
  },
  {
    "name": "Flénu",
    "country": "BE",
    "lat": 50.43673,
    "lng": 3.88573
  },
  {
    "name": "Flémalle-Haute",
    "country": "BE",
    "lat": 50.59994,
    "lng": 5.44471
  },
  {
    "name": "Flémalle-Grande",
    "country": "BE",
    "lat": 50.60906,
    "lng": 5.47668
  },
  {
    "name": "Flawinne",
    "country": "BE",
    "lat": 50.45794,
    "lng": 4.81047
  },
  {
    "name": "Flamierge",
    "country": "BE",
    "lat": 50.03324,
    "lng": 5.60294
  },
  {
    "name": "Floriano",
    "country": "BR",
    "lat": -6.76694,
    "lng": -43.0225
  },
  {
    "name": "Floresta do Piauí",
    "country": "BR",
    "lat": -7.46722,
    "lng": -41.79977
  },
  {
    "name": "Floresta",
    "country": "BR",
    "lat": -8.60111,
    "lng": -38.56861
  },
  {
    "name": "Flores do Piauí",
    "country": "BR",
    "lat": -7.79111,
    "lng": -42.92722
  },
  {
    "name": "Flores",
    "country": "BR",
    "lat": -7.86806,
    "lng": -37.97472
  },
  {
    "name": "Florânia",
    "country": "BR",
    "lat": -6.12722,
    "lng": -36.81806
  },
  {
    "name": "Flexeiras",
    "country": "BR",
    "lat": -9.1975,
    "lng": -35.78083
  },
  {
    "name": "Florínea",
    "country": "BR",
    "lat": -22.90333,
    "lng": -50.73778
  },
  {
    "name": "Flórida Paulista",
    "country": "BR",
    "lat": -21.61452,
    "lng": -51.17235
  },
  {
    "name": "Flórida",
    "country": "BR",
    "lat": -23.08722,
    "lng": -51.95361
  },
  {
    "name": "Florianópolis",
    "country": "BR",
    "lat": -27.59667,
    "lng": -48.54917
  },
  {
    "name": "Floriano Peixoto",
    "country": "BR",
    "lat": -27.86056,
    "lng": -52.08444
  },
  {
    "name": "Florestópolis",
    "country": "BR",
    "lat": -22.86333,
    "lng": -51.38722
  },
  {
    "name": "Florestal",
    "country": "BR",
    "lat": -19.88944,
    "lng": -44.4325
  },
  {
    "name": "Floresta Azul",
    "country": "BR",
    "lat": -14.86,
    "lng": -39.65972
  },
  {
    "name": "Floresta",
    "country": "BR",
    "lat": -23.61097,
    "lng": -52.08174
  },
  {
    "name": "Flores da Cunha",
    "country": "BR",
    "lat": -29.02889,
    "lng": -51.18167
  },
  {
    "name": "Floreal",
    "country": "BR",
    "lat": -20.67667,
    "lng": -50.14528
  },
  {
    "name": "Flora Rica",
    "country": "BR",
    "lat": -21.67583,
    "lng": -51.38417
  },
  {
    "name": "Floraí",
    "country": "BR",
    "lat": -23.31694,
    "lng": -52.30361
  },
  {
    "name": "Flor da Serra do Sul",
    "country": "BR",
    "lat": -26.26028,
    "lng": -53.30361
  },
  {
    "name": "Flor do Sertão",
    "country": "BR",
    "lat": -26.7775,
    "lng": -53.3475
  },
  {
    "name": "Flores de Goiás",
    "country": "BR",
    "lat": -14.45687,
    "lng": -47.03977
  },
  {
    "name": "Floresta do Araguaia",
    "country": "BR",
    "lat": -7.55361,
    "lng": -49.7125
  },
  {
    "name": "Flexeiras",
    "country": "BR",
    "lat": -10.33231,
    "lng": -36.31384
  },
  {
    "name": "Fleetwood",
    "country": "CA",
    "lat": 49.16667,
    "lng": -122.8
  },
  {
    "name": "Flemingdon Park",
    "country": "CA",
    "lat": 43.71806,
    "lng": -79.33222
  },
  {
    "name": "Flin Flon",
    "country": "CA",
    "lat": 54.76703,
    "lng": -101.87433
  },
  {
    "name": "Florenceville-Bristol",
    "country": "CA",
    "lat": 46.44353,
    "lng": -67.61536
  },
  {
    "name": "Flurlingen",
    "country": "CH",
    "lat": 47.6839,
    "lng": 8.62995
  },
  {
    "name": "Flums",
    "country": "CH",
    "lat": 47.09058,
    "lng": 9.34301
  },
  {
    "name": "Flühli",
    "country": "CH",
    "lat": 46.88391,
    "lng": 8.01558
  },
  {
    "name": "Flüelen",
    "country": "CH",
    "lat": 46.90478,
    "lng": 8.62396
  },
  {
    "name": "Flims",
    "country": "CH",
    "lat": 46.83705,
    "lng": 9.28458
  },
  {
    "name": "Fleurier",
    "country": "CH",
    "lat": 46.90224,
    "lng": 6.58253
  },
  {
    "name": "Flawil",
    "country": "CH",
    "lat": 47.41301,
    "lng": 9.18324
  },
  {
    "name": "Flamatt",
    "country": "CH",
    "lat": 46.88994,
    "lng": 7.32204
  },
  {
    "name": "Floleu",
    "country": "CI",
    "lat": 6.84397,
    "lng": -8.12554
  },
  {
    "name": "Flandapleu",
    "country": "CI",
    "lat": 7.11219,
    "lng": -8.03611
  },
  {
    "name": "Flabougou",
    "country": "CI",
    "lat": 10.49723,
    "lng": -6.46663
  },
  {
    "name": "Flakièdougou",
    "country": "CI",
    "lat": 8.48273,
    "lng": -3.1273
  },
  {
    "name": "Floridablanca",
    "country": "CO",
    "lat": 7.06222,
    "lng": -73.08644
  },
  {
    "name": "Florida",
    "country": "CO",
    "lat": 3.3223,
    "lng": -76.2348
  },
  {
    "name": "Florián",
    "country": "CO",
    "lat": 5.80487,
    "lng": -73.97029
  },
  {
    "name": "Floresta",
    "country": "CO",
    "lat": 5.85903,
    "lng": -72.91882
  },
  {
    "name": "Florencia",
    "country": "CO",
    "lat": 1.68318,
    "lng": -77.07331
  },
  {
    "name": "Florencia",
    "country": "CO",
    "lat": 1.61549,
    "lng": -75.60412
  },
  {
    "name": "Flandes",
    "country": "CO",
    "lat": 4.29005,
    "lng": -74.81612
  },
  {
    "name": "Florida",
    "country": "CU",
    "lat": 21.52536,
    "lng": -78.22579
  },
  {
    "name": "Florencia",
    "country": "CU",
    "lat": 22.1461,
    "lng": -78.97328
  },
  {
    "name": "Flying Fish Cove",
    "country": "CX",
    "lat": -10.42172,
    "lng": 105.67912
  },
  {
    "name": "Flossenbürg",
    "country": "DE",
    "lat": 49.73333,
    "lng": 12.35
  },
  {
    "name": "Floß",
    "country": "DE",
    "lat": 49.72395,
    "lng": 12.27593
  },
  {
    "name": "Flörsheim",
    "country": "DE",
    "lat": 50.01311,
    "lng": 8.42779
  },
  {
    "name": "Flonheim",
    "country": "DE",
    "lat": 49.785,
    "lng": 8.04
  },
  {
    "name": "Flomborn",
    "country": "DE",
    "lat": 49.69056,
    "lng": 8.14917
  },
  {
    "name": "Flöha",
    "country": "DE",
    "lat": 50.85613,
    "lng": 13.07407
  },
  {
    "name": "Flintsbach",
    "country": "DE",
    "lat": 47.72576,
    "lng": 12.12419
  },
  {
    "name": "Flintbek",
    "country": "DE",
    "lat": 54.25,
    "lng": 10.06667
  },
  {
    "name": "Flieden",
    "country": "DE",
    "lat": 50.42389,
    "lng": 9.5666
  },
  {
    "name": "Flessau",
    "country": "DE",
    "lat": 52.75996,
    "lng": 11.67093
  },
  {
    "name": "Flensburg",
    "country": "DE",
    "lat": 54.78805,
    "lng": 9.43722
  },
  {
    "name": "Flein",
    "country": "DE",
    "lat": 49.10306,
    "lng": 9.21083
  },
  {
    "name": "Fleckeby",
    "country": "DE",
    "lat": 54.48061,
    "lng": 9.69659
  },
  {
    "name": "Flechtingen",
    "country": "DE",
    "lat": 52.33083,
    "lng": 11.24176
  },
  {
    "name": "Flammersfeld",
    "country": "DE",
    "lat": 50.64711,
    "lng": 7.52713
  },
  {
    "name": "Fladungen",
    "country": "DE",
    "lat": 50.52054,
    "lng": 10.14581
  },
  {
    "name": "Flacht",
    "country": "DE",
    "lat": 50.34528,
    "lng": 8.05028
  },
  {
    "name": "Flachslanden",
    "country": "DE",
    "lat": 49.39845,
    "lng": 10.51323
  },
  {
    "name": "Florstadt",
    "country": "DE",
    "lat": 50.31667,
    "lng": 8.86667
  },
  {
    "name": "Flöthe",
    "country": "DE",
    "lat": 52.08333,
    "lng": 10.48333
  },
  {
    "name": "Fløng",
    "country": "DK",
    "lat": 55.66212,
    "lng": 12.18698
  },
  {
    "name": "Flavio Alfaro",
    "country": "EC",
    "lat": -0.40501,
    "lng": -79.90468
  },
  {
    "name": "Florida de Liébana",
    "country": "ES",
    "lat": 41.02361,
    "lng": -5.76252
  },
  {
    "name": "Flores de Ávila",
    "country": "ES",
    "lat": 40.93358,
    "lng": -5.07914
  },
  {
    "name": "Flix",
    "country": "ES",
    "lat": 41.23074,
    "lng": 0.55008
  },
  {
    "name": "Flaçà",
    "country": "ES",
    "lat": 42.06667,
    "lng": 2.96667
  },
  {
    "name": "Flourens",
    "country": "FR",
    "lat": 43.59273,
    "lng": 1.56259
  },
  {
    "name": "Florensac",
    "country": "FR",
    "lat": 43.38417,
    "lng": 3.46712
  },
  {
    "name": "Florange",
    "country": "FR",
    "lat": 49.32373,
    "lng": 6.1212
  },
  {
    "name": "Florac",
    "country": "FR",
    "lat": 44.32626,
    "lng": 3.59276
  },
  {
    "name": "Floirac",
    "country": "FR",
    "lat": 44.83061,
    "lng": -0.52675
  },
  {
    "name": "Floing",
    "country": "FR",
    "lat": 49.72216,
    "lng": 4.92947
  },
  {
    "name": "Flogny-la-Chapelle",
    "country": "FR",
    "lat": 47.95,
    "lng": 3.86667
  },
  {
    "name": "Flize",
    "country": "FR",
    "lat": 49.69875,
    "lng": 4.77171
  },
  {
    "name": "Flixecourt",
    "country": "FR",
    "lat": 50.01465,
    "lng": 2.08095
  },
  {
    "name": "Flins-sur-Seine",
    "country": "FR",
    "lat": 48.96523,
    "lng": 1.87314
  },
  {
    "name": "Flines-lez-Raches",
    "country": "FR",
    "lat": 50.41667,
    "lng": 3.18333
  },
  {
    "name": "Flines-lès-Mortagne",
    "country": "FR",
    "lat": 50.50281,
    "lng": 3.46495
  },
  {
    "name": "Fléville-devant-Nancy",
    "country": "FR",
    "lat": 48.62495,
    "lng": 6.20325
  },
  {
    "name": "Fleury-sur-Orne",
    "country": "FR",
    "lat": 49.14851,
    "lng": -0.37508
  },
  {
    "name": "Fleury-sur-Andelle",
    "country": "FR",
    "lat": 49.36176,
    "lng": 1.35599
  },
  {
    "name": "Fleury-Mérogis",
    "country": "FR",
    "lat": 48.6373,
    "lng": 2.36378
  },
  {
    "name": "Fleury-les-Aubrais",
    "country": "FR",
    "lat": 47.93328,
    "lng": 1.91811
  },
  {
    "name": "Fleury-la-Vallée",
    "country": "FR",
    "lat": 47.86672,
    "lng": 3.44908
  },
  {
    "name": "Fleury",
    "country": "FR",
    "lat": 49.04181,
    "lng": 6.19329
  },
  {
    "name": "Fleury",
    "country": "FR",
    "lat": 43.23095,
    "lng": 3.13745
  },
  {
    "name": "Fleurines",
    "country": "FR",
    "lat": 49.25901,
    "lng": 2.58385
  },
  {
    "name": "Fleurieu-sur-Saône",
    "country": "FR",
    "lat": 45.86095,
    "lng": 4.84633
  },
  {
    "name": "Fleurie",
    "country": "FR",
    "lat": 46.19219,
    "lng": 4.69747
  },
  {
    "name": "Fleurey-sur-Ouche",
    "country": "FR",
    "lat": 47.31182,
    "lng": 4.85911
  },
  {
    "name": "Fleurbaix",
    "country": "FR",
    "lat": 50.65061,
    "lng": 2.83305
  },
  {
    "name": "Fleurance",
    "country": "FR",
    "lat": 43.8494,
    "lng": 0.66298
  },
  {
    "name": "Flesselles",
    "country": "FR",
    "lat": 50.00202,
    "lng": 2.26119
  },
  {
    "name": "Flers-en-Escrebieux",
    "country": "FR",
    "lat": 50.3979,
    "lng": 3.06038
  },
  {
    "name": "Flers",
    "country": "FR",
    "lat": 48.73722,
    "lng": -0.57466
  },
  {
    "name": "Fléac",
    "country": "FR",
    "lat": 45.66514,
    "lng": 0.09346
  },
  {
    "name": "Flayosc",
    "country": "FR",
    "lat": 43.53396,
    "lng": 6.3966
  },
  {
    "name": "Flaxlanden",
    "country": "FR",
    "lat": 47.69547,
    "lng": 7.31484
  },
  {
    "name": "Flavy-le-Martel",
    "country": "FR",
    "lat": 49.71299,
    "lng": 3.1915
  },
  {
    "name": "Flavin",
    "country": "FR",
    "lat": 44.2889,
    "lng": 2.60513
  },
  {
    "name": "Flavigny-sur-Moselle",
    "country": "FR",
    "lat": 48.56567,
    "lng": 6.18878
  },
  {
    "name": "Flaviac",
    "country": "FR",
    "lat": 44.74777,
    "lng": 4.67434
  },
  {
    "name": "Flassans-sur-Issole",
    "country": "FR",
    "lat": 43.36856,
    "lng": 6.22154
  },
  {
    "name": "Flamanville",
    "country": "FR",
    "lat": 49.53274,
    "lng": -1.8656
  },
  {
    "name": "Flore",
    "country": "GB",
    "lat": 52.23647,
    "lng": -1.05726
  },
  {
    "name": "Flookburgh",
    "country": "GB",
    "lat": 54.17415,
    "lng": -2.97214
  },
  {
    "name": "Flockton",
    "country": "GB",
    "lat": 53.63034,
    "lng": -1.63945
  },
  {
    "name": "Flitwick",
    "country": "GB",
    "lat": 52.00338,
    "lng": -0.49472
  },
  {
    "name": "Flint",
    "country": "GB",
    "lat": 53.24488,
    "lng": -3.13231
  },
  {
    "name": "Flimby",
    "country": "GB",
    "lat": 54.68956,
    "lng": -3.52092
  },
  {
    "name": "Fleetwood",
    "country": "GB",
    "lat": 53.92527,
    "lng": -3.01085
  },
  {
    "name": "Fleet",
    "country": "GB",
    "lat": 52.79321,
    "lng": 0.05854
  },
  {
    "name": "Fleet",
    "country": "GB",
    "lat": 51.28333,
    "lng": -0.83333
  },
  {
    "name": "Flamborough",
    "country": "GB",
    "lat": 54.11696,
    "lng": -0.12364
  },
  {
    "name": "Flexbury",
    "country": "GB",
    "lat": 50.83509,
    "lng": -4.54499
  },
  {
    "name": "Fleetville",
    "country": "GB",
    "lat": 51.75213,
    "lng": -0.31223
  },
  {
    "name": "Fleckney",
    "country": "GB",
    "lat": 52.53497,
    "lng": -1.04598
  },
  {
    "name": "Flimwell",
    "country": "GB",
    "lat": 51.05502,
    "lng": 0.44531
  },
  {
    "name": "Flackwell Heath",
    "country": "GB",
    "lat": 51.59757,
    "lng": -0.70601
  },
  {
    "name": "Flórina",
    "country": "GR",
    "lat": 40.78197,
    "lng": 21.40981
  },
  {
    "name": "Flores Costa Cuca",
    "country": "GT",
    "lat": 14.63238,
    "lng": -91.86341
  },
  {
    "name": "Flores",
    "country": "GT",
    "lat": 16.92258,
    "lng": -89.89941
  },
  {
    "name": "Florida",
    "country": "HN",
    "lat": 15.02692,
    "lng": -88.83567
  },
  {
    "name": "Flores",
    "country": "HN",
    "lat": 14.29442,
    "lng": -87.57142
  },
  {
    "name": "Fluminimaggiore",
    "country": "IT",
    "lat": 39.43878,
    "lng": 8.49758
  },
  {
    "name": "Floridia",
    "country": "IT",
    "lat": 37.08343,
    "lng": 15.15332
  },
  {
    "name": "Floresta",
    "country": "IT",
    "lat": 37.98779,
    "lng": 14.91096
  },
  {
    "name": "Flussio",
    "country": "IT",
    "lat": 40.26545,
    "lng": 8.5381
  },
  {
    "name": "Flumeri",
    "country": "IT",
    "lat": 41.07623,
    "lng": 15.15072
  },
  {
    "name": "Florinas",
    "country": "IT",
    "lat": 40.649,
    "lng": 8.66548
  },
  {
    "name": "Flero",
    "country": "IT",
    "lat": 45.48254,
    "lng": 10.17694
  },
  {
    "name": "Flavon",
    "country": "IT",
    "lat": 46.29809,
    "lng": 11.02993
  },
  {
    "name": "Flaibano",
    "country": "IT",
    "lat": 46.05837,
    "lng": 12.98424
  },
  {
    "name": "Florence",
    "country": "IT",
    "lat": 43.77925,
    "lng": 11.24626
  },
  {
    "name": "Fluminata",
    "country": "IT",
    "lat": 42.94383,
    "lng": 13.1348
  },
  {
    "name": "Fleccia-Chianavasso",
    "country": "IT",
    "lat": 44.9467,
    "lng": 7.21474
  },
  {
    "name": "Flaxweiler",
    "country": "LU",
    "lat": 49.66602,
    "lng": 6.34321
  },
  {
    "name": "Floreşti",
    "country": "MD",
    "lat": 47.89168,
    "lng": 28.29339
  },
  {
    "name": "Floriana",
    "country": "MT",
    "lat": 35.89583,
    "lng": 14.50833
  },
  {
    "name": "Flic en Flac",
    "country": "MU",
    "lat": -20.278,
    "lng": 57.372
  },
  {
    "name": "Flor de Cacao",
    "country": "MX",
    "lat": 16.12889,
    "lng": -90.45111
  },
  {
    "name": "Flor Batavia",
    "country": "MX",
    "lat": 17.98475,
    "lng": -96.5188
  },
  {
    "name": "Florencia",
    "country": "MX",
    "lat": 21.50448,
    "lng": -103.55457
  },
  {
    "name": "Flor Azul",
    "country": "MX",
    "lat": 25.86949,
    "lng": -109.00886
  },
  {
    "name": "Flevowijk",
    "country": "NL",
    "lat": 52.54583,
    "lng": 5.91338
  },
  {
    "name": "Florø",
    "country": "NO",
    "lat": 61.59957,
    "lng": 5.0328
  },
  {
    "name": "Flekkefjord",
    "country": "NO",
    "lat": 58.29705,
    "lng": 6.66069
  },
  {
    "name": "Flateby",
    "country": "NO",
    "lat": 59.82951,
    "lng": 11.15345
  },
  {
    "name": "Flå",
    "country": "NO",
    "lat": 60.43021,
    "lng": 9.46197
  },
  {
    "name": "Flisa",
    "country": "NO",
    "lat": 60.61318,
    "lng": 12.01088
  },
  {
    "name": "Flaxmere",
    "country": "NZ",
    "lat": -39.61824,
    "lng": 176.78021
  },
  {
    "name": "Flores",
    "country": "PA",
    "lat": 7.48657,
    "lng": -80.40594
  },
  {
    "name": "Florida ( Pomacochas)",
    "country": "PE",
    "lat": -5.82582,
    "lng": -77.96961
  },
  {
    "name": "Floridablanca",
    "country": "PH",
    "lat": 14.9775,
    "lng": 120.5285
  },
  {
    "name": "Flora",
    "country": "PH",
    "lat": 18.2163,
    "lng": 121.4185
  },
  {
    "name": "Florida",
    "country": "PR",
    "lat": 18.36245,
    "lng": -66.56128
  },
  {
    "name": "Floroaia",
    "country": "RO",
    "lat": 45.69497,
    "lng": 26.01563
  },
  {
    "name": "Florica",
    "country": "RO",
    "lat": 44.90802,
    "lng": 26.76627
  },
  {
    "name": "Floreşti",
    "country": "RO",
    "lat": 46.74574,
    "lng": 23.49375
  },
  {
    "name": "Floreşti",
    "country": "RO",
    "lat": 45.05,
    "lng": 25.78333
  },
  {
    "name": "Floreşti",
    "country": "RO",
    "lat": 44.76306,
    "lng": 22.94778
  },
  {
    "name": "Florești",
    "country": "RO",
    "lat": 44.61918,
    "lng": 23.52838
  },
  {
    "name": "Florești",
    "country": "RO",
    "lat": 44.51313,
    "lng": 25.69658
  },
  {
    "name": "Flămânzi",
    "country": "RO",
    "lat": 47.55,
    "lng": 26.86667
  },
  {
    "name": "Floby",
    "country": "SE",
    "lat": 58.13333,
    "lng": 13.33333
  },
  {
    "name": "Flen",
    "country": "SE",
    "lat": 59.05834,
    "lng": 16.58781
  },
  {
    "name": "Flint City",
    "country": "US",
    "lat": 34.52315,
    "lng": -86.97029
  },
  {
    "name": "Florala",
    "country": "US",
    "lat": 31.00518,
    "lng": -86.328
  },
  {
    "name": "Florence",
    "country": "US",
    "lat": 34.79981,
    "lng": -87.67725
  },
  {
    "name": "Flomaton",
    "country": "US",
    "lat": 31.00018,
    "lng": -87.26081
  },
  {
    "name": "Flippin",
    "country": "US",
    "lat": 36.27896,
    "lng": -92.59711
  },
  {
    "name": "Flagami",
    "country": "US",
    "lat": 25.76232,
    "lng": -80.31616
  },
  {
    "name": "Flagler Beach",
    "country": "US",
    "lat": 29.47498,
    "lng": -81.127
  },
  {
    "name": "Fleming Island",
    "country": "US",
    "lat": 30.0933,
    "lng": -81.71898
  },
  {
    "name": "Floral City",
    "country": "US",
    "lat": 28.74999,
    "lng": -82.29676
  },
  {
    "name": "Florida City",
    "country": "US",
    "lat": 25.44789,
    "lng": -80.47922
  },
  {
    "name": "Florida Ridge",
    "country": "US",
    "lat": 27.58031,
    "lng": -80.38672
  },
  {
    "name": "Flowery Branch",
    "country": "US",
    "lat": 34.1851,
    "lng": -83.92518
  },
  {
    "name": "Flora",
    "country": "US",
    "lat": 38.66894,
    "lng": -88.4856
  },
  {
    "name": "Flatwoods",
    "country": "US",
    "lat": 38.52258,
    "lng": -82.71711
  },
  {
    "name": "Flemingsburg",
    "country": "US",
    "lat": 38.4223,
    "lng": -83.73381
  },
  {
    "name": "Florence",
    "country": "US",
    "lat": 38.99895,
    "lng": -84.62661
  },
  {
    "name": "Flat River",
    "country": "US",
    "lat": 37.85005,
    "lng": -90.51679
  },
  {
    "name": "Florissant",
    "country": "US",
    "lat": 38.78922,
    "lng": -90.32261
  },
  {
    "name": "Flora",
    "country": "US",
    "lat": 32.5432,
    "lng": -90.30926
  },
  {
    "name": "Florence",
    "country": "US",
    "lat": 32.15348,
    "lng": -90.1312
  },
  {
    "name": "Flowood",
    "country": "US",
    "lat": 32.30959,
    "lng": -90.13898
  },
  {
    "name": "Flat Rock",
    "country": "US",
    "lat": 35.27123,
    "lng": -82.44151
  },
  {
    "name": "Flat Rock",
    "country": "US",
    "lat": 36.51236,
    "lng": -80.56978
  },
  {
    "name": "Fletcher",
    "country": "US",
    "lat": 35.43067,
    "lng": -82.50123
  },
  {
    "name": "Fletcher",
    "country": "US",
    "lat": 34.82312,
    "lng": -98.24422
  },
  {
    "name": "Florence",
    "country": "US",
    "lat": 34.19543,
    "lng": -79.76256
  },
  {
    "name": "Flatonia",
    "country": "US",
    "lat": 29.68773,
    "lng": -97.1086
  },
  {
    "name": "Florence",
    "country": "US",
    "lat": 30.8413,
    "lng": -97.79363
  },
  {
    "name": "Floresville",
    "country": "US",
    "lat": 29.13358,
    "lng": -98.15612
  },
  {
    "name": "Flower Mound",
    "country": "US",
    "lat": 33.01457,
    "lng": -97.09696
  },
  {
    "name": "Floris",
    "country": "US",
    "lat": 38.93706,
    "lng": -77.41277
  },
  {
    "name": "Floyd",
    "country": "US",
    "lat": 36.91124,
    "lng": -80.32005
  },
  {
    "name": "Florence",
    "country": "US",
    "lat": 39.73428,
    "lng": -74.91822
  },
  {
    "name": "Flanagan",
    "country": "US",
    "lat": 40.87809,
    "lng": -88.86118
  },
  {
    "name": "Flossmoor",
    "country": "US",
    "lat": 41.54281,
    "lng": -87.68477
  },
  {
    "name": "Flora",
    "country": "US",
    "lat": 40.54726,
    "lng": -86.52444
  },
  {
    "name": "Flat Rock",
    "country": "US",
    "lat": 42.09643,
    "lng": -83.29187
  },
  {
    "name": "Flint",
    "country": "US",
    "lat": 43.01253,
    "lng": -83.68746
  },
  {
    "name": "Flushing",
    "country": "US",
    "lat": 43.06308,
    "lng": -83.85107
  },
  {
    "name": "Florence",
    "country": "US",
    "lat": 40.11955,
    "lng": -74.80544
  },
  {
    "name": "Florham Park",
    "country": "US",
    "lat": 40.78788,
    "lng": -74.38821
  },
  {
    "name": "Flemington",
    "country": "US",
    "lat": 40.51233,
    "lng": -74.85933
  },
  {
    "name": "Flanders",
    "country": "US",
    "lat": 40.90343,
    "lng": -72.61759
  },
  {
    "name": "Flatbush",
    "country": "US",
    "lat": 40.65205,
    "lng": -73.95903
  },
  {
    "name": "Flatlands",
    "country": "US",
    "lat": 40.62122,
    "lng": -73.93486
  },
  {
    "name": "Floral Park",
    "country": "US",
    "lat": 40.72371,
    "lng": -73.70485
  },
  {
    "name": "Florida",
    "country": "US",
    "lat": 41.33176,
    "lng": -74.35682
  },
  {
    "name": "Flower Hill",
    "country": "US",
    "lat": 40.80732,
    "lng": -73.68124
  },
  {
    "name": "Fleetwood",
    "country": "US",
    "lat": 40.45398,
    "lng": -75.81798
  },
  {
    "name": "Flemington",
    "country": "US",
    "lat": 41.12646,
    "lng": -77.47165
  },
  {
    "name": "Flourtown",
    "country": "US",
    "lat": 40.10344,
    "lng": -75.2124
  },
  {
    "name": "Flying Hills",
    "country": "US",
    "lat": 40.27676,
    "lng": -75.9141
  },
  {
    "name": "Flandreau",
    "country": "US",
    "lat": 44.04942,
    "lng": -96.59532
  },
  {
    "name": "Florence",
    "country": "US",
    "lat": 45.92218,
    "lng": -88.2518
  },
  {
    "name": "Flagstaff",
    "country": "US",
    "lat": 35.19807,
    "lng": -111.65127
  },
  {
    "name": "Florence",
    "country": "US",
    "lat": 33.03145,
    "lng": -111.38734
  },
  {
    "name": "Flowing Wells",
    "country": "US",
    "lat": 32.29396,
    "lng": -111.00982
  },
  {
    "name": "Florin",
    "country": "US",
    "lat": 38.49602,
    "lng": -121.40884
  },
  {
    "name": "Florence",
    "country": "US",
    "lat": 38.39028,
    "lng": -105.1186
  },
  {
    "name": "Flora Vista",
    "country": "US",
    "lat": 36.79445,
    "lng": -108.08035
  },
  {
    "name": "Floydada",
    "country": "US",
    "lat": 33.98452,
    "lng": -101.33766
  },
  {
    "name": "Florence",
    "country": "US",
    "lat": 43.98262,
    "lng": -124.09984
  },
  {
    "name": "Florence-Graham",
    "country": "US",
    "lat": 33.96772,
    "lng": -118.24438
  },
  {
    "name": "Flagler Estates",
    "country": "US",
    "lat": 29.64553,
    "lng": -81.457
  },
  {
    "name": "Florida",
    "country": "UY",
    "lat": -34.10032,
    "lng": -56.21477
  },
  {
    "name": "Florencio Sánchez",
    "country": "UY",
    "lat": -33.87785,
    "lng": -57.37166
  },
  {
    "name": "Flagstaff",
    "country": "ZA",
    "lat": -31.08042,
    "lng": 29.49522
  }
]