[
  {
    "name": "Gladzor",
    "country": "AM",
    "lat": 39.7807,
    "lng": 45.34729
  },
  {
    "name": "Glojach",
    "country": "AT",
    "lat": 46.86667,
    "lng": 15.66667
  },
  {
    "name": "Gloggnitz",
    "country": "AT",
    "lat": 47.67487,
    "lng": 15.93893
  },
  {
    "name": "Glödnitz",
    "country": "AT",
    "lat": 46.87398,
    "lng": 14.11915
  },
  {
    "name": "Globasnitz",
    "country": "AT",
    "lat": 46.55694,
    "lng": 14.70278
  },
  {
    "name": "Glinzendorf",
    "country": "AT",
    "lat": 48.24605,
    "lng": 16.6406
  },
  {
    "name": "Gleisdorf",
    "country": "AT",
    "lat": 47.10559,
    "lng": 15.71011
  },
  {
    "name": "Gleinstätten",
    "country": "AT",
    "lat": 46.75361,
    "lng": 15.36972
  },
  {
    "name": "Glasenbach",
    "country": "AT",
    "lat": 47.76667,
    "lng": 13.08333
  },
  {
    "name": "Glanegg",
    "country": "AT",
    "lat": 47.75,
    "lng": 13.0
  },
  {
    "name": "Glanegg",
    "country": "AT",
    "lat": 46.72259,
    "lng": 14.19893
  },
  {
    "name": "Glenelg",
    "country": "AU",
    "lat": -34.98079,
    "lng": 138.515
  },
  {
    "name": "Glen Iris",
    "country": "AU",
    "lat": -33.33713,
    "lng": 115.6743
  },
  {
    "name": "Gloucester",
    "country": "AU",
    "lat": -32.0077,
    "lng": 151.9633
  },
  {
    "name": "Glen Waverley",
    "country": "AU",
    "lat": -37.87811,
    "lng": 145.16476
  },
  {
    "name": "Glenview",
    "country": "AU",
    "lat": -26.76667,
    "lng": 153.01667
  },
  {
    "name": "Glenroy",
    "country": "AU",
    "lat": -37.7,
    "lng": 144.93333
  },
  {
    "name": "Glenorie",
    "country": "AU",
    "lat": -33.60177,
    "lng": 151.00886
  },
  {
    "name": "Glenorchy",
    "country": "AU",
    "lat": -42.83343,
    "lng": 147.27593
  },
  {
    "name": "Glen Iris",
    "country": "AU",
    "lat": -37.86667,
    "lng": 145.06667
  },
  {
    "name": "Glen Innes",
    "country": "AU",
    "lat": -29.73485,
    "lng": 151.7385
  },
  {
    "name": "Glen Huntly",
    "country": "AU",
    "lat": -37.89237,
    "lng": 145.04135
  },
  {
    "name": "Glenhaven",
    "country": "AU",
    "lat": -33.7,
    "lng": 151.0
  },
  {
    "name": "Glengarry",
    "country": "AU",
    "lat": -38.11667,
    "lng": 146.56667
  },
  {
    "name": "Glenfield",
    "country": "AU",
    "lat": -33.96667,
    "lng": 150.9
  },
  {
    "name": "Glenferrie",
    "country": "AU",
    "lat": -37.83333,
    "lng": 145.05
  },
  {
    "name": "Glenella",
    "country": "AU",
    "lat": -21.11768,
    "lng": 149.14453
  },
  {
    "name": "Gleneagle",
    "country": "AU",
    "lat": -27.93333,
    "lng": 152.98333
  },
  {
    "name": "Glenbrook",
    "country": "AU",
    "lat": -33.76667,
    "lng": 150.61667
  },
  {
    "name": "Glebe",
    "country": "AU",
    "lat": -33.87884,
    "lng": 151.18426
  },
  {
    "name": "Glass House Mountains",
    "country": "AU",
    "lat": -26.89758,
    "lng": 152.95319
  },
  {
    "name": "Gladstone",
    "country": "AU",
    "lat": -23.84852,
    "lng": 151.25775
  },
  {
    "name": "Gladesville",
    "country": "AU",
    "lat": -33.83333,
    "lng": 151.13333
  },
  {
    "name": "Gladstone Park",
    "country": "AU",
    "lat": -37.68742,
    "lng": 144.88675
  },
  {
    "name": "Glenning Valley",
    "country": "AU",
    "lat": -33.35369,
    "lng": 151.42623
  },
  {
    "name": "Glenmore Park",
    "country": "AU",
    "lat": -33.79068,
    "lng": 150.6693
  },
  {
    "name": "Glossodia",
    "country": "AU",
    "lat": -33.53618,
    "lng": 150.7739
  },
  {
    "name": "Glenfield Park",
    "country": "AU",
    "lat": -35.13725,
    "lng": 147.33285
  },
  {
    "name": "Glenalta",
    "country": "AU",
    "lat": -35.00792,
    "lng": 138.62592
  },
  {
    "name": "Glenside",
    "country": "AU",
    "lat": -34.94275,
    "lng": 138.63375
  },
  {
    "name": "Glenwood",
    "country": "AU",
    "lat": -33.73333,
    "lng": 150.93284
  },
  {
    "name": "Glen Eden",
    "country": "AU",
    "lat": -23.89738,
    "lng": 151.27133
  },
  {
    "name": "Glen Osmond",
    "country": "AU",
    "lat": -34.9596,
    "lng": 138.64873
  },
  {
    "name": "Glynde",
    "country": "AU",
    "lat": -34.89605,
    "lng": 138.65253
  },
  {
    "name": "Glendalough",
    "country": "AU",
    "lat": -31.91991,
    "lng": 115.81945
  },
  {
    "name": "Glendenning",
    "country": "AU",
    "lat": -33.7483,
    "lng": 150.85411
  },
  {
    "name": "Glandore",
    "country": "AU",
    "lat": -34.96154,
    "lng": 138.56832
  },
  {
    "name": "Glen Forrest",
    "country": "AU",
    "lat": -31.91929,
    "lng": 116.10726
  },
  {
    "name": "Glengowrie",
    "country": "AU",
    "lat": -34.98708,
    "lng": 138.53674
  },
  {
    "name": "Glenvale",
    "country": "AU",
    "lat": -27.56818,
    "lng": 151.8934
  },
  {
    "name": "Glenroy",
    "country": "AU",
    "lat": -36.05021,
    "lng": 146.91058
  },
  {
    "name": "Glen Alpine",
    "country": "AU",
    "lat": -34.086,
    "lng": 150.78512
  },
  {
    "name": "Glenunga",
    "country": "AU",
    "lat": -34.95013,
    "lng": 138.63841
  },
  {
    "name": "Glenelg East",
    "country": "AU",
    "lat": -34.9764,
    "lng": 138.52962
  },
  {
    "name": "Glenelg North",
    "country": "AU",
    "lat": -34.9679,
    "lng": 138.51751
  },
  {
    "name": "Glendale",
    "country": "AU",
    "lat": -32.93194,
    "lng": 151.64103
  },
  {
    "name": "Gladstone Central",
    "country": "AU",
    "lat": -23.84281,
    "lng": 151.24887
  },
  {
    "name": "Glenelg South",
    "country": "AU",
    "lat": -34.98964,
    "lng": 138.51425
  },
  {
    "name": "Glamoč",
    "country": "BA",
    "lat": 44.04583,
    "lng": 16.84861
  },
  {
    "name": "Glons",
    "country": "BE",
    "lat": 50.75307,
    "lng": 5.54578
  },
  {
    "name": "Gleixhe",
    "country": "BE",
    "lat": 50.61391,
    "lng": 5.39008
  },
  {
    "name": "Glain",
    "country": "BE",
    "lat": 50.64772,
    "lng": 5.5438
  },
  {
    "name": "Glabbeek",
    "country": "BE",
    "lat": 50.87267,
    "lng": 4.95615
  },
  {
    "name": "Glavinitsa",
    "country": "BG",
    "lat": 43.91667,
    "lng": 26.83333
  },
  {
    "name": "Glazoué",
    "country": "BJ",
    "lat": 7.97252,
    "lng": 2.22176
  },
  {
    "name": "Glória do Goitá",
    "country": "BR",
    "lat": -8.00167,
    "lng": -35.29278
  },
  {
    "name": "Glória",
    "country": "BR",
    "lat": -9.33806,
    "lng": -38.25472
  },
  {
    "name": "Glória de Dourados",
    "country": "BR",
    "lat": -22.41564,
    "lng": -54.23005
  },
  {
    "name": "Glorinha",
    "country": "BR",
    "lat": -29.88056,
    "lng": -50.78306
  },
  {
    "name": "Glicério",
    "country": "BR",
    "lat": -21.37611,
    "lng": -50.20583
  },
  {
    "name": "Glaucilândia",
    "country": "BR",
    "lat": -16.84972,
    "lng": -43.69722
  },
  {
    "name": "Glória d'Oeste",
    "country": "BR",
    "lat": -15.76852,
    "lng": -58.31013
  },
  {
    "name": "Glusk",
    "country": "BY",
    "lat": 52.90197,
    "lng": 28.68308
  },
  {
    "name": "Glace Bay",
    "country": "CA",
    "lat": 46.19695,
    "lng": -59.95698
  },
  {
    "name": "Glenbrooke North",
    "country": "CA",
    "lat": 49.21667,
    "lng": -122.91667
  },
  {
    "name": "Glencoe",
    "country": "CA",
    "lat": 42.75009,
    "lng": -81.71648
  },
  {
    "name": "Glenmore",
    "country": "CA",
    "lat": 49.3625,
    "lng": -123.12222
  },
  {
    "name": "Glenrosa",
    "country": "CA",
    "lat": 49.85,
    "lng": -119.66667
  },
  {
    "name": "Glenfield-Jane Heights",
    "country": "CA",
    "lat": 43.74564,
    "lng": -79.51347
  },
  {
    "name": "Glenayre",
    "country": "CA",
    "lat": 49.27437,
    "lng": -122.8756
  },
  {
    "name": "Glenwood",
    "country": "CA",
    "lat": 49.27338,
    "lng": -122.78003
  },
  {
    "name": "Glovelier",
    "country": "CH",
    "lat": 47.33534,
    "lng": 7.20556
  },
  {
    "name": "Glattfelden",
    "country": "CH",
    "lat": 47.55871,
    "lng": 8.50167
  },
  {
    "name": "Glattbrugg",
    "country": "CH",
    "lat": 47.4313,
    "lng": 8.56272
  },
  {
    "name": "Glarus",
    "country": "CH",
    "lat": 47.04057,
    "lng": 9.06804
  },
  {
    "name": "Gland",
    "country": "CH",
    "lat": 46.42082,
    "lng": 6.2701
  },
  {
    "name": "Glattbrugg / Wydacker/Bettacker/Lättenwiesen",
    "country": "CH",
    "lat": 47.42908,
    "lng": 8.56657
  },
  {
    "name": "Glattbrugg / Rohr/Platten-Balsberg",
    "country": "CH",
    "lat": 47.43721,
    "lng": 8.56642
  },
  {
    "name": "Glo Djekro",
    "country": "CI",
    "lat": 7.19903,
    "lng": -4.83359
  },
  {
    "name": "Gliouieu",
    "country": "CI",
    "lat": 6.63143,
    "lng": -8.30519
  },
  {
    "name": "Gloubli",
    "country": "CI",
    "lat": 6.89842,
    "lng": -7.77758
  },
  {
    "name": "Gloplou",
    "country": "CI",
    "lat": 7.11261,
    "lng": -7.35152
  },
  {
    "name": "Gloleu",
    "country": "CI",
    "lat": 7.22149,
    "lng": -7.52095
  },
  {
    "name": "Glopaoudi",
    "country": "CI",
    "lat": 6.5443,
    "lng": -7.63274
  },
  {
    "name": "Glépleu",
    "country": "CI",
    "lat": 6.68173,
    "lng": -8.30832
  },
  {
    "name": "Glareu",
    "country": "CI",
    "lat": 6.6728,
    "lng": -8.27193
  },
  {
    "name": "Glaou",
    "country": "CI",
    "lat": 6.62573,
    "lng": -7.37005
  },
  {
    "name": "Glanié",
    "country": "CI",
    "lat": 7.75948,
    "lng": -8.0813
  },
  {
    "name": "Glanleu",
    "country": "CI",
    "lat": 6.84888,
    "lng": -8.2511
  },
  {
    "name": "Glangoualé",
    "country": "CI",
    "lat": 7.92103,
    "lng": -7.98655
  },
  {
    "name": "Gloleu",
    "country": "CI",
    "lat": 7.12901,
    "lng": -7.76901
  },
  {
    "name": "Gligbeuadji",
    "country": "CI",
    "lat": 5.2,
    "lng": -6.7
  },
  {
    "name": "Glückstadt",
    "country": "DE",
    "lat": 53.78819,
    "lng": 9.42408
  },
  {
    "name": "Glücksburg",
    "country": "DE",
    "lat": 54.83503,
    "lng": 9.55218
  },
  {
    "name": "Glowe",
    "country": "DE",
    "lat": 54.56911,
    "lng": 13.4655
  },
  {
    "name": "Glött",
    "country": "DE",
    "lat": 48.5,
    "lng": 10.48333
  },
  {
    "name": "Glöthe",
    "country": "DE",
    "lat": 51.91,
    "lng": 11.67471
  },
  {
    "name": "Glonn",
    "country": "DE",
    "lat": 47.98751,
    "lng": 11.86721
  },
  {
    "name": "Glindenberg",
    "country": "DE",
    "lat": 52.23857,
    "lng": 11.68361
  },
  {
    "name": "Glinde",
    "country": "DE",
    "lat": 53.5441,
    "lng": 10.20048
  },
  {
    "name": "Gliesmarode",
    "country": "DE",
    "lat": 52.27892,
    "lng": 10.55726
  },
  {
    "name": "Glienicke",
    "country": "DE",
    "lat": 52.63353,
    "lng": 13.32564
  },
  {
    "name": "Gleichamberg",
    "country": "DE",
    "lat": 50.37068,
    "lng": 10.59822
  },
  {
    "name": "Glauchau",
    "country": "DE",
    "lat": 50.81987,
    "lng": 12.54493
  },
  {
    "name": "Glauburg",
    "country": "DE",
    "lat": 50.31667,
    "lng": 9.0
  },
  {
    "name": "Glaubitz",
    "country": "DE",
    "lat": 51.32498,
    "lng": 13.37817
  },
  {
    "name": "Glatten",
    "country": "DE",
    "lat": 48.44246,
    "lng": 8.51116
  },
  {
    "name": "Glattbach",
    "country": "DE",
    "lat": 50.0076,
    "lng": 9.1499
  },
  {
    "name": "Glashütten",
    "country": "DE",
    "lat": 50.21667,
    "lng": 8.4
  },
  {
    "name": "Glashütten",
    "country": "DE",
    "lat": 49.88739,
    "lng": 11.4487
  },
  {
    "name": "Glashütte",
    "country": "DE",
    "lat": 50.85196,
    "lng": 13.77977
  },
  {
    "name": "Glan-Münchweiler",
    "country": "DE",
    "lat": 49.47222,
    "lng": 7.44204
  },
  {
    "name": "Glandorf",
    "country": "DE",
    "lat": 52.08474,
    "lng": 7.99944
  },
  {
    "name": "Gladenbach",
    "country": "DE",
    "lat": 50.76847,
    "lng": 8.58085
  },
  {
    "name": "Gladbeck",
    "country": "DE",
    "lat": 51.57077,
    "lng": 6.98593
  },
  {
    "name": "Glumsø",
    "country": "DK",
    "lat": 55.35679,
    "lng": 11.68557
  },
  {
    "name": "Glostrup",
    "country": "DK",
    "lat": 55.6666,
    "lng": 12.40377
  },
  {
    "name": "Glamsbjerg",
    "country": "DK",
    "lat": 55.27237,
    "lng": 10.10483
  },
  {
    "name": "Glomel",
    "country": "FR",
    "lat": 48.22288,
    "lng": -3.39526
  },
  {
    "name": "Gleizé",
    "country": "FR",
    "lat": 45.98916,
    "lng": 4.69708
  },
  {
    "name": "Glyn-neath",
    "country": "GB",
    "lat": 51.7475,
    "lng": -3.61833
  },
  {
    "name": "Glyncorrwg",
    "country": "GB",
    "lat": 51.67944,
    "lng": -3.62806
  },
  {
    "name": "Glusburn",
    "country": "GB",
    "lat": 53.9,
    "lng": -2.0
  },
  {
    "name": "Gloucester",
    "country": "GB",
    "lat": 51.86568,
    "lng": -2.2431
  },
  {
    "name": "Glossop",
    "country": "GB",
    "lat": 53.44325,
    "lng": -1.949
  },
  {
    "name": "Glinton",
    "country": "GB",
    "lat": 52.63921,
    "lng": -0.29629
  },
  {
    "name": "Glenrothes",
    "country": "GB",
    "lat": 56.19514,
    "lng": -3.17316
  },
  {
    "name": "Glen Parva",
    "country": "GB",
    "lat": 52.58527,
    "lng": -1.17062
  },
  {
    "name": "Glenfield",
    "country": "GB",
    "lat": 52.6466,
    "lng": -1.19493
  },
  {
    "name": "Glenboig",
    "country": "GB",
    "lat": 55.89422,
    "lng": -4.04619
  },
  {
    "name": "Glenavy",
    "country": "GB",
    "lat": 54.59231,
    "lng": -6.21371
  },
  {
    "name": "Glenariff",
    "country": "GB",
    "lat": 55.05,
    "lng": -6.06667
  },
  {
    "name": "Glemsford",
    "country": "GB",
    "lat": 52.10351,
    "lng": 0.66912
  },
  {
    "name": "Glazebury",
    "country": "GB",
    "lat": 53.47078,
    "lng": -2.49823
  },
  {
    "name": "Glastonbury",
    "country": "GB",
    "lat": 51.14745,
    "lng": -2.72075
  },
  {
    "name": "Glasgow",
    "country": "GB",
    "lat": 55.86515,
    "lng": -4.25763
  },
  {
    "name": "Glanamman",
    "country": "GB",
    "lat": 51.8,
    "lng": -3.93333
  },
  {
    "name": "Glandwr",
    "country": "GB",
    "lat": 51.92833,
    "lng": -4.63333
  },
  {
    "name": "Glapwell",
    "country": "GB",
    "lat": 53.18917,
    "lng": -1.28334
  },
  {
    "name": "Glenmavis",
    "country": "GB",
    "lat": 55.88913,
    "lng": -3.98726
  },
  {
    "name": "Glyfáda",
    "country": "GR",
    "lat": 37.86289,
    "lng": 23.75802
  },
  {
    "name": "Glina",
    "country": "HR",
    "lat": 45.33806,
    "lng": 16.08806
  },
  {
    "name": "Glavina Donja",
    "country": "HR",
    "lat": 43.445,
    "lng": 17.19889
  },
  {
    "name": "Glavice",
    "country": "HR",
    "lat": 43.71181,
    "lng": 16.66154
  },
  {
    "name": "Gloriett-telep",
    "country": "HU",
    "lat": 47.43182,
    "lng": 19.19292
  },
  {
    "name": "Glumbang",
    "country": "ID",
    "lat": -3.23949,
    "lng": 104.43725
  },
  {
    "name": "Glagahwero",
    "country": "ID",
    "lat": -8.177,
    "lng": 113.6188
  },
  {
    "name": "Glasnevin",
    "country": "IE",
    "lat": 53.37851,
    "lng": -6.28028
  },
  {
    "name": "Glanmire",
    "country": "IE",
    "lat": 51.91583,
    "lng": -8.39972
  },
  {
    "name": "Glorenza",
    "country": "IT",
    "lat": 46.67105,
    "lng": 10.55684
  },
  {
    "name": "Glorie",
    "country": "IT",
    "lat": 44.46994,
    "lng": 12.07707
  },
  {
    "name": "Gliaca",
    "country": "IT",
    "lat": 38.16317,
    "lng": 14.84768
  },
  {
    "name": "Glubokoye",
    "country": "KZ",
    "lat": 50.13887,
    "lng": 82.31114
  },
  {
    "name": "Glodeni",
    "country": "MD",
    "lat": 47.77467,
    "lng": 27.51753
  },
  {
    "name": "Glenmarie Estate",
    "country": "MY",
    "lat": 3.08333,
    "lng": 101.58333
  },
  {
    "name": "Glugor",
    "country": "MY",
    "lat": 5.37215,
    "lng": 100.30708
  },
  {
    "name": "Glimmen",
    "country": "NL",
    "lat": 53.13917,
    "lng": 6.62917
  },
  {
    "name": "Glomfjord",
    "country": "NO",
    "lat": 66.81663,
    "lng": 13.94404
  },
  {
    "name": "Gladstad",
    "country": "NO",
    "lat": 65.67683,
    "lng": 11.96218
  },
  {
    "name": "Gleniti",
    "country": "NZ",
    "lat": -44.38333,
    "lng": 171.2
  },
  {
    "name": "Gladstone",
    "country": "NZ",
    "lat": -46.38841,
    "lng": 168.35009
  },
  {
    "name": "Glengarry",
    "country": "NZ",
    "lat": -46.39842,
    "lng": 168.37009
  },
  {
    "name": "Glenwood",
    "country": "NZ",
    "lat": -44.37835,
    "lng": 171.1901
  },
  {
    "name": "Glendowie",
    "country": "NZ",
    "lat": -36.8582,
    "lng": 174.87019
  },
  {
    "name": "Glen Innes",
    "country": "NZ",
    "lat": -36.8682,
    "lng": 174.86019
  },
  {
    "name": "Glendene",
    "country": "NZ",
    "lat": -36.8882,
    "lng": 174.64019
  },
  {
    "name": "Glendale",
    "country": "NZ",
    "lat": -41.24827,
    "lng": 174.95019
  },
  {
    "name": "Gloria",
    "country": "PH",
    "lat": 12.98333,
    "lng": 121.46667
  },
  {
    "name": "Glan Peidu",
    "country": "PH",
    "lat": 5.855,
    "lng": 125.21861
  },
  {
    "name": "Glan",
    "country": "PH",
    "lat": 5.82417,
    "lng": 125.20333
  },
  {
    "name": "Glamang",
    "country": "PH",
    "lat": 6.16255,
    "lng": 125.08392
  },
  {
    "name": "Glad",
    "country": "PH",
    "lat": 7.14833,
    "lng": 124.51806
  },
  {
    "name": "Glinojeck",
    "country": "PL",
    "lat": 52.81983,
    "lng": 20.29198
  },
  {
    "name": "Gliwice",
    "country": "PL",
    "lat": 50.29761,
    "lng": 18.67658
  },
  {
    "name": "Glăvile",
    "country": "RO",
    "lat": 44.81667,
    "lng": 24.15
  },
  {
    "name": "Glogova",
    "country": "RO",
    "lat": 44.92806,
    "lng": 22.90667
  },
  {
    "name": "Glodenii Gândului",
    "country": "RO",
    "lat": 46.95158,
    "lng": 27.29938
  },
  {
    "name": "Glodeni",
    "country": "RO",
    "lat": 45.06345,
    "lng": 25.45342
  },
  {
    "name": "Glodeni",
    "country": "RO",
    "lat": 46.65,
    "lng": 24.6
  },
  {
    "name": "Glodeni",
    "country": "RO",
    "lat": 45.01667,
    "lng": 25.46667
  },
  {
    "name": "Glodeanu-Siliştea",
    "country": "RO",
    "lat": 44.83333,
    "lng": 26.8
  },
  {
    "name": "Glodeanu-Sărat",
    "country": "RO",
    "lat": 44.86667,
    "lng": 26.65
  },
  {
    "name": "Glod",
    "country": "RO",
    "lat": 45.24163,
    "lng": 25.44994
  },
  {
    "name": "Glina",
    "country": "RO",
    "lat": 44.38333,
    "lng": 26.25
  },
  {
    "name": "Glimboca",
    "country": "RO",
    "lat": 45.48333,
    "lng": 22.31667
  },
  {
    "name": "Glăvăneşti",
    "country": "RO",
    "lat": 46.25,
    "lng": 27.38333
  },
  {
    "name": "Glušci",
    "country": "RS",
    "lat": 44.89021,
    "lng": 19.54913
  },
  {
    "name": "Gložan",
    "country": "RS",
    "lat": 45.27954,
    "lng": 19.56838
  },
  {
    "name": "Glushkovo",
    "country": "RU",
    "lat": 51.34066,
    "lng": 34.63915
  },
  {
    "name": "Glubokoye",
    "country": "RU",
    "lat": 56.6089,
    "lng": 29.02066
  },
  {
    "name": "Glubokiy",
    "country": "RU",
    "lat": 48.52716,
    "lng": 40.33144
  },
  {
    "name": "Glubokiy",
    "country": "RU",
    "lat": 44.94673,
    "lng": 41.01845
  },
  {
    "name": "Glotovka",
    "country": "RU",
    "lat": 53.94906,
    "lng": 46.70422
  },
  {
    "name": "Glinka",
    "country": "RU",
    "lat": 54.6435,
    "lng": 32.87299
  },
  {
    "name": "Glinishchevo",
    "country": "RU",
    "lat": 53.30332,
    "lng": 34.07158
  },
  {
    "name": "Glembochino",
    "country": "RU",
    "lat": 56.18758,
    "lng": 28.3785
  },
  {
    "name": "Glebychevo",
    "country": "RU",
    "lat": 60.43868,
    "lng": 28.71826
  },
  {
    "name": "Glazunovka",
    "country": "RU",
    "lat": 52.50057,
    "lng": 36.31997
  },
  {
    "name": "Glazov",
    "country": "RU",
    "lat": 58.14,
    "lng": 52.65619
  },
  {
    "name": "Glafirovka",
    "country": "RU",
    "lat": 46.76378,
    "lng": 38.40785
  },
  {
    "name": "Glyadyanskoye",
    "country": "RU",
    "lat": 54.90973,
    "lng": 65.08843
  },
  {
    "name": "Glacis",
    "country": "SC",
    "lat": -4.57578,
    "lng": 55.4368
  },
  {
    "name": "Glumslöv",
    "country": "SE",
    "lat": 55.94091,
    "lng": 12.80929
  },
  {
    "name": "Glommen",
    "country": "SE",
    "lat": 56.93333,
    "lng": 12.35
  },
  {
    "name": "Glimåkra",
    "country": "SE",
    "lat": 56.3,
    "lng": 14.13333
  },
  {
    "name": "Gleno",
    "country": "TL",
    "lat": -8.72389,
    "lng": 125.43611
  },
  {
    "name": "Glazovka",
    "country": "UA",
    "lat": 45.38792,
    "lng": 36.57965
  },
  {
    "name": "Glencoe",
    "country": "US",
    "lat": 33.95704,
    "lng": -85.93247
  },
  {
    "name": "Glenwood",
    "country": "US",
    "lat": 34.32677,
    "lng": -93.55074
  },
  {
    "name": "Glover Park",
    "country": "US",
    "lat": 38.92094,
    "lng": -77.0772
  },
  {
    "name": "Glasgow",
    "country": "US",
    "lat": 39.60483,
    "lng": -75.74521
  },
  {
    "name": "Gladeview",
    "country": "US",
    "lat": 25.83926,
    "lng": -80.2356
  },
  {
    "name": "Glencoe",
    "country": "US",
    "lat": 29.02582,
    "lng": -80.972
  },
  {
    "name": "Glenvar Heights",
    "country": "US",
    "lat": 25.7076,
    "lng": -80.32561
  },
  {
    "name": "Glennville",
    "country": "US",
    "lat": 31.93659,
    "lng": -81.92845
  },
  {
    "name": "Glen Carbon",
    "country": "US",
    "lat": 38.74838,
    "lng": -89.98316
  },
  {
    "name": "Glasgow",
    "country": "US",
    "lat": 36.99588,
    "lng": -85.91192
  },
  {
    "name": "Glenmora",
    "country": "US",
    "lat": 30.97658,
    "lng": -92.58514
  },
  {
    "name": "Glassmanor",
    "country": "US",
    "lat": 38.819,
    "lng": -76.99859
  },
  {
    "name": "Glen Burnie",
    "country": "US",
    "lat": 39.16261,
    "lng": -76.62469
  },
  {
    "name": "Glenarden",
    "country": "US",
    "lat": 38.92928,
    "lng": -76.86164
  },
  {
    "name": "Glenmont",
    "country": "US",
    "lat": 39.05789,
    "lng": -77.0497
  },
  {
    "name": "Glenn Dale",
    "country": "US",
    "lat": 38.98761,
    "lng": -76.82053
  },
  {
    "name": "Gladstone",
    "country": "US",
    "lat": 39.20389,
    "lng": -94.55468
  },
  {
    "name": "Glasgow Village",
    "country": "US",
    "lat": 38.75366,
    "lng": -90.19844
  },
  {
    "name": "Glasgow",
    "country": "US",
    "lat": 39.22725,
    "lng": -92.84658
  },
  {
    "name": "Glendale",
    "country": "US",
    "lat": 38.59589,
    "lng": -90.37706
  },
  {
    "name": "Glendale",
    "country": "US",
    "lat": 31.36462,
    "lng": -89.30617
  },
  {
    "name": "Glen Alpine",
    "country": "US",
    "lat": 35.72902,
    "lng": -81.77927
  },
  {
    "name": "Glen Raven",
    "country": "US",
    "lat": 36.11319,
    "lng": -79.47641
  },
  {
    "name": "Glassboro",
    "country": "US",
    "lat": 39.70289,
    "lng": -75.11184
  },
  {
    "name": "Glendora",
    "country": "US",
    "lat": 39.83956,
    "lng": -75.07351
  },
  {
    "name": "Gloucester City",
    "country": "US",
    "lat": 39.89281,
    "lng": -75.12041
  },
  {
    "name": "Glendale",
    "country": "US",
    "lat": 39.27061,
    "lng": -84.45939
  },
  {
    "name": "Glouster",
    "country": "US",
    "lat": 39.50313,
    "lng": -82.08459
  },
  {
    "name": "Glenpool",
    "country": "US",
    "lat": 35.95537,
    "lng": -96.00888
  },
  {
    "name": "Glen Rock",
    "country": "US",
    "lat": 39.79316,
    "lng": -76.73025
  },
  {
    "name": "Glenolden",
    "country": "US",
    "lat": 39.90011,
    "lng": -75.28907
  },
  {
    "name": "Gloverville",
    "country": "US",
    "lat": 33.52597,
    "lng": -81.83011
  },
  {
    "name": "Gleason",
    "country": "US",
    "lat": 36.21367,
    "lng": -88.61255
  },
  {
    "name": "Gladewater",
    "country": "US",
    "lat": 32.53653,
    "lng": -94.94272
  },
  {
    "name": "Glen Rose",
    "country": "US",
    "lat": 32.23459,
    "lng": -97.75531
  },
  {
    "name": "Glenn Heights",
    "country": "US",
    "lat": 32.54875,
    "lng": -96.85667
  },
  {
    "name": "Glade Spring",
    "country": "US",
    "lat": 36.79122,
    "lng": -81.77123
  },
  {
    "name": "Glasgow",
    "country": "US",
    "lat": 37.63402,
    "lng": -79.45031
  },
  {
    "name": "Glen Allen",
    "country": "US",
    "lat": 37.66598,
    "lng": -77.50637
  },
  {
    "name": "Gloucester Courthouse",
    "country": "US",
    "lat": 37.40986,
    "lng": -76.52662
  },
  {
    "name": "Gloucester Point",
    "country": "US",
    "lat": 37.25403,
    "lng": -76.49689
  },
  {
    "name": "Glenville",
    "country": "US",
    "lat": 38.93426,
    "lng": -80.8376
  },
  {
    "name": "Glendale",
    "country": "US",
    "lat": 39.94924,
    "lng": -80.75425
  },
  {
    "name": "Glendale Heights",
    "country": "US",
    "lat": 41.9146,
    "lng": -88.06486
  },
  {
    "name": "Glastonbury",
    "country": "US",
    "lat": 41.71232,
    "lng": -72.60815
  },
  {
    "name": "Glastonbury Center",
    "country": "US",
    "lat": 41.70093,
    "lng": -72.59953
  },
  {
    "name": "Glenville",
    "country": "US",
    "lat": 41.03538,
    "lng": -73.65985
  },
  {
    "name": "Glenwood",
    "country": "US",
    "lat": 41.04694,
    "lng": -95.74251
  },
  {
    "name": "Glidden",
    "country": "US",
    "lat": 42.05693,
    "lng": -94.72887
  },
  {
    "name": "Glasford",
    "country": "US",
    "lat": 40.57254,
    "lng": -89.81344
  },
  {
    "name": "Glen Ellyn",
    "country": "US",
    "lat": 41.87753,
    "lng": -88.06701
  },
  {
    "name": "Glenview",
    "country": "US",
    "lat": 42.06975,
    "lng": -87.78784
  },
  {
    "name": "Glenwood",
    "country": "US",
    "lat": 41.54253,
    "lng": -87.60227
  },
  {
    "name": "Glencoe",
    "country": "US",
    "lat": 42.13503,
    "lng": -87.75812
  },
  {
    "name": "Gloucester",
    "country": "US",
    "lat": 42.61405,
    "lng": -70.66313
  },
  {
    "name": "Gladstone",
    "country": "US",
    "lat": 45.85274,
    "lng": -87.0218
  },
  {
    "name": "Gladwin",
    "country": "US",
    "lat": 43.98085,
    "lng": -84.4864
  },
  {
    "name": "Glencoe",
    "country": "US",
    "lat": 44.76913,
    "lng": -94.15164
  },
  {
    "name": "Glenwood",
    "country": "US",
    "lat": 45.65024,
    "lng": -95.38976
  },
  {
    "name": "Glyndon",
    "country": "US",
    "lat": 46.87524,
    "lng": -96.57896
  },
  {
    "name": "Gladstone",
    "country": "US",
    "lat": 40.7226,
    "lng": -74.66544
  },
  {
    "name": "Glen Gardner",
    "country": "US",
    "lat": 40.69677,
    "lng": -74.94072
  },
  {
    "name": "Glen Ridge",
    "country": "US",
    "lat": 40.80538,
    "lng": -74.20376
  },
  {
    "name": "Glen Rock",
    "country": "US",
    "lat": 40.96288,
    "lng": -74.13292
  },
  {
    "name": "Glasco",
    "country": "US",
    "lat": 42.0437,
    "lng": -73.94736
  },
  {
    "name": "Glen Cove",
    "country": "US",
    "lat": 40.86232,
    "lng": -73.63374
  },
  {
    "name": "Glen Head",
    "country": "US",
    "lat": 40.83538,
    "lng": -73.62374
  },
  {
    "name": "Glen Oaks",
    "country": "US",
    "lat": 40.74705,
    "lng": -73.71152
  },
  {
    "name": "Glendale",
    "country": "US",
    "lat": 40.70149,
    "lng": -73.8868
  },
  {
    "name": "Glens Falls",
    "country": "US",
    "lat": 43.30952,
    "lng": -73.64401
  },
  {
    "name": "Glenville",
    "country": "US",
    "lat": 42.92924,
    "lng": -74.05207
  },
  {
    "name": "Glenwood Landing",
    "country": "US",
    "lat": 40.83066,
    "lng": -73.63874
  },
  {
    "name": "Gloversville",
    "country": "US",
    "lat": 43.05285,
    "lng": -74.34375
  },
  {
    "name": "Glandorf",
    "country": "US",
    "lat": 41.02894,
    "lng": -84.07911
  },
  {
    "name": "Glendale",
    "country": "US",
    "lat": 41.397,
    "lng": -81.54234
  },
  {
    "name": "Glenmoor",
    "country": "US",
    "lat": 40.66617,
    "lng": -80.62313
  },
  {
    "name": "Glenville",
    "country": "US",
    "lat": 41.53338,
    "lng": -81.61735
  },
  {
    "name": "Glassport",
    "country": "US",
    "lat": 40.32479,
    "lng": -79.89227
  },
  {
    "name": "Glen Lyon",
    "country": "US",
    "lat": 41.17508,
    "lng": -76.07465
  },
  {
    "name": "Glen Willow",
    "country": "US",
    "lat": 40.03483,
    "lng": -75.22574
  },
  {
    "name": "Glenside",
    "country": "US",
    "lat": 40.10233,
    "lng": -75.15212
  },
  {
    "name": "Glenshaw",
    "country": "US",
    "lat": 40.53285,
    "lng": -79.96755
  },
  {
    "name": "Glendale",
    "country": "US",
    "lat": 43.13529,
    "lng": -87.93564
  },
  {
    "name": "Glenmore",
    "country": "US",
    "lat": 44.38583,
    "lng": -87.92732
  },
  {
    "name": "Glenwood City",
    "country": "US",
    "lat": 45.05857,
    "lng": -92.17241
  },
  {
    "name": "Glendale",
    "country": "US",
    "lat": 33.53865,
    "lng": -112.18599
  },
  {
    "name": "Globe",
    "country": "US",
    "lat": 33.39422,
    "lng": -110.7865
  },
  {
    "name": "Glen Avon",
    "country": "US",
    "lat": 34.01168,
    "lng": -117.48477
  },
  {
    "name": "Glendale",
    "country": "US",
    "lat": 34.14251,
    "lng": -118.25508
  },
  {
    "name": "Glendora",
    "country": "US",
    "lat": 34.13612,
    "lng": -117.86534
  },
  {
    "name": "Glendale",
    "country": "US",
    "lat": 39.70499,
    "lng": -104.93359
  },
  {
    "name": "Gleneagle",
    "country": "US",
    "lat": 39.04527,
    "lng": -104.82442
  },
  {
    "name": "Glenwood Springs",
    "country": "US",
    "lat": 39.55054,
    "lng": -107.32478
  },
  {
    "name": "Glenns Ferry",
    "country": "US",
    "lat": 42.9549,
    "lng": -115.3009
  },
  {
    "name": "Glasgow",
    "country": "US",
    "lat": 48.19696,
    "lng": -106.63671
  },
  {
    "name": "Glendive",
    "country": "US",
    "lat": 47.10529,
    "lng": -104.71246
  },
  {
    "name": "Gladstone",
    "country": "US",
    "lat": 45.38068,
    "lng": -122.59481
  },
  {
    "name": "Glide",
    "country": "US",
    "lat": 43.30151,
    "lng": -123.10118
  },
  {
    "name": "Gleed",
    "country": "US",
    "lat": 46.65818,
    "lng": -120.6134
  },
  {
    "name": "Glenrock",
    "country": "US",
    "lat": 42.86136,
    "lng": -105.87223
  },
  {
    "name": "Glens Falls North",
    "country": "US",
    "lat": 43.33506,
    "lng": -73.68251
  },
  {
    "name": "Glen",
    "country": "US",
    "lat": 39.35632,
    "lng": -76.69066
  },
  {
    "name": "Glenham-Belhar",
    "country": "US",
    "lat": 39.35003,
    "lng": -76.54858
  },
  {
    "name": "Glen Oaks",
    "country": "US",
    "lat": 39.36483,
    "lng": -76.59647
  },
  {
    "name": "Glogovac",
    "country": "XK",
    "lat": 42.62833,
    "lng": 20.89389
  },
  {
    "name": "Gllogjan",
    "country": "XK",
    "lat": 42.50722,
    "lng": 20.36278
  },
  {
    "name": "Glanica",
    "country": "XK",
    "lat": 42.54933,
    "lng": 21.06336
  },
  {
    "name": "Glenharvie",
    "country": "ZA",
    "lat": -26.38989,
    "lng": 27.61592
  },
  {
    "name": "Glencoe",
    "country": "ZA",
    "lat": -28.17827,
    "lng": 30.14702
  },
  {
    "name": "Glaudina",
    "country": "ZA",
    "lat": -27.03679,
    "lng": 25.63026
  },
  {
    "name": "Glenmore",
    "country": "ZA",
    "lat": -33.13235,
    "lng": 26.87483
  },
  {
    "name": "Glen Mill",
    "country": "ZA",
    "lat": -29.29371,
    "lng": 31.1397
  },
  {
    "name": "Glenmore",
    "country": "ZA",
    "lat": -26.26469,
    "lng": 30.84358
  },
  {
    "name": "Glendale",
    "country": "ZW",
    "lat": -17.35514,
    "lng": 31.06718
  }
]