[
  {
    "name": "Himarë",
    "country": "AL",
    "lat": 40.10167,
    "lng": 19.74472
  },
  {
    "name": "Hipólito Bouchard",
    "country": "AR",
    "lat": -34.72387,
    "lng": -63.50733
  },
  {
    "name": "Hitzendorf",
    "country": "AT",
    "lat": 47.03333,
    "lng": 15.3
  },
  {
    "name": "Hirtenberg",
    "country": "AT",
    "lat": 47.93095,
    "lng": 16.17908
  },
  {
    "name": "Hirschegg",
    "country": "AT",
    "lat": 47.34813,
    "lng": 10.17137
  },
  {
    "name": "Hirschbach",
    "country": "AT",
    "lat": 48.74329,
    "lng": 15.12521
  },
  {
    "name": "Hirnsdorf",
    "country": "AT",
    "lat": 47.19167,
    "lng": 15.82868
  },
  {
    "name": "Hirm",
    "country": "AT",
    "lat": 47.78652,
    "lng": 16.4546
  },
  {
    "name": "Hippach",
    "country": "AT",
    "lat": 47.20435,
    "lng": 11.86523
  },
  {
    "name": "Hintersee",
    "country": "AT",
    "lat": 47.7,
    "lng": 13.28333
  },
  {
    "name": "Hinterbrühl",
    "country": "AT",
    "lat": 48.08611,
    "lng": 16.24809
  },
  {
    "name": "Himmelreich",
    "country": "AT",
    "lat": 47.79,
    "lng": 12.987
  },
  {
    "name": "Himmelberg",
    "country": "AT",
    "lat": 46.75667,
    "lng": 14.03056
  },
  {
    "name": "Himberg",
    "country": "AT",
    "lat": 48.08333,
    "lng": 16.43333
  },
  {
    "name": "Hietzing",
    "country": "AT",
    "lat": 48.18623,
    "lng": 16.2965
  },
  {
    "name": "Hieflau",
    "country": "AT",
    "lat": 47.60639,
    "lng": 14.74503
  },
  {
    "name": "Hinterglemm",
    "country": "AT",
    "lat": 47.37685,
    "lng": 12.59583
  },
  {
    "name": "Hittisau",
    "country": "AT",
    "lat": 47.45781,
    "lng": 9.95962
  },
  {
    "name": "Hinterberg",
    "country": "AT",
    "lat": 47.36066,
    "lng": 15.06951
  },
  {
    "name": "Hinterleiten",
    "country": "AT",
    "lat": 48.16513,
    "lng": 15.96654
  },
  {
    "name": "Hindmarsh Island",
    "country": "AU",
    "lat": -35.51014,
    "lng": 138.86762
  },
  {
    "name": "Hill Top",
    "country": "AU",
    "lat": -34.34792,
    "lng": 150.4955
  },
  {
    "name": "Hillston",
    "country": "AU",
    "lat": -33.48266,
    "lng": 145.53525
  },
  {
    "name": "Highett",
    "country": "AU",
    "lat": -37.95,
    "lng": 145.05
  },
  {
    "name": "Hillarys",
    "country": "AU",
    "lat": -31.80698,
    "lng": 115.74045
  },
  {
    "name": "Highgate Hill",
    "country": "AU",
    "lat": -27.48912,
    "lng": 153.01878
  },
  {
    "name": "Highfields",
    "country": "AU",
    "lat": -27.46343,
    "lng": 151.95386
  },
  {
    "name": "Hillcrest",
    "country": "AU",
    "lat": -34.86252,
    "lng": 138.64306
  },
  {
    "name": "Highbury",
    "country": "AU",
    "lat": -34.85287,
    "lng": 138.6975
  },
  {
    "name": "Highland Park",
    "country": "AU",
    "lat": -28.01392,
    "lng": 153.33312
  },
  {
    "name": "Hillcrest",
    "country": "AU",
    "lat": -27.66857,
    "lng": 153.02614
  },
  {
    "name": "Highton",
    "country": "AU",
    "lat": -38.17058,
    "lng": 144.3114
  },
  {
    "name": "Hillvue",
    "country": "AU",
    "lat": -31.12756,
    "lng": 150.90711
  },
  {
    "name": "Highvale",
    "country": "AU",
    "lat": -27.37227,
    "lng": 152.80195
  },
  {
    "name": "Hillsdale",
    "country": "AU",
    "lat": -33.95151,
    "lng": 151.22784
  },
  {
    "name": "Hillman",
    "country": "AU",
    "lat": -32.28327,
    "lng": 115.76364
  },
  {
    "name": "High Wycombe",
    "country": "AU",
    "lat": -31.94444,
    "lng": 116.0034
  },
  {
    "name": "Higgins",
    "country": "AU",
    "lat": -35.23242,
    "lng": 149.0272
  },
  {
    "name": "Hinchinbrook",
    "country": "AU",
    "lat": -33.91878,
    "lng": 150.86314
  },
  {
    "name": "Hillside",
    "country": "AU",
    "lat": -37.69047,
    "lng": 144.74172
  },
  {
    "name": "Hillcrest",
    "country": "AU",
    "lat": -41.06324,
    "lng": 145.89437
  },
  {
    "name": "Hillbank",
    "country": "AU",
    "lat": -34.73588,
    "lng": 138.68723
  },
  {
    "name": "Highgate",
    "country": "AU",
    "lat": -31.93971,
    "lng": 115.87015
  },
  {
    "name": "Highgate",
    "country": "AU",
    "lat": -34.96177,
    "lng": 138.6218
  },
  {
    "name": "Hilbert",
    "country": "AU",
    "lat": -32.17818,
    "lng": 115.9849
  },
  {
    "name": "Hilton",
    "country": "AU",
    "lat": -32.06208,
    "lng": 115.78049
  },
  {
    "name": "Hiseti",
    "country": "BA",
    "lat": 44.76111,
    "lng": 17.17944
  },
  {
    "name": "Hingene",
    "country": "BE",
    "lat": 51.10345,
    "lng": 4.26904
  },
  {
    "name": "Hillegem",
    "country": "BE",
    "lat": 50.89567,
    "lng": 3.8531
  },
  {
    "name": "Hisarya",
    "country": "BG",
    "lat": 42.5,
    "lng": 24.7
  },
  {
    "name": "Hinvi",
    "country": "BJ",
    "lat": 6.76667,
    "lng": 2.16667
  },
  {
    "name": "Hidrolândia",
    "country": "BR",
    "lat": -4.408,
    "lng": -40.40414
  },
  {
    "name": "Hidrolina",
    "country": "BR",
    "lat": -14.72444,
    "lng": -49.465
  },
  {
    "name": "Hidrolândia",
    "country": "BR",
    "lat": -16.96222,
    "lng": -49.22806
  },
  {
    "name": "High Rock",
    "country": "BS",
    "lat": 26.62651,
    "lng": -78.28209
  },
  {
    "name": "Highland Creek",
    "country": "CA",
    "lat": 43.79068,
    "lng": -79.17555
  },
  {
    "name": "High Level",
    "country": "CA",
    "lat": 58.51688,
    "lng": -117.13605
  },
  {
    "name": "High Prairie",
    "country": "CA",
    "lat": 55.4334,
    "lng": -116.4858
  },
  {
    "name": "High River",
    "country": "CA",
    "lat": 50.58341,
    "lng": -113.86867
  },
  {
    "name": "Hillcrest Village",
    "country": "CA",
    "lat": 43.80486,
    "lng": -79.35442
  },
  {
    "name": "Hinton",
    "country": "CA",
    "lat": 53.40009,
    "lng": -117.58567
  },
  {
    "name": "High Park North",
    "country": "CA",
    "lat": 43.65626,
    "lng": -79.47454
  },
  {
    "name": "High Park-Swansea",
    "country": "CA",
    "lat": 43.64506,
    "lng": -79.46787
  },
  {
    "name": "Hillside-Quadra",
    "country": "CA",
    "lat": 48.44473,
    "lng": -123.35598
  },
  {
    "name": "Highlands",
    "country": "CA",
    "lat": 49.34266,
    "lng": -123.09517
  },
  {
    "name": "Historic Downtown",
    "country": "CA",
    "lat": 49.05141,
    "lng": -122.29335
  },
  {
    "name": "Hinda",
    "country": "CG",
    "lat": -4.61333,
    "lng": 12.04361
  },
  {
    "name": "Hitzkirch",
    "country": "CH",
    "lat": 47.22403,
    "lng": 8.26425
  },
  {
    "name": "Hittnau / Hittnau (Dorf)",
    "country": "CH",
    "lat": 47.36334,
    "lng": 8.82418
  },
  {
    "name": "Hinwil",
    "country": "CH",
    "lat": 47.29426,
    "lng": 8.84393
  },
  {
    "name": "Hinterrhein",
    "country": "CH",
    "lat": 46.53333,
    "lng": 9.2
  },
  {
    "name": "Hindelbank",
    "country": "CH",
    "lat": 47.0427,
    "lng": 7.54143
  },
  {
    "name": "Himmelried",
    "country": "CH",
    "lat": 47.42136,
    "lng": 7.59985
  },
  {
    "name": "Hilterfingen",
    "country": "CH",
    "lat": 46.73521,
    "lng": 7.66185
  },
  {
    "name": "Hildisrieden",
    "country": "CH",
    "lat": 47.15068,
    "lng": 8.22582
  },
  {
    "name": "Hinteregg",
    "country": "CH",
    "lat": 47.30736,
    "lng": 8.68339
  },
  {
    "name": "Hiré",
    "country": "CI",
    "lat": 6.18878,
    "lng": -5.29463
  },
  {
    "name": "Hispania",
    "country": "CO",
    "lat": 5.79925,
    "lng": -75.90718
  },
  {
    "name": "Hitzhusen",
    "country": "DE",
    "lat": 53.92397,
    "lng": 9.85262
  },
  {
    "name": "Hitzacker",
    "country": "DE",
    "lat": 53.15254,
    "lng": 11.04418
  },
  {
    "name": "Hirzenhain",
    "country": "DE",
    "lat": 50.4,
    "lng": 9.13333
  },
  {
    "name": "Hirschhorn",
    "country": "DE",
    "lat": 49.44566,
    "lng": 8.89594
  },
  {
    "name": "Hirschfelde",
    "country": "DE",
    "lat": 50.94437,
    "lng": 14.8851
  },
  {
    "name": "Hirschfeld",
    "country": "DE",
    "lat": 51.38333,
    "lng": 13.61667
  },
  {
    "name": "Hirschfeld",
    "country": "DE",
    "lat": 50.62453,
    "lng": 12.45722
  },
  {
    "name": "Hirschbach",
    "country": "DE",
    "lat": 49.55,
    "lng": 11.53333
  },
  {
    "name": "Hirschau",
    "country": "DE",
    "lat": 49.54396,
    "lng": 11.94617
  },
  {
    "name": "Hirschaid",
    "country": "DE",
    "lat": 49.81789,
    "lng": 10.98918
  },
  {
    "name": "Hirrlingen",
    "country": "DE",
    "lat": 48.41245,
    "lng": 8.88742
  },
  {
    "name": "Hipstedt",
    "country": "DE",
    "lat": 53.4811,
    "lng": 8.97005
  },
  {
    "name": "Hinterzarten",
    "country": "DE",
    "lat": 47.90276,
    "lng": 8.10701
  },
  {
    "name": "Hinterweidenthal",
    "country": "DE",
    "lat": 49.2,
    "lng": 7.75
  },
  {
    "name": "Hinterschmiding",
    "country": "DE",
    "lat": 48.82337,
    "lng": 13.60369
  },
  {
    "name": "Hinte",
    "country": "DE",
    "lat": 53.40652,
    "lng": 7.19929
  },
  {
    "name": "Himmelstadt",
    "country": "DE",
    "lat": 49.92389,
    "lng": 9.80167
  },
  {
    "name": "Himmelpforten",
    "country": "DE",
    "lat": 53.61413,
    "lng": 9.30516
  },
  {
    "name": "Himmelkron",
    "country": "DE",
    "lat": 50.06667,
    "lng": 11.6
  },
  {
    "name": "Himbergen",
    "country": "DE",
    "lat": 53.09418,
    "lng": 10.72909
  },
  {
    "name": "Hilzingen",
    "country": "DE",
    "lat": 47.76667,
    "lng": 8.78333
  },
  {
    "name": "Hiltpoltstein",
    "country": "DE",
    "lat": 49.66075,
    "lng": 11.32272
  },
  {
    "name": "Hilter",
    "country": "DE",
    "lat": 52.13573,
    "lng": 8.14715
  },
  {
    "name": "Hiltenfingen",
    "country": "DE",
    "lat": 48.16085,
    "lng": 10.7175
  },
  {
    "name": "Hilpoltstein",
    "country": "DE",
    "lat": 49.19047,
    "lng": 11.1906
  },
  {
    "name": "Hillscheid",
    "country": "DE",
    "lat": 50.40639,
    "lng": 7.69861
  },
  {
    "name": "Hillesheim",
    "country": "DE",
    "lat": 50.29177,
    "lng": 6.66963
  },
  {
    "name": "Hillerse",
    "country": "DE",
    "lat": 51.68558,
    "lng": 9.94973
  },
  {
    "name": "Hille",
    "country": "DE",
    "lat": 52.33333,
    "lng": 8.75
  },
  {
    "name": "Hilgertshausen-Tandern",
    "country": "DE",
    "lat": 48.4296,
    "lng": 11.35428
  },
  {
    "name": "Hilgert",
    "country": "DE",
    "lat": 50.45634,
    "lng": 7.68735
  },
  {
    "name": "Hilgermissen",
    "country": "DE",
    "lat": 52.85,
    "lng": 9.16667
  },
  {
    "name": "Hildrizhausen",
    "country": "DE",
    "lat": 48.62423,
    "lng": 8.96605
  },
  {
    "name": "Hildesheim",
    "country": "DE",
    "lat": 52.15077,
    "lng": 9.95112
  },
  {
    "name": "Hilders",
    "country": "DE",
    "lat": 50.5719,
    "lng": 10.00297
  },
  {
    "name": "Hilden",
    "country": "DE",
    "lat": 51.16818,
    "lng": 6.93093
  },
  {
    "name": "Hildburghausen",
    "country": "DE",
    "lat": 50.42553,
    "lng": 10.73184
  },
  {
    "name": "Hilchenbach",
    "country": "DE",
    "lat": 50.99687,
    "lng": 8.11062
  },
  {
    "name": "Hilbersdorf",
    "country": "DE",
    "lat": 50.854,
    "lng": 12.94776
  },
  {
    "name": "Hiddenhausen",
    "country": "DE",
    "lat": 52.16667,
    "lng": 8.61667
  },
  {
    "name": "Hiddensee",
    "country": "DE",
    "lat": 54.56689,
    "lng": 13.10411
  },
  {
    "name": "Hirschberg an der Bergstraße",
    "country": "DE",
    "lat": 49.5071,
    "lng": 8.65693
  },
  {
    "name": "Hirtshals",
    "country": "DK",
    "lat": 57.58812,
    "lng": 9.95922
  },
  {
    "name": "Hinnerup",
    "country": "DK",
    "lat": 56.7347,
    "lng": 9.05874
  },
  {
    "name": "Hinnerup",
    "country": "DK",
    "lat": 56.26608,
    "lng": 10.06299
  },
  {
    "name": "Hillerød",
    "country": "DK",
    "lat": 55.92791,
    "lng": 12.30081
  },
  {
    "name": "Hihyā",
    "country": "EG",
    "lat": 30.6713,
    "lng": 31.58801
  },
  {
    "name": "Himora",
    "country": "ER",
    "lat": 14.30427,
    "lng": 36.60601
  },
  {
    "name": "Hinojosas de Calatrava",
    "country": "ES",
    "lat": 38.61446,
    "lng": -4.13979
  },
  {
    "name": "Hinojosa del Valle",
    "country": "ES",
    "lat": 38.48333,
    "lng": -6.18333
  },
  {
    "name": "Hinojosa del Duque",
    "country": "ES",
    "lat": 38.50057,
    "lng": -5.14651
  },
  {
    "name": "Hinojos",
    "country": "ES",
    "lat": 37.29173,
    "lng": -6.37872
  },
  {
    "name": "Hinojares",
    "country": "ES",
    "lat": 37.71586,
    "lng": -2.99769
  },
  {
    "name": "Hinojales",
    "country": "ES",
    "lat": 38.0,
    "lng": -6.58333
  },
  {
    "name": "Hinojal",
    "country": "ES",
    "lat": 39.709,
    "lng": -6.35567
  },
  {
    "name": "Higueruelas",
    "country": "ES",
    "lat": 39.78333,
    "lng": -0.85
  },
  {
    "name": "Higueruela",
    "country": "ES",
    "lat": 38.96371,
    "lng": -1.4437
  },
  {
    "name": "Higueras",
    "country": "ES",
    "lat": 39.98333,
    "lng": -0.5
  },
  {
    "name": "Higuera la Real",
    "country": "ES",
    "lat": 38.14088,
    "lng": -6.68922
  },
  {
    "name": "Higuera de Vargas",
    "country": "ES",
    "lat": 38.447,
    "lng": -6.97517
  },
  {
    "name": "Higuera de la Sierra",
    "country": "ES",
    "lat": 37.83333,
    "lng": -6.45
  },
  {
    "name": "Higuera de la Serena",
    "country": "ES",
    "lat": 38.64616,
    "lng": -5.74129
  },
  {
    "name": "Higuera de Calatrava",
    "country": "ES",
    "lat": 37.79848,
    "lng": -4.15737
  },
  {
    "name": "Higuera de Arjona",
    "country": "ES",
    "lat": 37.97064,
    "lng": -3.99061
  },
  {
    "name": "Higuera",
    "country": "ES",
    "lat": 39.72551,
    "lng": -5.66692
  },
  {
    "name": "Hita",
    "country": "ES",
    "lat": 40.82149,
    "lng": -3.0454
  },
  {
    "name": "Hinojosa de San Vicente",
    "country": "ES",
    "lat": 40.10463,
    "lng": -4.72269
  },
  {
    "name": "Hinojosa del Campo",
    "country": "ES",
    "lat": 41.73844,
    "lng": -2.09946
  },
  {
    "name": "Hinojosa de Jarque",
    "country": "ES",
    "lat": 40.69049,
    "lng": -0.78541
  },
  {
    "name": "Hinojosa de Duero",
    "country": "ES",
    "lat": 40.98674,
    "lng": -6.79529
  },
  {
    "name": "Hijes",
    "country": "ES",
    "lat": 41.25139,
    "lng": -2.99989
  },
  {
    "name": "Higuera de las Dueñas",
    "country": "ES",
    "lat": 40.23903,
    "lng": -4.60361
  },
  {
    "name": "Hiendelaencina",
    "country": "ES",
    "lat": 41.08373,
    "lng": -3.00337
  },
  {
    "name": "Hispanoamérica",
    "country": "ES",
    "lat": 40.45537,
    "lng": -3.67711
  },
  {
    "name": "Hirvensalmi",
    "country": "FI",
    "lat": 61.63333,
    "lng": 26.8
  },
  {
    "name": "Himanka",
    "country": "FI",
    "lat": 64.06218,
    "lng": 23.65447
  },
  {
    "name": "Hiekkaharju",
    "country": "FI",
    "lat": 60.30357,
    "lng": 25.04411
  },
  {
    "name": "Hiukkavaara",
    "country": "FI",
    "lat": 65.01585,
    "lng": 25.58402
  },
  {
    "name": "Hiironen",
    "country": "FI",
    "lat": 64.98416,
    "lng": 25.52246
  },
  {
    "name": "Hietalahti",
    "country": "FI",
    "lat": 63.0848,
    "lng": 21.61716
  },
  {
    "name": "Hirtzfelden",
    "country": "FR",
    "lat": 47.91131,
    "lng": 7.4461
  },
  {
    "name": "Hirtzbach",
    "country": "FR",
    "lat": 47.59839,
    "lng": 7.22222
  },
  {
    "name": "Hirson",
    "country": "FR",
    "lat": 49.92262,
    "lng": 4.08259
  },
  {
    "name": "Hirsingue",
    "country": "FR",
    "lat": 47.58768,
    "lng": 7.25299
  },
  {
    "name": "Hirel",
    "country": "FR",
    "lat": 48.60578,
    "lng": -1.80184
  },
  {
    "name": "Hinx",
    "country": "FR",
    "lat": 43.70184,
    "lng": -0.92679
  },
  {
    "name": "Hinges",
    "country": "FR",
    "lat": 50.56674,
    "lng": 2.6216
  },
  {
    "name": "Hindisheim",
    "country": "FR",
    "lat": 48.46837,
    "lng": 7.63859
  },
  {
    "name": "Hilsenheim",
    "country": "FR",
    "lat": 48.28761,
    "lng": 7.56348
  },
  {
    "name": "Hillion",
    "country": "FR",
    "lat": 48.51405,
    "lng": -2.66825
  },
  {
    "name": "Hiersac",
    "country": "FR",
    "lat": 45.66852,
    "lng": 0.00415
  },
  {
    "name": "Hières-sur-Amby",
    "country": "FR",
    "lat": 45.79654,
    "lng": 5.29333
  },
  {
    "name": "Hitchin",
    "country": "GB",
    "lat": 51.94924,
    "lng": -0.28496
  },
  {
    "name": "Histon",
    "country": "GB",
    "lat": 52.25166,
    "lng": 0.10643
  },
  {
    "name": "Hirwaun",
    "country": "GB",
    "lat": 51.73917,
    "lng": -3.51028
  },
  {
    "name": "Hinton Charterhouse",
    "country": "GB",
    "lat": 51.32377,
    "lng": -2.32841
  },
  {
    "name": "Hinton",
    "country": "GB",
    "lat": 51.48972,
    "lng": -2.38472
  },
  {
    "name": "Hingham",
    "country": "GB",
    "lat": 52.57969,
    "lng": 0.98422
  },
  {
    "name": "Hindon",
    "country": "GB",
    "lat": 51.09222,
    "lng": -2.12583
  },
  {
    "name": "Hindley",
    "country": "GB",
    "lat": 53.53333,
    "lng": -2.58333
  },
  {
    "name": "Hindhead",
    "country": "GB",
    "lat": 51.11381,
    "lng": -0.73351
  },
  {
    "name": "Hinckley",
    "country": "GB",
    "lat": 52.5389,
    "lng": -1.37613
  },
  {
    "name": "Hilton",
    "country": "GB",
    "lat": 52.27908,
    "lng": -0.11222
  },
  {
    "name": "Hillside",
    "country": "GB",
    "lat": 56.74483,
    "lng": -2.474
  },
  {
    "name": "Hillsborough",
    "country": "GB",
    "lat": 54.46345,
    "lng": -6.07664
  },
  {
    "name": "Hillingdon",
    "country": "GB",
    "lat": 51.53291,
    "lng": -0.45293
  },
  {
    "name": "Hill",
    "country": "GB",
    "lat": 51.65139,
    "lng": -2.51556
  },
  {
    "name": "High Wycombe",
    "country": "GB",
    "lat": 51.62907,
    "lng": -0.74934
  },
  {
    "name": "Highworth",
    "country": "GB",
    "lat": 51.63051,
    "lng": -1.711
  },
  {
    "name": "High Valleyfield",
    "country": "GB",
    "lat": 56.06357,
    "lng": -3.59913
  },
  {
    "name": "Hightown",
    "country": "GB",
    "lat": 53.52452,
    "lng": -3.06192
  },
  {
    "name": "High Ongar",
    "country": "GB",
    "lat": 51.70953,
    "lng": 0.26221
  },
  {
    "name": "Highley",
    "country": "GB",
    "lat": 52.44866,
    "lng": -2.38251
  },
  {
    "name": "High Legh",
    "country": "GB",
    "lat": 53.35139,
    "lng": -2.4538
  },
  {
    "name": "High Halstow",
    "country": "GB",
    "lat": 51.44775,
    "lng": 0.55558
  },
  {
    "name": "High Halden",
    "country": "GB",
    "lat": 51.10331,
    "lng": 0.71394
  },
  {
    "name": "Highgate",
    "country": "GB",
    "lat": 51.56565,
    "lng": -0.15904
  },
  {
    "name": "High Etherley",
    "country": "GB",
    "lat": 54.65391,
    "lng": -1.74363
  },
  {
    "name": "High Coniscliffe",
    "country": "GB",
    "lat": 54.53333,
    "lng": -1.65
  },
  {
    "name": "Highclere",
    "country": "GB",
    "lat": 51.3386,
    "lng": -1.37569
  },
  {
    "name": "Highbury",
    "country": "GB",
    "lat": 51.55,
    "lng": -0.1
  },
  {
    "name": "Highbridge",
    "country": "GB",
    "lat": 51.21667,
    "lng": -2.98333
  },
  {
    "name": "High Blantyre",
    "country": "GB",
    "lat": 55.78438,
    "lng": -4.10007
  },
  {
    "name": "High Bentham",
    "country": "GB",
    "lat": 54.11823,
    "lng": -2.51199
  },
  {
    "name": "Higham Ferrers",
    "country": "GB",
    "lat": 52.30596,
    "lng": -0.59342
  },
  {
    "name": "Hibaldstow",
    "country": "GB",
    "lat": 53.51133,
    "lng": -0.52082
  },
  {
    "name": "Hinchley Wood",
    "country": "GB",
    "lat": 51.37461,
    "lng": -0.33838
  },
  {
    "name": "High Barnet",
    "country": "GB",
    "lat": 51.65621,
    "lng": -0.20768
  },
  {
    "name": "High Peak",
    "country": "GB",
    "lat": 53.36797,
    "lng": -1.84536
  },
  {
    "name": "Hinton",
    "country": "GB",
    "lat": 52.16798,
    "lng": -1.21837
  },
  {
    "name": "Highams Park",
    "country": "GB",
    "lat": 51.60768,
    "lng": -0.00579
  },
  {
    "name": "Hillsborough",
    "country": "GD",
    "lat": 12.48292,
    "lng": -61.45597
  },
  {
    "name": "Hing Man Estate",
    "country": "HK",
    "lat": 22.26682,
    "lng": 114.2327
  },
  {
    "name": "Hing Tung Estate",
    "country": "HK",
    "lat": 22.28151,
    "lng": 114.21943
  },
  {
    "name": "Hing Wah Estate (I & II)",
    "country": "HK",
    "lat": 22.26309,
    "lng": 114.23506
  },
  {
    "name": "Hinche",
    "country": "HT",
    "lat": 19.1409,
    "lng": -72.01194
  },
  {
    "name": "Hidas",
    "country": "HU",
    "lat": 46.2568,
    "lng": 18.4954
  },
  {
    "name": "Hila",
    "country": "ID",
    "lat": -3.58689,
    "lng": 128.08798
  },
  {
    "name": "Hisua",
    "country": "IN",
    "lat": 24.8336,
    "lng": 85.41729
  },
  {
    "name": "Hisar",
    "country": "IN",
    "lat": 29.15394,
    "lng": 75.72294
  },
  {
    "name": "Hirmi",
    "country": "IN",
    "lat": 21.53864,
    "lng": 81.94025
  },
  {
    "name": "Hiriyūr",
    "country": "IN",
    "lat": 13.94455,
    "lng": 76.61723
  },
  {
    "name": "Hirekerūr",
    "country": "IN",
    "lat": 14.45506,
    "lng": 75.3952
  },
  {
    "name": "Hirānagar",
    "country": "IN",
    "lat": 32.45493,
    "lng": 75.27187
  },
  {
    "name": "Hiramandalam",
    "country": "IN",
    "lat": 18.67085,
    "lng": 83.95054
  },
  {
    "name": "Hinjilicut",
    "country": "IN",
    "lat": 19.48166,
    "lng": 84.74489
  },
  {
    "name": "Hingoli",
    "country": "IN",
    "lat": 19.71464,
    "lng": 77.14238
  },
  {
    "name": "Hinganghāt",
    "country": "IN",
    "lat": 20.54875,
    "lng": 78.83978
  },
  {
    "name": "Hindupur",
    "country": "IN",
    "lat": 13.82807,
    "lng": 77.49143
  },
  {
    "name": "Hindoria",
    "country": "IN",
    "lat": 23.90345,
    "lng": 79.56861
  },
  {
    "name": "Hindaun",
    "country": "IN",
    "lat": 26.73411,
    "lng": 77.03519
  },
  {
    "name": "Himatnagar",
    "country": "IN",
    "lat": 23.59893,
    "lng": 72.96602
  },
  {
    "name": "Hilsa",
    "country": "IN",
    "lat": 25.31642,
    "lng": 85.28234
  },
  {
    "name": "Hinjawadi",
    "country": "IN",
    "lat": 18.59342,
    "lng": 73.72985
  },
  {
    "name": "Hirdepur",
    "country": "IN",
    "lat": 23.82716,
    "lng": 79.42353
  },
  {
    "name": "Hirāpur",
    "country": "IN",
    "lat": 21.84192,
    "lng": 80.23997
  },
  {
    "name": "Hinakallu",
    "country": "IN",
    "lat": 12.33042,
    "lng": 76.60213
  },
  {
    "name": "Hindalgi",
    "country": "IN",
    "lat": 15.87495,
    "lng": 74.47205
  },
  {
    "name": "Hindustan Paper Corporation Ltd. Township",
    "country": "IN",
    "lat": 24.86054,
    "lng": 92.60081
  },
  {
    "name": "Hill Town",
    "country": "IN",
    "lat": 24.3402,
    "lng": 93.69141
  },
  {
    "name": "Highways",
    "country": "IN",
    "lat": 9.64748,
    "lng": 77.36003
  },
  {
    "name": "Higashinozoe",
    "country": "JP",
    "lat": 34.7175,
    "lng": 134.88162
  },
  {
    "name": "Hiwasaura",
    "country": "JP",
    "lat": 33.73255,
    "lng": 134.53743
  },
  {
    "name": "Hitoyoshi",
    "country": "JP",
    "lat": 32.21667,
    "lng": 130.75
  },
  {
    "name": "Hitoto",
    "country": "JP",
    "lat": 36.98583,
    "lng": 136.9033
  },
  {
    "name": "Hita",
    "country": "JP",
    "lat": 33.3213,
    "lng": 130.94098
  },
  {
    "name": "Hisai-motomachi",
    "country": "JP",
    "lat": 34.66667,
    "lng": 136.46667
  },
  {
    "name": "Hiroshima",
    "country": "JP",
    "lat": 34.4,
    "lng": 132.45
  },
  {
    "name": "Hiromi",
    "country": "JP",
    "lat": 32.83333,
    "lng": 132.71667
  },
  {
    "name": "Hiratsuka",
    "country": "JP",
    "lat": 35.32785,
    "lng": 139.33735
  },
  {
    "name": "Hiratachō",
    "country": "JP",
    "lat": 35.43333,
    "lng": 132.81667
  },
  {
    "name": "Hirara",
    "country": "JP",
    "lat": 24.80379,
    "lng": 125.30222
  },
  {
    "name": "Hirao",
    "country": "JP",
    "lat": 33.93833,
    "lng": 132.07167
  },
  {
    "name": "Hirakata",
    "country": "JP",
    "lat": 34.81352,
    "lng": 135.64914
  },
  {
    "name": "Hirado",
    "country": "JP",
    "lat": 33.36853,
    "lng": 129.55247
  },
  {
    "name": "Hioki",
    "country": "JP",
    "lat": 31.58333,
    "lng": 130.35
  },
  {
    "name": "Hinokage",
    "country": "JP",
    "lat": 32.65,
    "lng": 131.4
  },
  {
    "name": "Hino",
    "country": "JP",
    "lat": 35.67306,
    "lng": 139.40028
  },
  {
    "name": "Hino",
    "country": "JP",
    "lat": 35.0,
    "lng": 136.25
  },
  {
    "name": "Himimachi",
    "country": "JP",
    "lat": 36.85609,
    "lng": 136.9885
  },
  {
    "name": "Himeji",
    "country": "JP",
    "lat": 34.81667,
    "lng": 134.7
  },
  {
    "name": "Hikone",
    "country": "JP",
    "lat": 35.25,
    "lng": 136.25
  },
  {
    "name": "Hikawa",
    "country": "JP",
    "lat": 35.8,
    "lng": 139.1
  },
  {
    "name": "Hiji",
    "country": "JP",
    "lat": 33.37081,
    "lng": 131.53025
  },
  {
    "name": "Higashiosaka",
    "country": "JP",
    "lat": 34.66667,
    "lng": 135.58333
  },
  {
    "name": "Higashi-nihombashi",
    "country": "JP",
    "lat": 35.69322,
    "lng": 139.78628
  },
  {
    "name": "Higashikanagawa",
    "country": "JP",
    "lat": 35.47886,
    "lng": 139.63747
  },
  {
    "name": "Higashiando",
    "country": "JP",
    "lat": 34.60945,
    "lng": 135.7571
  },
  {
    "name": "Higashigotanda",
    "country": "JP",
    "lat": 35.62506,
    "lng": 139.72841
  },
  {
    "name": "Hikari",
    "country": "JP",
    "lat": 33.955,
    "lng": 131.95
  },
  {
    "name": "Hizume",
    "country": "JP",
    "lat": 39.55,
    "lng": 141.16667
  },
  {
    "name": "Hitachi",
    "country": "JP",
    "lat": 36.6,
    "lng": 140.65
  },
  {
    "name": "Higashine",
    "country": "JP",
    "lat": 38.43889,
    "lng": 140.40056
  },
  {
    "name": "Higashidate",
    "country": "JP",
    "lat": 36.86667,
    "lng": 140.43333
  },
  {
    "name": "Higashiemi",
    "country": "JP",
    "lat": 35.06438,
    "lng": 140.06167
  },
  {
    "name": "Higashimorichō",
    "country": "JP",
    "lat": 42.10961,
    "lng": 140.59923
  },
  {
    "name": "Hiranai",
    "country": "JP",
    "lat": 40.92028,
    "lng": 140.95556
  },
  {
    "name": "Hitokawame",
    "country": "JP",
    "lat": 40.63593,
    "lng": 141.4448
  },
  {
    "name": "Hirosaki",
    "country": "JP",
    "lat": 40.59306,
    "lng": 140.4725
  },
  {
    "name": "Hiroo",
    "country": "JP",
    "lat": 42.28234,
    "lng": 143.29765
  },
  {
    "name": "Hitachi-Naka",
    "country": "JP",
    "lat": 36.39659,
    "lng": 140.53479
  },
  {
    "name": "Hitachiomiya",
    "country": "JP",
    "lat": 36.56447,
    "lng": 140.40269
  },
  {
    "name": "Hitachi-ota",
    "country": "JP",
    "lat": 36.5513,
    "lng": 140.52821
  },
  {
    "name": "Higashiyamato",
    "country": "JP",
    "lat": 35.76298,
    "lng": 139.44575
  },
  {
    "name": "Hidaka",
    "country": "JP",
    "lat": 35.91664,
    "lng": 139.36233
  },
  {
    "name": "Higashi-Matsuyama",
    "country": "JP",
    "lat": 36.03333,
    "lng": 139.41667
  },
  {
    "name": "Higashimatsushima",
    "country": "JP",
    "lat": 38.40886,
    "lng": 141.17901
  },
  {
    "name": "Hirakawa",
    "country": "JP",
    "lat": 40.58728,
    "lng": 140.57107
  },
  {
    "name": "Higashimurayama",
    "country": "JP",
    "lat": 35.75459,
    "lng": 139.46852
  },
  {
    "name": "HIgashifushimi",
    "country": "JP",
    "lat": 35.72525,
    "lng": 139.56031
  },
  {
    "name": "Hikarigaoka",
    "country": "JP",
    "lat": 35.75739,
    "lng": 139.62727
  },
  {
    "name": "Hikawadai",
    "country": "JP",
    "lat": 35.75512,
    "lng": 139.66758
  },
  {
    "name": "Hirao",
    "country": "JP",
    "lat": 36.74655,
    "lng": 138.41858
  },
  {
    "name": "Hirobaba",
    "country": "JP",
    "lat": 36.42308,
    "lng": 138.96974
  },
  {
    "name": "Hiragi",
    "country": "JP",
    "lat": 34.2706,
    "lng": 134.13074
  },
  {
    "name": "Higashinaka",
    "country": "JP",
    "lat": 34.01942,
    "lng": 135.18453
  },
  {
    "name": "Hikiso",
    "country": "JP",
    "lat": 34.54416,
    "lng": 135.7382
  },
  {
    "name": "Higashigō",
    "country": "JP",
    "lat": 33.19081,
    "lng": 130.13804
  },
  {
    "name": "Hibarigaoka",
    "country": "JP",
    "lat": 35.74524,
    "lng": 139.53611
  },
  {
    "name": "Hirai",
    "country": "JP",
    "lat": 35.70768,
    "lng": 139.8425
  },
  {
    "name": "Himi",
    "country": "JP",
    "lat": 36.84666,
    "lng": 136.98355
  },
  {
    "name": "Higashihiroshima",
    "country": "JP",
    "lat": 34.40861,
    "lng": 132.73682
  },
  {
    "name": "Higashikurume",
    "country": "JP",
    "lat": 35.75202,
    "lng": 139.51169
  },
  {
    "name": "Hida",
    "country": "JP",
    "lat": 36.24483,
    "lng": 137.17323
  },
  {
    "name": "Higashiōmi",
    "country": "JP",
    "lat": 35.1039,
    "lng": 136.26274
  },
  {
    "name": "Higashikagawa",
    "country": "JP",
    "lat": 34.21024,
    "lng": 134.33653
  },
  {
    "name": "Higashiyamato",
    "country": "JP",
    "lat": 35.75052,
    "lng": 139.42959
  },
  {
    "name": "Hikiji",
    "country": "JP",
    "lat": 33.22912,
    "lng": 131.17965
  },
  {
    "name": "Hirokawa",
    "country": "JP",
    "lat": 33.24293,
    "lng": 130.55212
  },
  {
    "name": "Higashikawa",
    "country": "JP",
    "lat": 43.69898,
    "lng": 142.51031
  },
  {
    "name": "Higashikagura",
    "country": "JP",
    "lat": 43.69663,
    "lng": 142.45143
  },
  {
    "name": "Hidaka",
    "country": "JP",
    "lat": 33.53489,
    "lng": 133.37336
  },
  {
    "name": "Higashichichibu",
    "country": "JP",
    "lat": 36.05815,
    "lng": 139.19461
  },
  {
    "name": "Hiezu",
    "country": "JP",
    "lat": 35.44021,
    "lng": 133.38079
  },
  {
    "name": "High Rock Estates",
    "country": "KY",
    "lat": 19.29875,
    "lng": -81.14654
  },
  {
    "name": "High Rock",
    "country": "KY",
    "lat": 19.29467,
    "lng": -81.13195
  },
  {
    "name": "Hikkaduwa",
    "country": "LK",
    "lat": 6.1407,
    "lng": 80.1012
  },
  {
    "name": "Hinthada",
    "country": "MM",
    "lat": 17.64944,
    "lng": 95.45705
  },
  {
    "name": "Hithadhoo",
    "country": "MV",
    "lat": -0.6,
    "lng": 73.08333
  },
  {
    "name": "Higinio Olivo",
    "country": "MX",
    "lat": 21.98012,
    "lng": -99.57935
  },
  {
    "name": "Higuerillas",
    "country": "MX",
    "lat": 20.91686,
    "lng": -99.76689
  },
  {
    "name": "Hidalgotitlán",
    "country": "MX",
    "lat": 17.77051,
    "lng": -94.64703
  },
  {
    "name": "Hidalgo",
    "country": "MX",
    "lat": 27.78994,
    "lng": -99.87699
  },
  {
    "name": "Hidalgo",
    "country": "MX",
    "lat": 26.05,
    "lng": -98.2
  },
  {
    "name": "Hidalgo",
    "country": "MX",
    "lat": 24.24815,
    "lng": -99.43776
  },
  {
    "name": "Hidalgo",
    "country": "MX",
    "lat": 15.34984,
    "lng": -92.74189
  },
  {
    "name": "Hidalgo",
    "country": "MX",
    "lat": 15.16249,
    "lng": -92.6303
  },
  {
    "name": "Higuerón",
    "country": "MX",
    "lat": 18.5775,
    "lng": -99.18056
  },
  {
    "name": "Hidalgo Joshil",
    "country": "MX",
    "lat": 17.22743,
    "lng": -92.34719
  },
  {
    "name": "Hidalgo",
    "country": "MX",
    "lat": 23.97758,
    "lng": -103.6604
  },
  {
    "name": "Higueras de Abuya",
    "country": "MX",
    "lat": 24.26028,
    "lng": -107.07105
  },
  {
    "name": "Higueras",
    "country": "MX",
    "lat": 25.96007,
    "lng": -100.0152
  },
  {
    "name": "Higuera de Zaragoza",
    "country": "MX",
    "lat": 25.96861,
    "lng": -109.30219
  },
  {
    "name": "Higuera Blanca",
    "country": "MX",
    "lat": 20.79746,
    "lng": -105.46747
  },
  {
    "name": "Hidalgo",
    "country": "MX",
    "lat": 25.81667,
    "lng": -103.28386
  },
  {
    "name": "Hidalgo",
    "country": "MX",
    "lat": 25.49028,
    "lng": -103.14015
  },
  {
    "name": "Hidalgo",
    "country": "MX",
    "lat": 25.97205,
    "lng": -100.45029
  },
  {
    "name": "Higuera de los Vega",
    "country": "MX",
    "lat": 25.655,
    "lng": -107.95778
  },
  {
    "name": "Hidalgo Amajac",
    "country": "MX",
    "lat": 20.905,
    "lng": -97.62944
  },
  {
    "name": "Hienghène",
    "country": "NC",
    "lat": -20.68333,
    "lng": 164.93333
  },
  {
    "name": "Hinna",
    "country": "NG",
    "lat": 10.30426,
    "lng": 11.49905
  },
  {
    "name": "Hippolytushoef",
    "country": "NL",
    "lat": 52.9075,
    "lng": 4.9625
  },
  {
    "name": "Hilversumse Meent",
    "country": "NL",
    "lat": 52.27115,
    "lng": 5.13729
  },
  {
    "name": "Hilversum",
    "country": "NL",
    "lat": 52.22333,
    "lng": 5.17639
  },
  {
    "name": "Hilvarenbeek",
    "country": "NL",
    "lat": 51.48583,
    "lng": 5.1375
  },
  {
    "name": "Hillegom",
    "country": "NL",
    "lat": 52.29083,
    "lng": 4.58333
  },
  {
    "name": "Hikurangi",
    "country": "NZ",
    "lat": -35.6,
    "lng": 174.3
  },
  {
    "name": "Hicks Bay",
    "country": "NZ",
    "lat": -37.6,
    "lng": 178.3
  },
  {
    "name": "Hillsborough",
    "country": "NZ",
    "lat": -43.56257,
    "lng": 172.67371
  },
  {
    "name": "Highland Park",
    "country": "NZ",
    "lat": -36.8982,
    "lng": 174.90019
  },
  {
    "name": "Hillcrest",
    "country": "NZ",
    "lat": -36.7882,
    "lng": 174.73019
  },
  {
    "name": "Hillsborough",
    "country": "NZ",
    "lat": -36.9182,
    "lng": 174.75019
  },
  {
    "name": "Hitiaa",
    "country": "PF",
    "lat": -17.6,
    "lng": -149.3
  },
  {
    "name": "Hipadpad",
    "country": "PH",
    "lat": 12.2855,
    "lng": 125.2361
  },
  {
    "name": "Hipasngo",
    "country": "PH",
    "lat": 10.6624,
    "lng": 124.8085
  },
  {
    "name": "Hipona",
    "country": "PH",
    "lat": 11.4174,
    "lng": 122.8825
  },
  {
    "name": "Hinundayan",
    "country": "PH",
    "lat": 10.3523,
    "lng": 125.2506
  },
  {
    "name": "Hinunangan",
    "country": "PH",
    "lat": 10.39408,
    "lng": 125.19768
  },
  {
    "name": "Hinlayagan Ilaud",
    "country": "PH",
    "lat": 10.03061,
    "lng": 124.33457
  },
  {
    "name": "Hinigaran",
    "country": "PH",
    "lat": 10.2706,
    "lng": 122.8507
  },
  {
    "name": "Hingatungan",
    "country": "PH",
    "lat": 10.584,
    "lng": 125.1852
  },
  {
    "name": "Hindang",
    "country": "PH",
    "lat": 10.43417,
    "lng": 124.72917
  },
  {
    "name": "Hinatuan",
    "country": "PH",
    "lat": 8.37222,
    "lng": 126.33417
  },
  {
    "name": "Hinapalanan",
    "country": "PH",
    "lat": 8.64028,
    "lng": 124.87306
  },
  {
    "name": "Himensulan",
    "country": "PH",
    "lat": 10.5967,
    "lng": 124.2821
  },
  {
    "name": "Himaya",
    "country": "PH",
    "lat": 10.4516,
    "lng": 122.8325
  },
  {
    "name": "Himamaylan",
    "country": "PH",
    "lat": 10.09889,
    "lng": 122.87056
  },
  {
    "name": "Himaao",
    "country": "PH",
    "lat": 13.5448,
    "lng": 123.3005
  },
  {
    "name": "Hilotongan",
    "country": "PH",
    "lat": 11.144,
    "lng": 123.6426
  },
  {
    "name": "Hilongos",
    "country": "PH",
    "lat": 10.37444,
    "lng": 124.74972
  },
  {
    "name": "Hiju, Maco",
    "country": "PH",
    "lat": 7.38541,
    "lng": 125.82822
  },
  {
    "name": "Hibaiyo",
    "country": "PH",
    "lat": 10.2726,
    "lng": 123.321
  },
  {
    "name": "Hilantagaan",
    "country": "PH",
    "lat": 11.1943,
    "lng": 123.8131
  },
  {
    "name": "Hingorja",
    "country": "PK",
    "lat": 27.21088,
    "lng": 68.41598
  },
  {
    "name": "Hinova",
    "country": "RO",
    "lat": 44.54056,
    "lng": 22.77694
  },
  {
    "name": "Hilişeu-Horia",
    "country": "RO",
    "lat": 48.03333,
    "lng": 26.25
  },
  {
    "name": "Hidişelu de Sus",
    "country": "RO",
    "lat": 46.95,
    "lng": 22.05
  },
  {
    "name": "Hida",
    "country": "RO",
    "lat": 47.06667,
    "lng": 23.28333
  },
  {
    "name": "Hittarp",
    "country": "SE",
    "lat": 56.28333,
    "lng": 14.11667
  },
  {
    "name": "Hittarp",
    "country": "SE",
    "lat": 56.1,
    "lng": 12.63333
  },
  {
    "name": "Hindås",
    "country": "SE",
    "lat": 57.70338,
    "lng": 12.44657
  },
  {
    "name": "Hillerstorp",
    "country": "SE",
    "lat": 57.31293,
    "lng": 13.88437
  },
  {
    "name": "Hillcrest Park",
    "country": "SG",
    "lat": 1.33472,
    "lng": 103.80917
  },
  {
    "name": "Hisor",
    "country": "TJ",
    "lat": 38.52504,
    "lng": 68.55124
  },
  {
    "name": "Hihifo",
    "country": "TO",
    "lat": -15.9544,
    "lng": -173.79616
  },
  {
    "name": "Hizan",
    "country": "TR",
    "lat": 38.22498,
    "lng": 42.4183
  },
  {
    "name": "Hisarcık",
    "country": "TR",
    "lat": 39.25057,
    "lng": 29.23116
  },
  {
    "name": "Hisar",
    "country": "TR",
    "lat": 37.60108,
    "lng": 41.22819
  },
  {
    "name": "Himmetli",
    "country": "TR",
    "lat": 37.86706,
    "lng": 36.0643
  },
  {
    "name": "Himmetdede",
    "country": "TR",
    "lat": 38.91028,
    "lng": 35.09607
  },
  {
    "name": "Hilvan",
    "country": "TR",
    "lat": 37.58687,
    "lng": 38.95505
  },
  {
    "name": "Hilal",
    "country": "TR",
    "lat": 37.47337,
    "lng": 42.78923
  },
  {
    "name": "Hirske",
    "country": "UA",
    "lat": 48.74981,
    "lng": 38.49518
  },
  {
    "name": "Hirnyk",
    "country": "UA",
    "lat": 50.33148,
    "lng": 24.19538
  },
  {
    "name": "Hirnyk",
    "country": "UA",
    "lat": 48.05728,
    "lng": 37.3716
  },
  {
    "name": "Hima",
    "country": "UG",
    "lat": 0.34889,
    "lng": 30.16222
  },
  {
    "name": "Highland",
    "country": "US",
    "lat": 36.2759,
    "lng": -91.52403
  },
  {
    "name": "Hillcrest",
    "country": "US",
    "lat": 38.86206,
    "lng": -76.95803
  },
  {
    "name": "Highland Acres",
    "country": "US",
    "lat": 39.12095,
    "lng": -75.52187
  },
  {
    "name": "Hialeah",
    "country": "US",
    "lat": 25.8576,
    "lng": -80.27811
  },
  {
    "name": "Hialeah Gardens",
    "country": "US",
    "lat": 25.8651,
    "lng": -80.3245
  },
  {
    "name": "High Springs",
    "country": "US",
    "lat": 29.82691,
    "lng": -82.59678
  },
  {
    "name": "Highland Beach",
    "country": "US",
    "lat": 26.39952,
    "lng": -80.0656
  },
  {
    "name": "Highland City",
    "country": "US",
    "lat": 27.9653,
    "lng": -81.87786
  },
  {
    "name": "Hiland Park",
    "country": "US",
    "lat": 30.20103,
    "lng": -85.62687
  },
  {
    "name": "Hill 'n Dale",
    "country": "US",
    "lat": 28.51972,
    "lng": -82.29926
  },
  {
    "name": "Hilliard",
    "country": "US",
    "lat": 30.69107,
    "lng": -81.91733
  },
  {
    "name": "Hillsboro Beach",
    "country": "US",
    "lat": 26.29397,
    "lng": -80.07893
  },
  {
    "name": "Hiawassee",
    "country": "US",
    "lat": 34.94926,
    "lng": -83.75739
  },
  {
    "name": "Hinesville",
    "country": "US",
    "lat": 31.84688,
    "lng": -81.59595
  },
  {
    "name": "Hiram",
    "country": "US",
    "lat": 33.87566,
    "lng": -84.76216
  },
  {
    "name": "Highland",
    "country": "US",
    "lat": 38.73949,
    "lng": -89.6712
  },
  {
    "name": "Hillsboro",
    "country": "US",
    "lat": 39.16128,
    "lng": -89.4954
  },
  {
    "name": "Hidden Valley",
    "country": "US",
    "lat": 39.16228,
    "lng": -84.84301
  },
  {
    "name": "Highland",
    "country": "US",
    "lat": 38.03976,
    "lng": -87.57307
  },
  {
    "name": "Hiawatha",
    "country": "US",
    "lat": 39.8525,
    "lng": -95.53582
  },
  {
    "name": "Highland",
    "country": "US",
    "lat": 39.85972,
    "lng": -95.2697
  },
  {
    "name": "Hill City",
    "country": "US",
    "lat": 39.36473,
    "lng": -99.84206
  },
  {
    "name": "Hillsboro",
    "country": "US",
    "lat": 38.35196,
    "lng": -97.20447
  },
  {
    "name": "Hickman",
    "country": "US",
    "lat": 36.57117,
    "lng": -89.18618
  },
  {
    "name": "Highland Heights",
    "country": "US",
    "lat": 39.03312,
    "lng": -84.45189
  },
  {
    "name": "Highview",
    "country": "US",
    "lat": 38.14285,
    "lng": -85.62413
  },
  {
    "name": "Hillview",
    "country": "US",
    "lat": 38.06979,
    "lng": -85.68551
  },
  {
    "name": "Hindman",
    "country": "US",
    "lat": 37.33593,
    "lng": -82.98044
  },
  {
    "name": "Highfield-Cascade",
    "country": "US",
    "lat": 39.71616,
    "lng": -77.48282
  },
  {
    "name": "Highland",
    "country": "US",
    "lat": 39.179,
    "lng": -76.95748
  },
  {
    "name": "Highlandtown",
    "country": "US",
    "lat": 39.2865,
    "lng": -76.56885
  },
  {
    "name": "Hillandale",
    "country": "US",
    "lat": 39.0265,
    "lng": -76.97414
  },
  {
    "name": "Hillcrest Heights",
    "country": "US",
    "lat": 38.83289,
    "lng": -76.95942
  },
  {
    "name": "Hillsmere Shores",
    "country": "US",
    "lat": 38.94011,
    "lng": -76.49496
  },
  {
    "name": "Higginsville",
    "country": "US",
    "lat": 39.07251,
    "lng": -93.71716
  },
  {
    "name": "High Ridge",
    "country": "US",
    "lat": 38.45894,
    "lng": -90.53651
  },
  {
    "name": "Hillsboro",
    "country": "US",
    "lat": 38.23228,
    "lng": -90.5629
  },
  {
    "name": "Hillsdale",
    "country": "US",
    "lat": 38.68338,
    "lng": -90.284
  },
  {
    "name": "Hickory Hills",
    "country": "US",
    "lat": 30.45687,
    "lng": -88.63919
  },
  {
    "name": "Hillsboro",
    "country": "US",
    "lat": 32.45931,
    "lng": -89.51146
  },
  {
    "name": "Hickory",
    "country": "US",
    "lat": 35.73319,
    "lng": -81.3412
  },
  {
    "name": "High Point",
    "country": "US",
    "lat": 35.95569,
    "lng": -80.00532
  },
  {
    "name": "Hildebran",
    "country": "US",
    "lat": 35.71402,
    "lng": -81.42203
  },
  {
    "name": "Hillsborough",
    "country": "US",
    "lat": 36.07542,
    "lng": -79.09973
  },
  {
    "name": "Highpoint",
    "country": "US",
    "lat": 39.28839,
    "lng": -84.35022
  },
  {
    "name": "Hillsboro",
    "country": "US",
    "lat": 39.20229,
    "lng": -83.61159
  },
  {
    "name": "Hinton",
    "country": "US",
    "lat": 35.47144,
    "lng": -98.35562
  },
  {
    "name": "Hilton Head Island",
    "country": "US",
    "lat": 32.19382,
    "lng": -80.73816
  },
  {
    "name": "Hilton Head",
    "country": "US",
    "lat": 32.21632,
    "lng": -80.75261
  },
  {
    "name": "Hickory Withe",
    "country": "US",
    "lat": 35.24398,
    "lng": -89.58869
  },
  {
    "name": "Hickory Creek",
    "country": "US",
    "lat": 31.37879,
    "lng": -95.32133
  },
  {
    "name": "Hico",
    "country": "US",
    "lat": 31.98293,
    "lng": -98.03365
  },
  {
    "name": "Hidalgo",
    "country": "US",
    "lat": 26.10035,
    "lng": -98.26307
  },
  {
    "name": "Hideaway",
    "country": "US",
    "lat": 32.49042,
    "lng": -95.45746
  },
  {
    "name": "Highland Park",
    "country": "US",
    "lat": 32.83346,
    "lng": -96.79195
  },
  {
    "name": "Highland Village",
    "country": "US",
    "lat": 33.09179,
    "lng": -97.04668
  },
  {
    "name": "Highlands",
    "country": "US",
    "lat": 29.81884,
    "lng": -95.05604
  },
  {
    "name": "Hill Country Village",
    "country": "US",
    "lat": 29.58245,
    "lng": -98.49085
  },
  {
    "name": "Hillsboro",
    "country": "US",
    "lat": 32.01099,
    "lng": -97.13001
  },
  {
    "name": "Hilltop Lakes",
    "country": "US",
    "lat": 31.07935,
    "lng": -96.20385
  },
  {
    "name": "Hitchcock",
    "country": "US",
    "lat": 29.34829,
    "lng": -95.01604
  },
  {
    "name": "Highland Springs",
    "country": "US",
    "lat": 37.54598,
    "lng": -77.32776
  },
  {
    "name": "Hillsville",
    "country": "US",
    "lat": 36.76263,
    "lng": -80.73479
  },
  {
    "name": "Hinton",
    "country": "US",
    "lat": 37.67401,
    "lng": -80.88925
  },
  {
    "name": "Hickory Creek",
    "country": "US",
    "lat": 33.12234,
    "lng": -97.04306
  },
  {
    "name": "Higganum",
    "country": "US",
    "lat": 41.49704,
    "lng": -72.55703
  },
  {
    "name": "Hiawatha",
    "country": "US",
    "lat": 42.03583,
    "lng": -91.68212
  },
  {
    "name": "Hickory Hills",
    "country": "US",
    "lat": 41.72559,
    "lng": -87.82506
  },
  {
    "name": "Highland Park",
    "country": "US",
    "lat": 42.18169,
    "lng": -87.80034
  },
  {
    "name": "Highwood",
    "country": "US",
    "lat": 42.19975,
    "lng": -87.80923
  },
  {
    "name": "Hillcrest",
    "country": "US",
    "lat": 41.95114,
    "lng": -89.06454
  },
  {
    "name": "Hillside",
    "country": "US",
    "lat": 41.87781,
    "lng": -87.90284
  },
  {
    "name": "Hinckley",
    "country": "US",
    "lat": 41.76892,
    "lng": -88.64091
  },
  {
    "name": "Hinsdale",
    "country": "US",
    "lat": 41.80086,
    "lng": -87.93701
  },
  {
    "name": "Highland",
    "country": "US",
    "lat": 41.55365,
    "lng": -87.45198
  },
  {
    "name": "Highland",
    "country": "US",
    "lat": 42.28538,
    "lng": -71.15672
  },
  {
    "name": "Hingham",
    "country": "US",
    "lat": 42.24177,
    "lng": -70.88977
  },
  {
    "name": "Hinsdale",
    "country": "US",
    "lat": 42.4387,
    "lng": -73.12538
  },
  {
    "name": "Hiram",
    "country": "US",
    "lat": 43.87868,
    "lng": -70.8034
  },
  {
    "name": "Highland Park",
    "country": "US",
    "lat": 42.40559,
    "lng": -83.09687
  },
  {
    "name": "Hillsdale",
    "country": "US",
    "lat": 41.92005,
    "lng": -84.63051
  },
  {
    "name": "Hibbing",
    "country": "US",
    "lat": 47.42715,
    "lng": -92.93769
  },
  {
    "name": "Hinckley",
    "country": "US",
    "lat": 46.01134,
    "lng": -92.94437
  },
  {
    "name": "Hillsboro",
    "country": "US",
    "lat": 47.40387,
    "lng": -97.06203
  },
  {
    "name": "Hickman",
    "country": "US",
    "lat": 40.62,
    "lng": -96.62918
  },
  {
    "name": "Hill",
    "country": "US",
    "lat": 43.52424,
    "lng": -71.70091
  },
  {
    "name": "Hinsdale",
    "country": "US",
    "lat": 42.78619,
    "lng": -72.48648
  },
  {
    "name": "High Bridge",
    "country": "US",
    "lat": 40.66705,
    "lng": -74.89572
  },
  {
    "name": "Highland Lake",
    "country": "US",
    "lat": 41.17676,
    "lng": -74.45655
  },
  {
    "name": "Highland Park",
    "country": "US",
    "lat": 40.49594,
    "lng": -74.42432
  },
  {
    "name": "Highlands",
    "country": "US",
    "lat": 40.40372,
    "lng": -73.99153
  },
  {
    "name": "Hightstown",
    "country": "US",
    "lat": 40.26955,
    "lng": -74.52321
  },
  {
    "name": "Hillsborough",
    "country": "US",
    "lat": 40.4776,
    "lng": -74.62682
  },
  {
    "name": "Hillsdale",
    "country": "US",
    "lat": 41.0026,
    "lng": -74.04042
  },
  {
    "name": "Hillside",
    "country": "US",
    "lat": 40.70121,
    "lng": -74.23015
  },
  {
    "name": "Hicksville",
    "country": "US",
    "lat": 40.76843,
    "lng": -73.52513
  },
  {
    "name": "Highland",
    "country": "US",
    "lat": 41.72093,
    "lng": -73.96014
  },
  {
    "name": "Highland Falls",
    "country": "US",
    "lat": 41.36926,
    "lng": -73.96625
  },
  {
    "name": "Highland Mills",
    "country": "US",
    "lat": 41.34704,
    "lng": -74.12626
  },
  {
    "name": "Hillcrest",
    "country": "US",
    "lat": 41.12787,
    "lng": -74.04097
  },
  {
    "name": "Hillside",
    "country": "US",
    "lat": 40.70788,
    "lng": -73.7868
  },
  {
    "name": "Hillside Lake",
    "country": "US",
    "lat": 41.61482,
    "lng": -73.79819
  },
  {
    "name": "Hilton",
    "country": "US",
    "lat": 43.28812,
    "lng": -77.79334
  },
  {
    "name": "Hicksville",
    "country": "US",
    "lat": 41.29311,
    "lng": -84.7619
  },
  {
    "name": "Highland Heights",
    "country": "US",
    "lat": 41.552,
    "lng": -81.47845
  },
  {
    "name": "Hilliard",
    "country": "US",
    "lat": 40.0334,
    "lng": -83.15825
  },
  {
    "name": "Hiram",
    "country": "US",
    "lat": 41.31256,
    "lng": -81.14371
  },
  {
    "name": "Highland Park",
    "country": "US",
    "lat": 40.62091,
    "lng": -77.56805
  },
  {
    "name": "Highspire",
    "country": "US",
    "lat": 40.21092,
    "lng": -76.79108
  },
  {
    "name": "Hilldale",
    "country": "US",
    "lat": 41.28925,
    "lng": -75.83631
  },
  {
    "name": "Hiller",
    "country": "US",
    "lat": 40.01035,
    "lng": -79.90088
  },
  {
    "name": "Highmore",
    "country": "US",
    "lat": 44.52137,
    "lng": -99.4415
  },
  {
    "name": "Hinesburg",
    "country": "US",
    "lat": 44.32922,
    "lng": -73.11068
  },
  {
    "name": "Hilbert",
    "country": "US",
    "lat": 44.14027,
    "lng": -88.16399
  },
  {
    "name": "Hillsboro",
    "country": "US",
    "lat": 43.6522,
    "lng": -90.34402
  },
  {
    "name": "Hidden Hills",
    "country": "US",
    "lat": 34.16028,
    "lng": -118.65231
  },
  {
    "name": "Hidden Meadows",
    "country": "US",
    "lat": 33.22531,
    "lng": -117.11253
  },
  {
    "name": "Hidden Valley Lake",
    "country": "US",
    "lat": 38.80796,
    "lng": -122.55832
  },
  {
    "name": "Highgrove",
    "country": "US",
    "lat": 34.01585,
    "lng": -117.33338
  },
  {
    "name": "Highland",
    "country": "US",
    "lat": 34.12834,
    "lng": -117.20865
  },
  {
    "name": "Hillsborough",
    "country": "US",
    "lat": 37.5741,
    "lng": -122.37942
  },
  {
    "name": "Highlands Ranch",
    "country": "US",
    "lat": 39.55388,
    "lng": -104.96943
  },
  {
    "name": "Hildale",
    "country": "US",
    "lat": 37.0036,
    "lng": -112.96688
  },
  {
    "name": "Hillsboro",
    "country": "US",
    "lat": 45.52289,
    "lng": -122.98983
  },
  {
    "name": "Hines",
    "country": "US",
    "lat": 43.56404,
    "lng": -119.08105
  },
  {
    "name": "Highland",
    "country": "US",
    "lat": 40.42548,
    "lng": -111.79447
  },
  {
    "name": "Highland",
    "country": "US",
    "lat": 46.13152,
    "lng": -119.11418
  },
  {
    "name": "Hilo",
    "country": "US",
    "lat": 19.72991,
    "lng": -155.09073
  },
  {
    "name": "High Point",
    "country": "US",
    "lat": 28.54687,
    "lng": -82.52468
  },
  {
    "name": "Hillsborough",
    "country": "US",
    "lat": 43.1141,
    "lng": -71.8992
  },
  {
    "name": "Highlands-Baywood Park",
    "country": "US",
    "lat": 37.52272,
    "lng": -122.34506
  },
  {
    "name": "Hilmar-Irwin",
    "country": "US",
    "lat": 37.40454,
    "lng": -120.85042
  },
  {
    "name": "Hickam Field",
    "country": "US",
    "lat": 21.33967,
    "lng": -157.96018
  },
  {
    "name": "Highland Lakes",
    "country": "US",
    "lat": 33.39838,
    "lng": -86.6513
  },
  {
    "name": "Hidden Spring",
    "country": "US",
    "lat": 43.72216,
    "lng": -116.25093
  },
  {
    "name": "Hide-A-Way Lake",
    "country": "US",
    "lat": 30.56492,
    "lng": -89.6402
  },
  {
    "name": "Hill Air Force Base",
    "country": "US",
    "lat": 41.11118,
    "lng": -111.97712
  },
  {
    "name": "Hillen",
    "country": "US",
    "lat": 39.34187,
    "lng": -76.59019
  },
  {
    "name": "Hillsborough",
    "country": "US",
    "lat": 41.30037,
    "lng": -96.12876
  },
  {
    "name": "Higuerote",
    "country": "VE",
    "lat": 10.48287,
    "lng": -66.10096
  },
  {
    "name": "Hiệp Đức",
    "country": "VN",
    "lat": 15.58224,
    "lng": 108.11422
  },
  {
    "name": "Himeville",
    "country": "ZA",
    "lat": -29.74675,
    "lng": 29.51361
  },
  {
    "name": "Hilton",
    "country": "ZA",
    "lat": -29.55453,
    "lng": 30.301
  },
  {
    "name": "Hillshaven",
    "country": "ZA",
    "lat": -26.36447,
    "lng": 27.65808
  },
  {
    "name": "Hibberdene",
    "country": "ZA",
    "lat": -30.57201,
    "lng": 30.57361
  }
]