[
  {
    "name": "Hmas Cerberus",
    "country": "AU",
    "lat": -38.36491,
    "lng": 145.20038
  },
  {
    "name": "HMT Pinjore",
    "country": "IN",
    "lat": 30.78477,
    "lng": 76.90924
  },
  {
    "name": "Hmawbi",
    "country": "MM",
    "lat": 17.10311,
    "lng": 96.03615
  },
  {
    "name": "Hmaw Bi",
    "country": "MM",
    "lat": 16.63557,
    "lng": 97.61526
  },
  {
    "name": "Hman Pin",
    "country": "MM",
    "lat": 26.02203,
    "lng": 95.75618
  }
]