[
  {
    "name": "Hwangju-ŭp",
    "country": "KP",
    "lat": 38.67028,
    "lng": 125.77611
  },
  {
    "name": "Hwasŏng",
    "country": "KP",
    "lat": 41.25556,
    "lng": 129.49278
  },
  {
    "name": "Hwadae",
    "country": "KP",
    "lat": 40.83806,
    "lng": 129.49694
  },
  {
    "name": "Hwasun",
    "country": "KR",
    "lat": 35.06125,
    "lng": 126.98746
  },
  {
    "name": "Hwaseong-si",
    "country": "KR",
    "lat": 37.20682,
    "lng": 126.8169
  },
  {
    "name": "Hwacheon",
    "country": "KR",
    "lat": 38.10705,
    "lng": 127.70632
  },
  {
    "name": "Hwado",
    "country": "KR",
    "lat": 37.6525,
    "lng": 127.3075
  },
  {
    "name": "Hwawŏn",
    "country": "KR",
    "lat": 35.80167,
    "lng": 128.50083
  },
  {
    "name": "Hwanggan",
    "country": "KR",
    "lat": 36.2324,
    "lng": 127.9083
  },
  {
    "name": "Hwanam",
    "country": "KR",
    "lat": 36.44874,
    "lng": 127.90601
  },
  {
    "name": "Hwayang",
    "country": "KR",
    "lat": 34.70846,
    "lng": 127.6134
  },
  {
    "name": "Hwange",
    "country": "ZW",
    "lat": -18.36446,
    "lng": 26.49877
  }
]