[
  {
    "name": "Kishk-e Nakhūd",
    "country": "AF",
    "lat": 31.62519,
    "lng": 65.05511
  },
  {
    "name": "Kirāmān",
    "country": "AF",
    "lat": 35.2973,
    "lng": 69.68125
  },
  {
    "name": "Kitzeck im Sausal",
    "country": "AT",
    "lat": 46.78072,
    "lng": 15.45384
  },
  {
    "name": "Kitzbühel",
    "country": "AT",
    "lat": 47.44637,
    "lng": 12.39215
  },
  {
    "name": "Kittsee",
    "country": "AT",
    "lat": 48.0925,
    "lng": 17.06389
  },
  {
    "name": "Kirnberg an der Mank",
    "country": "AT",
    "lat": 48.07246,
    "lng": 15.32232
  },
  {
    "name": "Kirchstetten",
    "country": "AT",
    "lat": 48.18333,
    "lng": 15.81667
  },
  {
    "name": "Kirchschlag in der Buckligen Welt",
    "country": "AT",
    "lat": 47.5,
    "lng": 16.28333
  },
  {
    "name": "Kirchschlag bei Linz",
    "country": "AT",
    "lat": 48.41149,
    "lng": 14.27656
  },
  {
    "name": "Kirchschlag",
    "country": "AT",
    "lat": 48.39345,
    "lng": 15.22285
  },
  {
    "name": "Kirchdorf in Tirol",
    "country": "AT",
    "lat": 47.55626,
    "lng": 12.44511
  },
  {
    "name": "Kirchdorf an der Krems",
    "country": "AT",
    "lat": 47.90558,
    "lng": 14.12228
  },
  {
    "name": "Kirchberg ob der Donau",
    "country": "AT",
    "lat": 48.4444,
    "lng": 13.93805
  },
  {
    "name": "Kirchberg in Tirol",
    "country": "AT",
    "lat": 47.44539,
    "lng": 12.31602
  },
  {
    "name": "Kirchberg an der Raab",
    "country": "AT",
    "lat": 46.98583,
    "lng": 15.76694
  },
  {
    "name": "Kirchberg an der Pielach",
    "country": "AT",
    "lat": 48.0269,
    "lng": 15.42875
  },
  {
    "name": "Kirchberg am Wechsel",
    "country": "AT",
    "lat": 47.60738,
    "lng": 15.99103
  },
  {
    "name": "Kirchberg am Walde",
    "country": "AT",
    "lat": 48.72477,
    "lng": 15.08826
  },
  {
    "name": "Kirchberg am Wagram",
    "country": "AT",
    "lat": 48.43182,
    "lng": 15.89692
  },
  {
    "name": "Kirchbach in Steiermark",
    "country": "AT",
    "lat": 46.93167,
    "lng": 15.66194
  },
  {
    "name": "Kirchbach",
    "country": "AT",
    "lat": 46.6416,
    "lng": 13.18454
  },
  {
    "name": "Kindberg",
    "country": "AT",
    "lat": 47.5,
    "lng": 15.45
  },
  {
    "name": "Kilb",
    "country": "AT",
    "lat": 48.10101,
    "lng": 15.4085
  },
  {
    "name": "Kierling",
    "country": "AT",
    "lat": 48.30997,
    "lng": 16.27616
  },
  {
    "name": "Kirchbichl",
    "country": "AT",
    "lat": 47.51743,
    "lng": 12.09629
  },
  {
    "name": "Kirchenviertel",
    "country": "AT",
    "lat": 47.13124,
    "lng": 15.34764
  },
  {
    "name": "Kingston South East",
    "country": "AU",
    "lat": -36.83073,
    "lng": 139.8522
  },
  {
    "name": "Kingscote",
    "country": "AU",
    "lat": -35.6559,
    "lng": 137.6393
  },
  {
    "name": "Kirribilli",
    "country": "AU",
    "lat": -33.84867,
    "lng": 151.2162
  },
  {
    "name": "Kingston Beach",
    "country": "AU",
    "lat": -42.98021,
    "lng": 147.31941
  },
  {
    "name": "Kingston",
    "country": "AU",
    "lat": -42.97638,
    "lng": 147.30351
  },
  {
    "name": "Kingston",
    "country": "AU",
    "lat": -34.23333,
    "lng": 140.35
  },
  {
    "name": "Kingston",
    "country": "AU",
    "lat": -27.66667,
    "lng": 153.11667
  },
  {
    "name": "Kingsthorpe",
    "country": "AU",
    "lat": -27.47558,
    "lng": 151.81409
  },
  {
    "name": "Kingscliff",
    "country": "AU",
    "lat": -28.25983,
    "lng": 153.57816
  },
  {
    "name": "Kinglake West",
    "country": "AU",
    "lat": -37.46667,
    "lng": 145.23333
  },
  {
    "name": "Kinglake",
    "country": "AU",
    "lat": -37.53291,
    "lng": 145.33964
  },
  {
    "name": "Kingaroy",
    "country": "AU",
    "lat": -26.53994,
    "lng": 151.8373
  },
  {
    "name": "Kilsyth",
    "country": "AU",
    "lat": -37.8,
    "lng": 145.31667
  },
  {
    "name": "Kilmore",
    "country": "AU",
    "lat": -37.29577,
    "lng": 144.95252
  },
  {
    "name": "Kilcoy",
    "country": "AU",
    "lat": -26.943,
    "lng": 152.56545
  },
  {
    "name": "Kiama",
    "country": "AU",
    "lat": -34.66828,
    "lng": 150.85219
  },
  {
    "name": "Kirrawee",
    "country": "AU",
    "lat": -34.03831,
    "lng": 151.06903
  },
  {
    "name": "Kingsford",
    "country": "AU",
    "lat": -33.92399,
    "lng": 151.22749
  },
  {
    "name": "Kinross",
    "country": "AU",
    "lat": -31.71868,
    "lng": 115.73839
  },
  {
    "name": "Kingsbury",
    "country": "AU",
    "lat": -37.71406,
    "lng": 145.03509
  },
  {
    "name": "Kippa-Ring",
    "country": "AU",
    "lat": -27.22586,
    "lng": 153.0835
  },
  {
    "name": "Kings Park",
    "country": "AU",
    "lat": -37.73397,
    "lng": 144.77766
  },
  {
    "name": "Kialla",
    "country": "AU",
    "lat": -36.44729,
    "lng": 145.41422
  },
  {
    "name": "King Creek",
    "country": "AU",
    "lat": -31.49237,
    "lng": 152.75658
  },
  {
    "name": "Kings Park",
    "country": "AU",
    "lat": -33.7432,
    "lng": 150.90761
  },
  {
    "name": "Kin Kora",
    "country": "AU",
    "lat": -23.87705,
    "lng": 151.24722
  },
  {
    "name": "Kilaben Bay",
    "country": "AU",
    "lat": -33.02395,
    "lng": 151.59197
  },
  {
    "name": "Kingsgrove",
    "country": "AU",
    "lat": -33.93932,
    "lng": 151.09928
  },
  {
    "name": "Kings Langley",
    "country": "AU",
    "lat": -33.75005,
    "lng": 150.93542
  },
  {
    "name": "Kidman Park",
    "country": "AU",
    "lat": -34.91224,
    "lng": 138.52693
  },
  {
    "name": "Kingsley",
    "country": "AU",
    "lat": -31.81036,
    "lng": 115.80077
  },
  {
    "name": "Kiara",
    "country": "AU",
    "lat": -31.88156,
    "lng": 115.93893
  },
  {
    "name": "Kings Meadows",
    "country": "AU",
    "lat": -41.47041,
    "lng": 147.16196
  },
  {
    "name": "Kilburn",
    "country": "AU",
    "lat": -34.8597,
    "lng": 138.58559
  },
  {
    "name": "Kilkenny",
    "country": "AU",
    "lat": -34.87914,
    "lng": 138.5529
  },
  {
    "name": "Kirkwood",
    "country": "AU",
    "lat": -23.90327,
    "lng": 151.23545
  },
  {
    "name": "Kings Beach",
    "country": "AU",
    "lat": -26.80166,
    "lng": 153.14261
  },
  {
    "name": "Kingston",
    "country": "AU",
    "lat": -35.31525,
    "lng": 149.14658
  },
  {
    "name": "Kirwan",
    "country": "AU",
    "lat": -19.30323,
    "lng": 146.72531
  },
  {
    "name": "Kiama Downs",
    "country": "AU",
    "lat": -34.63341,
    "lng": 150.85456
  },
  {
    "name": "Kilsyth South",
    "country": "AU",
    "lat": -37.82033,
    "lng": 145.31599
  },
  {
    "name": "Kingsville",
    "country": "AU",
    "lat": -37.80819,
    "lng": 144.87911
  },
  {
    "name": "Killara",
    "country": "AU",
    "lat": -33.76604,
    "lng": 151.16213
  },
  {
    "name": "Killarney Heights",
    "country": "AU",
    "lat": -33.77451,
    "lng": 151.22028
  },
  {
    "name": "Kingswood Park",
    "country": "AU",
    "lat": -33.76651,
    "lng": 150.7144
  },
  {
    "name": "Killarney Vale",
    "country": "AU",
    "lat": -33.36319,
    "lng": 151.45799
  },
  {
    "name": "Kizhaba",
    "country": "AZ",
    "lat": 38.53461,
    "lng": 48.80546
  },
  {
    "name": "Kilyazi",
    "country": "AZ",
    "lat": 40.87392,
    "lng": 49.34376
  },
  {
    "name": "Kiseljak",
    "country": "BA",
    "lat": 44.48904,
    "lng": 18.56982
  },
  {
    "name": "Kiseljak",
    "country": "BA",
    "lat": 43.94295,
    "lng": 18.08132
  },
  {
    "name": "Kishorganj",
    "country": "BD",
    "lat": 24.43944,
    "lng": 90.78291
  },
  {
    "name": "Kinrooi",
    "country": "BE",
    "lat": 51.14543,
    "lng": 5.74207
  },
  {
    "name": "Kieldrecht",
    "country": "BE",
    "lat": 51.28914,
    "lng": 4.17587
  },
  {
    "name": "Kindi",
    "country": "BF",
    "lat": 12.4386,
    "lng": -2.03279
  },
  {
    "name": "Kiten",
    "country": "BG",
    "lat": 43.08333,
    "lng": 27.31667
  },
  {
    "name": "Kiten",
    "country": "BG",
    "lat": 42.23424,
    "lng": 27.7749
  },
  {
    "name": "Kirkovo",
    "country": "BG",
    "lat": 41.32715,
    "lng": 25.36379
  },
  {
    "name": "Kilifarevo",
    "country": "BG",
    "lat": 42.98333,
    "lng": 25.63333
  },
  {
    "name": "Kirundo",
    "country": "BI",
    "lat": -2.5845,
    "lng": 30.0959
  },
  {
    "name": "Kiudang",
    "country": "BN",
    "lat": 4.75,
    "lng": 114.73333
  },
  {
    "name": "Killarney",
    "country": "BS",
    "lat": 25.05,
    "lng": -77.41667
  },
  {
    "name": "Kirovsk",
    "country": "BY",
    "lat": 53.27003,
    "lng": 29.47064
  },
  {
    "name": "Killam",
    "country": "CA",
    "lat": 52.78344,
    "lng": -111.85175
  },
  {
    "name": "Killarney",
    "country": "CA",
    "lat": 49.18332,
    "lng": -99.66364
  },
  {
    "name": "Killarney",
    "country": "CA",
    "lat": 49.22594,
    "lng": -123.04282
  },
  {
    "name": "Kimberley",
    "country": "CA",
    "lat": 49.67071,
    "lng": -115.9776
  },
  {
    "name": "Kincardine",
    "country": "CA",
    "lat": 44.18339,
    "lng": -81.63307
  },
  {
    "name": "Kindersley",
    "country": "CA",
    "lat": 51.46681,
    "lng": -109.16818
  },
  {
    "name": "King",
    "country": "CA",
    "lat": 43.96514,
    "lng": -79.59011
  },
  {
    "name": "King City",
    "country": "CA",
    "lat": 43.92856,
    "lng": -79.52694
  },
  {
    "name": "Kingsey Falls",
    "country": "CA",
    "lat": 45.85007,
    "lng": -72.0658
  },
  {
    "name": "Kingston",
    "country": "CA",
    "lat": 44.22976,
    "lng": -76.48098
  },
  {
    "name": "Kingsville",
    "country": "CA",
    "lat": 42.10009,
    "lng": -82.73312
  },
  {
    "name": "Kirkland",
    "country": "CA",
    "lat": 45.45008,
    "lng": -73.86586
  },
  {
    "name": "Kirkland Lake",
    "country": "CA",
    "lat": 48.14461,
    "lng": -80.03767
  },
  {
    "name": "Kitchener",
    "country": "CA",
    "lat": 43.42537,
    "lng": -80.5112
  },
  {
    "name": "Kitimat",
    "country": "CA",
    "lat": 54.05244,
    "lng": -128.65342
  },
  {
    "name": "Kitsilano",
    "country": "CA",
    "lat": 49.26667,
    "lng": -123.16667
  },
  {
    "name": "Kingsview Village-The Westway",
    "country": "CA",
    "lat": 43.69899,
    "lng": -79.54786
  },
  {
    "name": "Kingsway South",
    "country": "CA",
    "lat": 43.65352,
    "lng": -79.51058
  },
  {
    "name": "Kingsway-Beresford",
    "country": "CA",
    "lat": 49.22482,
    "lng": -122.96403
  },
  {
    "name": "Kirkstone",
    "country": "CA",
    "lat": 49.3272,
    "lng": -123.04443
  },
  {
    "name": "Kits Point",
    "country": "CA",
    "lat": 49.27493,
    "lng": -123.14708
  },
  {
    "name": "Kisangani",
    "country": "CD",
    "lat": 0.51528,
    "lng": 25.19099
  },
  {
    "name": "Kirumba",
    "country": "CD",
    "lat": -1.09056,
    "lng": 29.2925
  },
  {
    "name": "Kipamba",
    "country": "CD",
    "lat": -8.20591,
    "lng": 26.42036
  },
  {
    "name": "Kindu",
    "country": "CD",
    "lat": -2.94373,
    "lng": 25.92237
  },
  {
    "name": "Kipushi",
    "country": "CD",
    "lat": -11.76097,
    "lng": 27.25135
  },
  {
    "name": "Kinshasa",
    "country": "CD",
    "lat": -4.32758,
    "lng": 15.31357
  },
  {
    "name": "Kimpese",
    "country": "CD",
    "lat": -5.5615,
    "lng": 14.43159
  },
  {
    "name": "Kikwit",
    "country": "CD",
    "lat": -5.04098,
    "lng": 18.81619
  },
  {
    "name": "Kituku",
    "country": "CD",
    "lat": -7.58157,
    "lng": 30.20604
  },
  {
    "name": "Kinkala",
    "country": "CG",
    "lat": -4.35859,
    "lng": 14.76465
  },
  {
    "name": "Kindamba",
    "country": "CG",
    "lat": -3.7275,
    "lng": 14.52111
  },
  {
    "name": "Kibangou",
    "country": "CG",
    "lat": -4.16667,
    "lng": 12.06667
  },
  {
    "name": "Kimongo",
    "country": "CG",
    "lat": -4.475,
    "lng": 12.9425
  },
  {
    "name": "Kirchlindach",
    "country": "CH",
    "lat": 46.99965,
    "lng": 7.41735
  },
  {
    "name": "Kirchberg",
    "country": "CH",
    "lat": 47.41159,
    "lng": 9.0402
  },
  {
    "name": "Kirchberg",
    "country": "CH",
    "lat": 47.08538,
    "lng": 7.58288
  },
  {
    "name": "Killwangen",
    "country": "CH",
    "lat": 47.43223,
    "lng": 8.35097
  },
  {
    "name": "Kilchberg",
    "country": "CH",
    "lat": 47.32438,
    "lng": 8.54548
  },
  {
    "name": "Kilchberg / Bächler-Stocken",
    "country": "CH",
    "lat": 47.32728,
    "lng": 8.53957
  },
  {
    "name": "Kilchberg / Kilchberg (Dorfkern)",
    "country": "CH",
    "lat": 47.32012,
    "lng": 8.54306
  },
  {
    "name": "Kindhausen / Kindhausen (Dorf)",
    "country": "CH",
    "lat": 47.40644,
    "lng": 8.68296
  },
  {
    "name": "Kirchleerau",
    "country": "CH",
    "lat": 47.27579,
    "lng": 8.06581
  },
  {
    "name": "Kiémou",
    "country": "CI",
    "lat": 9.0605,
    "lng": -5.54983
  },
  {
    "name": "Kissié Malékro",
    "country": "CI",
    "lat": 7.43616,
    "lng": -4.64346
  },
  {
    "name": "Kiryao",
    "country": "CI",
    "lat": 7.38704,
    "lng": -7.34171
  },
  {
    "name": "Kinkoua",
    "country": "CI",
    "lat": 7.86667,
    "lng": -2.88333
  },
  {
    "name": "Kinkinkaha",
    "country": "CI",
    "lat": 9.48883,
    "lng": -5.0594
  },
  {
    "name": "Kinéyèkaha",
    "country": "CI",
    "lat": 9.43605,
    "lng": -5.14094
  },
  {
    "name": "Kimbirila",
    "country": "CI",
    "lat": 9.70649,
    "lng": -7.60894
  },
  {
    "name": "Kilimoukro",
    "country": "CI",
    "lat": 6.67691,
    "lng": -4.32499
  },
  {
    "name": "Kiéti",
    "country": "CI",
    "lat": 8.05,
    "lng": -3.48333
  },
  {
    "name": "Kiéré",
    "country": "CI",
    "lat": 9.09609,
    "lng": -6.06171
  },
  {
    "name": "Kiendi-Ba",
    "country": "CI",
    "lat": 8.15,
    "lng": -2.91667
  },
  {
    "name": "Kièndi",
    "country": "CI",
    "lat": 8.16925,
    "lng": -2.77586
  },
  {
    "name": "Kiélé",
    "country": "CI",
    "lat": 7.50805,
    "lng": -7.6658
  },
  {
    "name": "Kiramissé",
    "country": "CI",
    "lat": 8.22181,
    "lng": -3.44671
  },
  {
    "name": "Kirifi",
    "country": "CI",
    "lat": 6.80645,
    "lng": -3.50866
  },
  {
    "name": "Kimoukro",
    "country": "CI",
    "lat": 6.51274,
    "lng": -5.30009
  },
  {
    "name": "Kibouo",
    "country": "CI",
    "lat": 6.82898,
    "lng": -6.51516
  },
  {
    "name": "Kipekyüzi",
    "country": "CN",
    "lat": 43.94973,
    "lng": 81.38951
  },
  {
    "name": "Kissonerga",
    "country": "CY",
    "lat": 34.82279,
    "lng": 32.40131
  },
  {
    "name": "Kitzscher",
    "country": "DE",
    "lat": 51.16444,
    "lng": 12.5526
  },
  {
    "name": "Kitzingen",
    "country": "DE",
    "lat": 49.73973,
    "lng": 10.15072
  },
  {
    "name": "Kitzen",
    "country": "DE",
    "lat": 51.22172,
    "lng": 12.22349
  },
  {
    "name": "Kist",
    "country": "DE",
    "lat": 49.74278,
    "lng": 9.84389
  },
  {
    "name": "Kißlegg",
    "country": "DE",
    "lat": 47.78894,
    "lng": 9.88383
  },
  {
    "name": "Kissing",
    "country": "DE",
    "lat": 48.30375,
    "lng": 10.97088
  },
  {
    "name": "Kissenbrück",
    "country": "DE",
    "lat": 52.10956,
    "lng": 10.58996
  },
  {
    "name": "Kisdorf",
    "country": "DE",
    "lat": 53.80921,
    "lng": 10.01029
  },
  {
    "name": "Kirtorf",
    "country": "DE",
    "lat": 50.76942,
    "lng": 9.10389
  },
  {
    "name": "Kirschweiler",
    "country": "DE",
    "lat": 49.75,
    "lng": 7.25
  },
  {
    "name": "Kirschau",
    "country": "DE",
    "lat": 51.09317,
    "lng": 14.4284
  },
  {
    "name": "Kirrweiler",
    "country": "DE",
    "lat": 49.30124,
    "lng": 8.16288
  },
  {
    "name": "Kirn",
    "country": "DE",
    "lat": 49.78912,
    "lng": 7.45765
  },
  {
    "name": "Kirkel",
    "country": "DE",
    "lat": 49.28333,
    "lng": 7.23333
  },
  {
    "name": "Kirchzell",
    "country": "DE",
    "lat": 49.618,
    "lng": 9.17785
  },
  {
    "name": "Kirchzarten",
    "country": "DE",
    "lat": 47.96667,
    "lng": 7.95
  },
  {
    "name": "Kirchworbis",
    "country": "DE",
    "lat": 51.41122,
    "lng": 10.39625
  },
  {
    "name": "Kirchwerder",
    "country": "DE",
    "lat": 53.41972,
    "lng": 10.20156
  },
  {
    "name": "Kirchweidach",
    "country": "DE",
    "lat": 48.08575,
    "lng": 12.6453
  },
  {
    "name": "Kirchwalsede",
    "country": "DE",
    "lat": 53.01667,
    "lng": 9.4
  },
  {
    "name": "Kirchtimke",
    "country": "DE",
    "lat": 53.25,
    "lng": 9.15
  },
  {
    "name": "Kirchseeon",
    "country": "DE",
    "lat": 48.07143,
    "lng": 11.88875
  },
  {
    "name": "Kirchseelte",
    "country": "DE",
    "lat": 52.95,
    "lng": 8.68333
  },
  {
    "name": "Kirchroth",
    "country": "DE",
    "lat": 48.95,
    "lng": 12.55
  },
  {
    "name": "Kirchlinteln",
    "country": "DE",
    "lat": 52.94236,
    "lng": 9.31811
  },
  {
    "name": "Kirchlengern",
    "country": "DE",
    "lat": 52.2,
    "lng": 8.63333
  },
  {
    "name": "Kirchlauter",
    "country": "DE",
    "lat": 50.0443,
    "lng": 10.71776
  },
  {
    "name": "Kirchhundem",
    "country": "DE",
    "lat": 51.08556,
    "lng": 8.08893
  },
  {
    "name": "Kirchheim unter Teck",
    "country": "DE",
    "lat": 48.64683,
    "lng": 9.45378
  },
  {
    "name": "Kirchheimbolanden",
    "country": "DE",
    "lat": 49.66249,
    "lng": 8.01513
  },
  {
    "name": "Kirchheim bei München",
    "country": "DE",
    "lat": 48.17656,
    "lng": 11.75563
  },
  {
    "name": "Kirchheim an der Weinstraße",
    "country": "DE",
    "lat": 49.53722,
    "lng": 8.18083
  },
  {
    "name": "Kirchheim am Ries",
    "country": "DE",
    "lat": 48.87922,
    "lng": 10.40028
  },
  {
    "name": "Kirchheim am Neckar",
    "country": "DE",
    "lat": 49.045,
    "lng": 9.14222
  },
  {
    "name": "Kirchheim",
    "country": "DE",
    "lat": 50.88333,
    "lng": 11.01667
  },
  {
    "name": "Kirchheim",
    "country": "DE",
    "lat": 50.83333,
    "lng": 9.56667
  },
  {
    "name": "Kirchheim",
    "country": "DE",
    "lat": 49.65607,
    "lng": 9.85783
  },
  {
    "name": "Kirchheim",
    "country": "DE",
    "lat": 48.1749,
    "lng": 10.47461
  },
  {
    "name": "Kirchhaslach",
    "country": "DE",
    "lat": 48.1504,
    "lng": 10.31015
  },
  {
    "name": "Kirchham",
    "country": "DE",
    "lat": 48.34638,
    "lng": 13.26719
  },
  {
    "name": "Kirchhain",
    "country": "DE",
    "lat": 50.8272,
    "lng": 8.92806
  },
  {
    "name": "Kirchgellersen",
    "country": "DE",
    "lat": 53.23333,
    "lng": 10.3
  },
  {
    "name": "Kirchenthumbach",
    "country": "DE",
    "lat": 49.74866,
    "lng": 11.72542
  },
  {
    "name": "Kirchentellinsfurt",
    "country": "DE",
    "lat": 48.53315,
    "lng": 9.14732
  },
  {
    "name": "Kirchensittenbach",
    "country": "DE",
    "lat": 49.55601,
    "lng": 11.42226
  },
  {
    "name": "Kirchenpingarten",
    "country": "DE",
    "lat": 49.93333,
    "lng": 11.78333
  },
  {
    "name": "Kirchenlamitz",
    "country": "DE",
    "lat": 50.1519,
    "lng": 11.94831
  },
  {
    "name": "Kirchen",
    "country": "DE",
    "lat": 50.80849,
    "lng": 7.88634
  },
  {
    "name": "Kirchehrenbach",
    "country": "DE",
    "lat": 49.73333,
    "lng": 11.15
  },
  {
    "name": "Kirchdorf im Wald",
    "country": "DE",
    "lat": 48.91048,
    "lng": 13.26614
  },
  {
    "name": "Kirchdorf am Inn",
    "country": "DE",
    "lat": 48.24755,
    "lng": 12.98453
  },
  {
    "name": "Kirchdorf",
    "country": "DE",
    "lat": 52.59523,
    "lng": 8.8349
  },
  {
    "name": "Kirchdorf",
    "country": "DE",
    "lat": 48.45942,
    "lng": 11.65438
  },
  {
    "name": "Kirchdorf",
    "country": "DE",
    "lat": 48.17542,
    "lng": 12.19646
  },
  {
    "name": "Kirchdorf",
    "country": "DE",
    "lat": 48.07667,
    "lng": 10.12629
  },
  {
    "name": "Kirchbrak",
    "country": "DE",
    "lat": 51.96585,
    "lng": 9.5751
  },
  {
    "name": "Kirchberg an der Murr",
    "country": "DE",
    "lat": 48.94297,
    "lng": 9.34083
  },
  {
    "name": "Kirchberg an der Jagst",
    "country": "DE",
    "lat": 49.20056,
    "lng": 9.98226
  },
  {
    "name": "Kirchberg an der Iller",
    "country": "DE",
    "lat": 48.13333,
    "lng": 10.08333
  },
  {
    "name": "Kirchberg",
    "country": "DE",
    "lat": 50.76141,
    "lng": 12.76481
  },
  {
    "name": "Kirchberg",
    "country": "DE",
    "lat": 50.6219,
    "lng": 12.52449
  },
  {
    "name": "Kirchberg",
    "country": "DE",
    "lat": 49.94395,
    "lng": 7.407
  },
  {
    "name": "Kirchberg",
    "country": "DE",
    "lat": 48.90006,
    "lng": 13.182
  },
  {
    "name": "Kirchardt",
    "country": "DE",
    "lat": 49.205,
    "lng": 8.99167
  },
  {
    "name": "Kirchanschöring",
    "country": "DE",
    "lat": 47.95303,
    "lng": 12.83435
  },
  {
    "name": "Kippenheim",
    "country": "DE",
    "lat": 48.29564,
    "lng": 7.8251
  },
  {
    "name": "Kindsbach",
    "country": "DE",
    "lat": 49.41667,
    "lng": 7.61667
  },
  {
    "name": "Kinderbeuern",
    "country": "DE",
    "lat": 50.00935,
    "lng": 7.02355
  },
  {
    "name": "Kindenheim",
    "country": "DE",
    "lat": 49.61111,
    "lng": 8.16417
  },
  {
    "name": "Kindelbrück",
    "country": "DE",
    "lat": 51.26171,
    "lng": 11.08999
  },
  {
    "name": "Kieselbronn",
    "country": "DE",
    "lat": 48.93333,
    "lng": 8.75
  },
  {
    "name": "Kierspe",
    "country": "DE",
    "lat": 51.13403,
    "lng": 7.59075
  },
  {
    "name": "Kienberg",
    "country": "DE",
    "lat": 48.03481,
    "lng": 12.4633
  },
  {
    "name": "Kiel",
    "country": "DE",
    "lat": 54.32133,
    "lng": 10.13489
  },
  {
    "name": "Kiefersfelden",
    "country": "DE",
    "lat": 47.61409,
    "lng": 12.19096
  },
  {
    "name": "Kiedrich",
    "country": "DE",
    "lat": 50.03965,
    "lng": 8.08531
  },
  {
    "name": "Kiebitzreihe",
    "country": "DE",
    "lat": 53.78196,
    "lng": 9.61465
  },
  {
    "name": "Kirchwald",
    "country": "DE",
    "lat": 50.36667,
    "lng": 7.15
  },
  {
    "name": "Kirke Hvalsø",
    "country": "DK",
    "lat": 55.5917,
    "lng": 11.86253
  },
  {
    "name": "Kirke-Esbønderup",
    "country": "DK",
    "lat": 56.04975,
    "lng": 12.34636
  },
  {
    "name": "Kibæk",
    "country": "DK",
    "lat": 56.0317,
    "lng": 8.85697
  },
  {
    "name": "Kiviõli",
    "country": "EE",
    "lat": 59.35306,
    "lng": 26.97111
  },
  {
    "name": "Kilingi-Nõmme",
    "country": "EE",
    "lat": 58.15028,
    "lng": 24.96417
  },
  {
    "name": "Kiili",
    "country": "EE",
    "lat": 59.30775,
    "lng": 24.83776
  },
  {
    "name": "Kirdāsah",
    "country": "EG",
    "lat": 30.03103,
    "lng": 31.11109
  },
  {
    "name": "Kibre Mengist",
    "country": "ET",
    "lat": 5.88333,
    "lng": 38.98333
  },
  {
    "name": "Kivenlahti",
    "country": "FI",
    "lat": 60.15372,
    "lng": 24.63264
  },
  {
    "name": "Kirkkonummi",
    "country": "FI",
    "lat": 60.12381,
    "lng": 24.43853
  },
  {
    "name": "Kivijärvi",
    "country": "FI",
    "lat": 63.11984,
    "lng": 25.07835
  },
  {
    "name": "Kiuruvesi",
    "country": "FI",
    "lat": 63.65,
    "lng": 26.61667
  },
  {
    "name": "Kiukainen",
    "country": "FI",
    "lat": 61.21667,
    "lng": 22.08333
  },
  {
    "name": "Kittilä",
    "country": "FI",
    "lat": 67.66474,
    "lng": 24.89356
  },
  {
    "name": "Kitee",
    "country": "FI",
    "lat": 62.1,
    "lng": 30.15
  },
  {
    "name": "Kisko",
    "country": "FI",
    "lat": 60.23333,
    "lng": 23.48333
  },
  {
    "name": "Kinnula",
    "country": "FI",
    "lat": 63.38333,
    "lng": 24.95
  },
  {
    "name": "Kinnula",
    "country": "FI",
    "lat": 63.36667,
    "lng": 24.96667
  },
  {
    "name": "Kimito",
    "country": "FI",
    "lat": 60.16047,
    "lng": 22.729
  },
  {
    "name": "Kiiminki",
    "country": "FI",
    "lat": 65.13139,
    "lng": 25.79744
  },
  {
    "name": "Kiikoinen",
    "country": "FI",
    "lat": 61.45385,
    "lng": 22.57699
  },
  {
    "name": "Kiikala",
    "country": "FI",
    "lat": 60.46667,
    "lng": 23.56667
  },
  {
    "name": "Kiihtelysvaara",
    "country": "FI",
    "lat": 62.49525,
    "lng": 30.25081
  },
  {
    "name": "Kihniö",
    "country": "FI",
    "lat": 62.2,
    "lng": 23.18333
  },
  {
    "name": "Kivikko",
    "country": "FI",
    "lat": 60.23483,
    "lng": 25.06016
  },
  {
    "name": "Kivistö",
    "country": "FI",
    "lat": 60.32572,
    "lng": 24.83839
  },
  {
    "name": "Kivisalmi",
    "country": "FI",
    "lat": 61.09058,
    "lng": 28.14551
  },
  {
    "name": "Kilo",
    "country": "FI",
    "lat": 60.21746,
    "lng": 24.78151
  },
  {
    "name": "Kissanmaa",
    "country": "FI",
    "lat": 61.49976,
    "lng": 23.81612
  },
  {
    "name": "Kiviniemi",
    "country": "FI",
    "lat": 64.96795,
    "lng": 25.50016
  },
  {
    "name": "Kimpinen",
    "country": "FI",
    "lat": 61.06318,
    "lng": 28.19997
  },
  {
    "name": "Kirkja",
    "country": "FO",
    "lat": 62.31851,
    "lng": -6.31646
  },
  {
    "name": "Kintzheim",
    "country": "FR",
    "lat": 48.2548,
    "lng": 7.39491
  },
  {
    "name": "Kingersheim",
    "country": "FR",
    "lat": 47.791,
    "lng": 7.32647
  },
  {
    "name": "Kilstett",
    "country": "FR",
    "lat": 48.676,
    "lng": 7.85471
  },
  {
    "name": "Killem",
    "country": "FR",
    "lat": 50.95779,
    "lng": 2.56068
  },
  {
    "name": "Kiveton Park",
    "country": "GB",
    "lat": 53.3412,
    "lng": -1.25498
  },
  {
    "name": "Kislingbury",
    "country": "GB",
    "lat": 52.22976,
    "lng": -0.97914
  },
  {
    "name": "Kirton in Lindsey",
    "country": "GB",
    "lat": 53.47548,
    "lng": -0.59566
  },
  {
    "name": "Kirton",
    "country": "GB",
    "lat": 52.92774,
    "lng": -0.06008
  },
  {
    "name": "Kirriemuir",
    "country": "GB",
    "lat": 56.67398,
    "lng": -3.00343
  },
  {
    "name": "Kirkwall",
    "country": "GB",
    "lat": 58.98479,
    "lng": -2.95873
  },
  {
    "name": "Kirk Sandall",
    "country": "GB",
    "lat": 53.56211,
    "lng": -1.06876
  },
  {
    "name": "Kirknewton",
    "country": "GB",
    "lat": 55.88754,
    "lng": -3.41898
  },
  {
    "name": "Kirknewton",
    "country": "GB",
    "lat": 55.55,
    "lng": -2.13333
  },
  {
    "name": "Kirkliston",
    "country": "GB",
    "lat": 55.95364,
    "lng": -3.40288
  },
  {
    "name": "Kirkleatham",
    "country": "GB",
    "lat": 54.58848,
    "lng": -1.08181
  },
  {
    "name": "Kirkintilloch",
    "country": "GB",
    "lat": 55.93933,
    "lng": -4.15262
  },
  {
    "name": "Kirkham",
    "country": "GB",
    "lat": 53.78244,
    "lng": -2.87189
  },
  {
    "name": "Kirk Ella",
    "country": "GB",
    "lat": 53.75399,
    "lng": -0.4549
  },
  {
    "name": "Kirkcudbright",
    "country": "GB",
    "lat": 54.8383,
    "lng": -4.04908
  },
  {
    "name": "Kirkconnel",
    "country": "GB",
    "lat": 55.38561,
    "lng": -3.99836
  },
  {
    "name": "Kirkcaldy",
    "country": "GB",
    "lat": 56.11683,
    "lng": -3.15999
  },
  {
    "name": "Kirkby Stephen",
    "country": "GB",
    "lat": 54.47229,
    "lng": -2.34865
  },
  {
    "name": "Kirkbymoorside",
    "country": "GB",
    "lat": 54.27014,
    "lng": -0.93218
  },
  {
    "name": "Kirkby Lonsdale",
    "country": "GB",
    "lat": 54.20259,
    "lng": -2.59827
  },
  {
    "name": "Kirkby in Ashfield",
    "country": "GB",
    "lat": 53.09982,
    "lng": -1.24379
  },
  {
    "name": "Kirkby",
    "country": "GB",
    "lat": 53.48138,
    "lng": -2.89215
  },
  {
    "name": "Kirkburton",
    "country": "GB",
    "lat": 53.61047,
    "lng": -1.70292
  },
  {
    "name": "Kircubbin",
    "country": "GB",
    "lat": 54.48739,
    "lng": -5.53385
  },
  {
    "name": "Kirby Underdale",
    "country": "GB",
    "lat": 54.01715,
    "lng": -0.77102
  },
  {
    "name": "Kirby Muxloe",
    "country": "GB",
    "lat": 52.63025,
    "lng": -1.22755
  },
  {
    "name": "Kippen",
    "country": "GB",
    "lat": 56.12673,
    "lng": -4.17083
  },
  {
    "name": "Kippax",
    "country": "GB",
    "lat": 53.76687,
    "lng": -1.37099
  },
  {
    "name": "Kinvere",
    "country": "GB",
    "lat": 52.45,
    "lng": -2.23333
  },
  {
    "name": "Kintore",
    "country": "GB",
    "lat": 57.23721,
    "lng": -2.3454
  },
  {
    "name": "Kintbury",
    "country": "GB",
    "lat": 51.39958,
    "lng": -1.44865
  },
  {
    "name": "Kinsham",
    "country": "GB",
    "lat": 52.28333,
    "lng": -2.93333
  },
  {
    "name": "Kinross",
    "country": "GB",
    "lat": 56.20466,
    "lng": -3.42138
  },
  {
    "name": "Kinnersley",
    "country": "GB",
    "lat": 52.13333,
    "lng": -2.95
  },
  {
    "name": "Kinloss",
    "country": "GB",
    "lat": 57.63494,
    "lng": -3.57012
  },
  {
    "name": "Kingussie",
    "country": "GB",
    "lat": 57.07996,
    "lng": -4.05231
  },
  {
    "name": "Kington",
    "country": "GB",
    "lat": 52.20408,
    "lng": -3.02553
  },
  {
    "name": "Kington",
    "country": "GB",
    "lat": 52.2,
    "lng": -2.01667
  },
  {
    "name": "Kings Worthy",
    "country": "GB",
    "lat": 51.08862,
    "lng": -1.2978
  },
  {
    "name": "Kingswood",
    "country": "GB",
    "lat": 51.62583,
    "lng": -2.36722
  },
  {
    "name": "Kingswood",
    "country": "GB",
    "lat": 51.45278,
    "lng": -2.50833
  },
  {
    "name": "Kingswood",
    "country": "GB",
    "lat": 51.29477,
    "lng": -0.21428
  },
  {
    "name": "Kingswinford",
    "country": "GB",
    "lat": 52.49755,
    "lng": -2.16889
  },
  {
    "name": "Kingston upon Hull",
    "country": "GB",
    "lat": 53.7446,
    "lng": -0.33525
  },
  {
    "name": "Kingston Seymour",
    "country": "GB",
    "lat": 51.39833,
    "lng": -2.86111
  },
  {
    "name": "Kingstone",
    "country": "GB",
    "lat": 52.01667,
    "lng": -2.83333
  },
  {
    "name": "Kingston Bagpuize",
    "country": "GB",
    "lat": 51.6815,
    "lng": -1.42041
  },
  {
    "name": "Kingsteignton",
    "country": "GB",
    "lat": 50.55,
    "lng": -3.58333
  },
  {
    "name": "Kings Sutton",
    "country": "GB",
    "lat": 52.02313,
    "lng": -1.27613
  },
  {
    "name": "King's Lynn",
    "country": "GB",
    "lat": 52.75172,
    "lng": 0.39516
  },
  {
    "name": "Kingsley",
    "country": "GB",
    "lat": 53.26667,
    "lng": -2.66667
  },
  {
    "name": "Kings Langley",
    "country": "GB",
    "lat": 51.71395,
    "lng": -0.45044
  },
  {
    "name": "Kingsland",
    "country": "GB",
    "lat": 52.24911,
    "lng": -2.81542
  },
  {
    "name": "Kingskettle",
    "country": "GB",
    "lat": 56.26215,
    "lng": -3.11693
  },
  {
    "name": "Kingskerswell",
    "country": "GB",
    "lat": 50.49915,
    "lng": -3.58195
  },
  {
    "name": "Kingsclere",
    "country": "GB",
    "lat": 51.32487,
    "lng": -1.24339
  },
  {
    "name": "Kingsbury",
    "country": "GB",
    "lat": 52.56106,
    "lng": -1.67936
  },
  {
    "name": "Kingsbridge",
    "country": "GB",
    "lat": 50.28451,
    "lng": -3.77638
  },
  {
    "name": "Kinglassie",
    "country": "GB",
    "lat": 56.17371,
    "lng": -3.24241
  },
  {
    "name": "Kinghorn",
    "country": "GB",
    "lat": 56.06896,
    "lng": -3.17607
  },
  {
    "name": "Kineton",
    "country": "GB",
    "lat": 52.15645,
    "lng": -1.51148
  },
  {
    "name": "Kincardine",
    "country": "GB",
    "lat": 56.06945,
    "lng": -3.71964
  },
  {
    "name": "Kimpton",
    "country": "GB",
    "lat": 51.85089,
    "lng": -0.2998
  },
  {
    "name": "Kimbolton",
    "country": "GB",
    "lat": 52.29704,
    "lng": -0.38916
  },
  {
    "name": "Kimbolton",
    "country": "GB",
    "lat": 52.25,
    "lng": -2.7
  },
  {
    "name": "Kimberley",
    "country": "GB",
    "lat": 52.98333,
    "lng": -1.26667
  },
  {
    "name": "Kilwinning",
    "country": "GB",
    "lat": 55.65333,
    "lng": -4.70666
  },
  {
    "name": "Kilsyth",
    "country": "GB",
    "lat": 55.97596,
    "lng": -4.05916
  },
  {
    "name": "Kilsby",
    "country": "GB",
    "lat": 52.33375,
    "lng": -1.17505
  },
  {
    "name": "Kilrea",
    "country": "GB",
    "lat": 54.95091,
    "lng": -6.55695
  },
  {
    "name": "Kilpin",
    "country": "GB",
    "lat": 53.7328,
    "lng": -0.83397
  },
  {
    "name": "Kilmington",
    "country": "GB",
    "lat": 51.12694,
    "lng": -2.32694
  },
  {
    "name": "Kilmaurs",
    "country": "GB",
    "lat": 55.63801,
    "lng": -4.5273
  },
  {
    "name": "Kilmarnock",
    "country": "GB",
    "lat": 55.61171,
    "lng": -4.49581
  },
  {
    "name": "Kilmacolm",
    "country": "GB",
    "lat": 55.8947,
    "lng": -4.62643
  },
  {
    "name": "Killyleagh",
    "country": "GB",
    "lat": 54.40135,
    "lng": -5.648
  },
  {
    "name": "Killearn",
    "country": "GB",
    "lat": 56.04239,
    "lng": -4.3684
  },
  {
    "name": "Killamarsh",
    "country": "GB",
    "lat": 53.32395,
    "lng": -1.31688
  },
  {
    "name": "Kilkeel",
    "country": "GB",
    "lat": 54.06196,
    "lng": -6.00308
  },
  {
    "name": "Kilham",
    "country": "GB",
    "lat": 54.06413,
    "lng": -0.38057
  },
  {
    "name": "Kilgetty",
    "country": "GB",
    "lat": 51.73203,
    "lng": -4.71983
  },
  {
    "name": "Kilcreggan",
    "country": "GB",
    "lat": 55.9846,
    "lng": -4.821
  },
  {
    "name": "Kilburn",
    "country": "GB",
    "lat": 53.0058,
    "lng": -1.43869
  },
  {
    "name": "Kilbirnie",
    "country": "GB",
    "lat": 55.75082,
    "lng": -4.68791
  },
  {
    "name": "Kilbarchan",
    "country": "GB",
    "lat": 55.8362,
    "lng": -4.55356
  },
  {
    "name": "Kidwelly",
    "country": "GB",
    "lat": 51.73639,
    "lng": -4.30333
  },
  {
    "name": "Kidsgrove",
    "country": "GB",
    "lat": 53.08691,
    "lng": -2.23777
  },
  {
    "name": "Kidlington",
    "country": "GB",
    "lat": 51.82166,
    "lng": -1.2886
  },
  {
    "name": "Kidderminster",
    "country": "GB",
    "lat": 52.38819,
    "lng": -2.25
  },
  {
    "name": "Kidbrooke",
    "country": "GB",
    "lat": 51.46723,
    "lng": 0.02708
  },
  {
    "name": "Kibworth Harcourt",
    "country": "GB",
    "lat": 52.54439,
    "lng": -0.99491
  },
  {
    "name": "Kings Hill",
    "country": "GB",
    "lat": 51.27437,
    "lng": 0.40237
  },
  {
    "name": "Kilburn",
    "country": "GB",
    "lat": 51.55295,
    "lng": -0.19157
  },
  {
    "name": "King's Cross",
    "country": "GB",
    "lat": 51.53067,
    "lng": -0.12308
  },
  {
    "name": "Kingston upon Thames",
    "country": "GB",
    "lat": 51.41259,
    "lng": -0.2974
  },
  {
    "name": "Kingswells",
    "country": "GB",
    "lat": 57.15798,
    "lng": -2.22426
  },
  {
    "name": "Kirkdale",
    "country": "GB",
    "lat": 53.43342,
    "lng": -2.97657
  },
  {
    "name": "King's Clipstone",
    "country": "GB",
    "lat": 53.1769,
    "lng": -1.10129
  },
  {
    "name": "Kintampo",
    "country": "GH",
    "lat": 8.05627,
    "lng": -1.73058
  },
  {
    "name": "Kibi",
    "country": "GH",
    "lat": 6.16494,
    "lng": -0.55376
  },
  {
    "name": "Kissidougou",
    "country": "GN",
    "lat": 9.1848,
    "lng": -10.09987
  },
  {
    "name": "Kintinian",
    "country": "GN",
    "lat": 11.6,
    "lng": -9.38333
  },
  {
    "name": "Kindia",
    "country": "GN",
    "lat": 10.05692,
    "lng": -12.86576
  },
  {
    "name": "Kimbo",
    "country": "GN",
    "lat": 10.4,
    "lng": -13.55
  },
  {
    "name": "Kipséli",
    "country": "GR",
    "lat": 38.00288,
    "lng": 23.73755
  },
  {
    "name": "Kinéta",
    "country": "GR",
    "lat": 37.96843,
    "lng": 23.21351
  },
  {
    "name": "Kifisiá",
    "country": "GR",
    "lat": 38.07438,
    "lng": 23.81106
  },
  {
    "name": "Kiáto",
    "country": "GR",
    "lat": 38.01321,
    "lng": 22.74839
  },
  {
    "name": "Kimméria",
    "country": "GR",
    "lat": 41.14788,
    "lng": 24.93869
  },
  {
    "name": "Kilkís",
    "country": "GR",
    "lat": 40.99302,
    "lng": 22.87433
  },
  {
    "name": "Kingsford Terrace",
    "country": "HK",
    "lat": 22.34031,
    "lng": 114.21125
  },
  {
    "name": "King Shan Court",
    "country": "HK",
    "lat": 22.34195,
    "lng": 114.21019
  },
  {
    "name": "Kistanje",
    "country": "HR",
    "lat": 43.98278,
    "lng": 15.965
  },
  {
    "name": "Kijevo",
    "country": "HR",
    "lat": 43.97725,
    "lng": 16.3571
  },
  {
    "name": "Kiszombor",
    "country": "HU",
    "lat": 46.18333,
    "lng": 20.43333
  },
  {
    "name": "Kisvárda",
    "country": "HU",
    "lat": 48.21667,
    "lng": 22.08333
  },
  {
    "name": "Kisújszállás",
    "country": "HU",
    "lat": 47.21667,
    "lng": 20.76667
  },
  {
    "name": "Kisléta",
    "country": "HU",
    "lat": 47.84244,
    "lng": 22.00393
  },
  {
    "name": "Kisköre",
    "country": "HU",
    "lat": 47.5,
    "lng": 20.5
  },
  {
    "name": "Kistelek",
    "country": "HU",
    "lat": 46.4725,
    "lng": 19.97972
  },
  {
    "name": "Kisszállás",
    "country": "HU",
    "lat": 46.28009,
    "lng": 19.48954
  },
  {
    "name": "Kispest",
    "country": "HU",
    "lat": 47.4515,
    "lng": 19.14017
  },
  {
    "name": "Kisláng",
    "country": "HU",
    "lat": 46.95744,
    "lng": 18.38813
  },
  {
    "name": "Kiskunmajsa",
    "country": "HU",
    "lat": 46.49028,
    "lng": 19.74
  },
  {
    "name": "Kiskunlacháza",
    "country": "HU",
    "lat": 47.18839,
    "lng": 19.0093
  },
  {
    "name": "Kiskunhalas",
    "country": "HU",
    "lat": 46.43402,
    "lng": 19.48479
  },
  {
    "name": "Kiskunfélegyháza",
    "country": "HU",
    "lat": 46.71213,
    "lng": 19.84458
  },
  {
    "name": "Kiskőrös",
    "country": "HU",
    "lat": 46.62139,
    "lng": 19.28528
  },
  {
    "name": "Kisbér",
    "country": "HU",
    "lat": 47.50289,
    "lng": 18.03665
  },
  {
    "name": "Kincsesbánya",
    "country": "HU",
    "lat": 47.26444,
    "lng": 18.2779
  },
  {
    "name": "Kimle",
    "country": "HU",
    "lat": 47.81726,
    "lng": 17.36642
  },
  {
    "name": "Kistarcsa",
    "country": "HU",
    "lat": 47.54757,
    "lng": 19.26247
  },
  {
    "name": "Kismaros",
    "country": "HU",
    "lat": 47.83742,
    "lng": 19.00463
  },
  {
    "name": "Kisaran",
    "country": "ID",
    "lat": 2.9845,
    "lng": 99.6158
  },
  {
    "name": "Kiruru",
    "country": "ID",
    "lat": -3.9389,
    "lng": 134.9696
  },
  {
    "name": "Kimaam",
    "country": "ID",
    "lat": -7.98507,
    "lng": 138.84689
  },
  {
    "name": "Kie",
    "country": "ID",
    "lat": -9.8448,
    "lng": 124.5481
  },
  {
    "name": "Kigamani",
    "country": "ID",
    "lat": -3.96139,
    "lng": 135.94361
  },
  {
    "name": "Kinsale",
    "country": "IE",
    "lat": 51.7075,
    "lng": -8.53056
  },
  {
    "name": "Kinnegad",
    "country": "IE",
    "lat": 53.45222,
    "lng": -7.09972
  },
  {
    "name": "Kinlough",
    "country": "IE",
    "lat": 54.45,
    "lng": -8.28333
  },
  {
    "name": "Kingscourt",
    "country": "IE",
    "lat": 53.90806,
    "lng": -6.80556
  },
  {
    "name": "Kilworth",
    "country": "IE",
    "lat": 52.17639,
    "lng": -8.24417
  },
  {
    "name": "Kiltamagh",
    "country": "IE",
    "lat": 53.85,
    "lng": -9.0
  },
  {
    "name": "Kilrush",
    "country": "IE",
    "lat": 52.64011,
    "lng": -9.48509
  },
  {
    "name": "Kilmallock",
    "country": "IE",
    "lat": 52.4,
    "lng": -8.57722
  },
  {
    "name": "Killybegs",
    "country": "IE",
    "lat": 54.63333,
    "lng": -8.45
  },
  {
    "name": "Killumney",
    "country": "IE",
    "lat": 51.87243,
    "lng": -8.64781
  },
  {
    "name": "Killucan",
    "country": "IE",
    "lat": 53.51439,
    "lng": -7.14194
  },
  {
    "name": "Killorglin",
    "country": "IE",
    "lat": 52.1,
    "lng": -9.78333
  },
  {
    "name": "Killarney",
    "country": "IE",
    "lat": 52.0598,
    "lng": -9.50858
  },
  {
    "name": "Killaloe",
    "country": "IE",
    "lat": 52.80667,
    "lng": -8.44361
  },
  {
    "name": "Kilkenny",
    "country": "IE",
    "lat": 52.65417,
    "lng": -7.25222
  },
  {
    "name": "Kilkee",
    "country": "IE",
    "lat": 52.67976,
    "lng": -9.64344
  },
  {
    "name": "Kildare",
    "country": "IE",
    "lat": 53.15611,
    "lng": -6.91444
  },
  {
    "name": "Kilcullen",
    "country": "IE",
    "lat": 53.13028,
    "lng": -6.74444
  },
  {
    "name": "Kilcoole",
    "country": "IE",
    "lat": 53.10278,
    "lng": -6.065
  },
  {
    "name": "Kilcock",
    "country": "IE",
    "lat": 53.40222,
    "lng": -6.67083
  },
  {
    "name": "Kilbeggan",
    "country": "IE",
    "lat": 53.36944,
    "lng": -7.50333
  },
  {
    "name": "Kill",
    "country": "IE",
    "lat": 53.25139,
    "lng": -6.59167
  },
  {
    "name": "Kilpedder",
    "country": "IE",
    "lat": 53.10917,
    "lng": -6.10667
  },
  {
    "name": "Kilmacanoge",
    "country": "IE",
    "lat": 53.16722,
    "lng": -6.13361
  },
  {
    "name": "Killester",
    "country": "IE",
    "lat": 53.37322,
    "lng": -6.20431
  },
  {
    "name": "Kilquade",
    "country": "IE",
    "lat": 53.09743,
    "lng": -6.08411
  },
  {
    "name": "Kinsealy-Drinan",
    "country": "IE",
    "lat": 53.44395,
    "lng": -6.20334
  },
  {
    "name": "Kiryat Gat",
    "country": "IL",
    "lat": 31.60998,
    "lng": 34.76422
  },
  {
    "name": "Kisra - Sume'a",
    "country": "IL",
    "lat": 32.97262,
    "lng": 35.29877
  },
  {
    "name": "Kiryat Ono",
    "country": "IL",
    "lat": 32.06124,
    "lng": 34.85618
  },
  {
    "name": "Kirkmichael",
    "country": "IM",
    "lat": 54.28562,
    "lng": -4.58748
  },
  {
    "name": "Kirk Braddan",
    "country": "IM",
    "lat": 54.16667,
    "lng": -4.51667
  },
  {
    "name": "Kilakarai",
    "country": "IN",
    "lat": 9.23183,
    "lng": 78.78545
  },
  {
    "name": "Kizhake Chālakudi",
    "country": "IN",
    "lat": 10.30067,
    "lng": 76.33763
  },
  {
    "name": "Kithor",
    "country": "IN",
    "lat": 28.86684,
    "lng": 77.93861
  },
  {
    "name": "Kishtwār",
    "country": "IN",
    "lat": 33.31346,
    "lng": 75.76726
  },
  {
    "name": "Kishni",
    "country": "IN",
    "lat": 27.02487,
    "lng": 79.262
  },
  {
    "name": "Kishanpur",
    "country": "IN",
    "lat": 25.64232,
    "lng": 81.0227
  },
  {
    "name": "Kishangarh",
    "country": "IN",
    "lat": 27.81889,
    "lng": 76.72972
  },
  {
    "name": "Kishangarh",
    "country": "IN",
    "lat": 26.59006,
    "lng": 74.85397
  },
  {
    "name": "Kishanganj",
    "country": "IN",
    "lat": 26.10224,
    "lng": 87.95534
  },
  {
    "name": "Kirnāpur",
    "country": "IN",
    "lat": 21.62592,
    "lng": 80.33142
  },
  {
    "name": "Kiri Buru",
    "country": "IN",
    "lat": 22.08333,
    "lng": 85.35
  },
  {
    "name": "Kiraoli",
    "country": "IN",
    "lat": 27.13768,
    "lng": 77.78516
  },
  {
    "name": "Kirākat",
    "country": "IN",
    "lat": 25.63745,
    "lng": 82.91596
  },
  {
    "name": "Kinwat",
    "country": "IN",
    "lat": 19.62557,
    "lng": 78.1987
  },
  {
    "name": "Kinattukkadavu",
    "country": "IN",
    "lat": 10.82248,
    "lng": 77.01962
  },
  {
    "name": "Kilvelur",
    "country": "IN",
    "lat": 10.76721,
    "lng": 79.74186
  },
  {
    "name": "Kichha",
    "country": "IN",
    "lat": 28.91154,
    "lng": 79.52009
  },
  {
    "name": "Kiādgira",
    "country": "IN",
    "lat": 17.25255,
    "lng": 77.43337
  },
  {
    "name": "Kirandul",
    "country": "IN",
    "lat": 18.63649,
    "lng": 81.25827
  },
  {
    "name": "Kirāri Sulemānnagar",
    "country": "IN",
    "lat": 28.69736,
    "lng": 77.0648
  },
  {
    "name": "Kismatpur",
    "country": "IN",
    "lat": 17.33411,
    "lng": 78.39248
  },
  {
    "name": "Kizhariyūr",
    "country": "IN",
    "lat": 11.4982,
    "lng": 75.68069
  },
  {
    "name": "Kidarakulam",
    "country": "IN",
    "lat": 8.56688,
    "lng": 76.99129
  },
  {
    "name": "Kizhuparamba",
    "country": "IN",
    "lat": 11.25261,
    "lng": 76.02437
  },
  {
    "name": "Kilkunda",
    "country": "IN",
    "lat": 11.26321,
    "lng": 76.65418
  },
  {
    "name": "Kizhakkumbāgam",
    "country": "IN",
    "lat": 10.13151,
    "lng": 76.44466
  },
  {
    "name": "Killai",
    "country": "IN",
    "lat": 11.44929,
    "lng": 79.76679
  },
  {
    "name": "Kiltan",
    "country": "IN",
    "lat": 11.48577,
    "lng": 73.00384
  },
  {
    "name": "Kiphire",
    "country": "IN",
    "lat": 25.86785,
    "lng": 94.78572
  },
  {
    "name": "Kim",
    "country": "IN",
    "lat": 21.40081,
    "lng": 72.92682
  },
  {
    "name": "Kirodimalnagar",
    "country": "IN",
    "lat": 21.92685,
    "lng": 83.33229
  },
  {
    "name": "Kizhuppillikkara",
    "country": "IN",
    "lat": 10.39668,
    "lng": 76.14069
  },
  {
    "name": "Killannur",
    "country": "IN",
    "lat": 10.59918,
    "lng": 76.21801
  },
  {
    "name": "Kizhuvalam-Koonthalloor",
    "country": "IN",
    "lat": 8.66251,
    "lng": 76.80966
  },
  {
    "name": "Kiyamgei",
    "country": "IN",
    "lat": 24.74468,
    "lng": 93.93819
  },
  {
    "name": "Kila Ambur",
    "country": "IN",
    "lat": 8.76105,
    "lng": 77.40095
  },
  {
    "name": "Kilampadi",
    "country": "IN",
    "lat": 11.20403,
    "lng": 77.84269
  },
  {
    "name": "Kilapavoor",
    "country": "IN",
    "lat": 8.90862,
    "lng": 77.43112
  },
  {
    "name": "Kifrī",
    "country": "IQ",
    "lat": 34.68963,
    "lng": 44.96057
  },
  {
    "name": "Kirkuk",
    "country": "IQ",
    "lat": 35.46806,
    "lng": 44.39222
  },
  {
    "name": "Kingston",
    "country": "JM",
    "lat": 17.99702,
    "lng": -76.79358
  },
  {
    "name": "Kitim",
    "country": "JO",
    "lat": 32.43834,
    "lng": 35.89677
  },
  {
    "name": "Kiyosu",
    "country": "JP",
    "lat": 35.21667,
    "lng": 136.83333
  },
  {
    "name": "Kitsuki",
    "country": "JP",
    "lat": 33.41998,
    "lng": 131.61837
  },
  {
    "name": "Kitakyushu",
    "country": "JP",
    "lat": 33.85181,
    "lng": 130.85034
  },
  {
    "name": "Kitakata",
    "country": "JP",
    "lat": 37.65,
    "lng": 139.86667
  },
  {
    "name": "Kitahama",
    "country": "JP",
    "lat": 35.16667,
    "lng": 135.91667
  },
  {
    "name": "Kitagata",
    "country": "JP",
    "lat": 35.43333,
    "lng": 136.68333
  },
  {
    "name": "Kishiwada",
    "country": "JP",
    "lat": 34.46667,
    "lng": 135.36667
  },
  {
    "name": "Kishimoto",
    "country": "JP",
    "lat": 35.38333,
    "lng": 133.41667
  },
  {
    "name": "Kishaba",
    "country": "JP",
    "lat": 26.30328,
    "lng": 127.79396
  },
  {
    "name": "Kisarazu",
    "country": "JP",
    "lat": 35.38329,
    "lng": 139.93254
  },
  {
    "name": "Kisai",
    "country": "JP",
    "lat": 36.1,
    "lng": 139.58333
  },
  {
    "name": "Kiryū",
    "country": "JP",
    "lat": 36.4,
    "lng": 139.33333
  },
  {
    "name": "Kinshi",
    "country": "JP",
    "lat": 35.69885,
    "lng": 139.81418
  },
  {
    "name": "Kinoshita",
    "country": "JP",
    "lat": 35.90059,
    "lng": 137.98777
  },
  {
    "name": "Kin",
    "country": "JP",
    "lat": 26.45222,
    "lng": 127.91778
  },
  {
    "name": "Kikuna",
    "country": "JP",
    "lat": 35.50355,
    "lng": 139.63499
  },
  {
    "name": "Kikuchi",
    "country": "JP",
    "lat": 32.98333,
    "lng": 130.81667
  },
  {
    "name": "Kichijōji-honchō",
    "country": "JP",
    "lat": 35.70558,
    "lng": 139.57694
  },
  {
    "name": "Kiba",
    "country": "JP",
    "lat": 35.6706,
    "lng": 139.80697
  },
  {
    "name": "Kimitsu",
    "country": "JP",
    "lat": 35.35043,
    "lng": 139.87029
  },
  {
    "name": "Kitakami",
    "country": "JP",
    "lat": 39.28333,
    "lng": 141.11667
  },
  {
    "name": "Kitaibaraki",
    "country": "JP",
    "lat": 36.78671,
    "lng": 140.74901
  },
  {
    "name": "Kihara",
    "country": "JP",
    "lat": 36.01667,
    "lng": 140.3
  },
  {
    "name": "Kitami",
    "country": "JP",
    "lat": 43.80306,
    "lng": 143.89083
  },
  {
    "name": "Kimobetsu",
    "country": "JP",
    "lat": 42.79028,
    "lng": 140.935
  },
  {
    "name": "Kikusuichō",
    "country": "JP",
    "lat": 43.55,
    "lng": 141.88333
  },
  {
    "name": "Kikonai",
    "country": "JP",
    "lat": 41.68283,
    "lng": 140.43032
  },
  {
    "name": "Kitahiroshima",
    "country": "JP",
    "lat": 42.97583,
    "lng": 141.56722
  },
  {
    "name": "Kihoku-chō",
    "country": "JP",
    "lat": 33.25592,
    "lng": 132.68343
  },
  {
    "name": "Kitamoto",
    "country": "JP",
    "lat": 36.03322,
    "lng": 139.53775
  },
  {
    "name": "Kinokawa",
    "country": "JP",
    "lat": 34.26973,
    "lng": 135.41045
  },
  {
    "name": "Kikugawa",
    "country": "JP",
    "lat": 34.70291,
    "lng": 138.11978
  },
  {
    "name": "Kita-Akita",
    "country": "JP",
    "lat": 40.19956,
    "lng": 140.39388
  },
  {
    "name": "Kitanagoya",
    "country": "JP",
    "lat": 35.24702,
    "lng": 136.87832
  },
  {
    "name": "Kirishima",
    "country": "JP",
    "lat": 31.74087,
    "lng": 130.76288
  },
  {
    "name": "Kita",
    "country": "JP",
    "lat": 35.75264,
    "lng": 139.73348
  },
  {
    "name": "Kitasugama",
    "country": "JP",
    "lat": 37.22037,
    "lng": 140.45335
  },
  {
    "name": "Kitakata",
    "country": "JP",
    "lat": 37.18981,
    "lng": 140.58498
  },
  {
    "name": "Kimokawa",
    "country": "JP",
    "lat": 34.87969,
    "lng": 135.36698
  },
  {
    "name": "Kitaōgawara",
    "country": "JP",
    "lat": 34.77428,
    "lng": 135.99786
  },
  {
    "name": "Kita",
    "country": "JP",
    "lat": 40.02863,
    "lng": 139.95951
  },
  {
    "name": "Kinoenishi",
    "country": "JP",
    "lat": 32.22326,
    "lng": 130.82155
  },
  {
    "name": "Kiso",
    "country": "JP",
    "lat": 35.84036,
    "lng": 137.69028
  },
  {
    "name": "Kihoku",
    "country": "JP",
    "lat": 34.21052,
    "lng": 136.33475
  },
  {
    "name": "Kizugawa",
    "country": "JP",
    "lat": 34.73668,
    "lng": 135.83994
  },
  {
    "name": "Kiyose",
    "country": "JP",
    "lat": 35.77952,
    "lng": 139.53014
  },
  {
    "name": "Kinugawa Onsen",
    "country": "JP",
    "lat": 36.84352,
    "lng": 139.71935
  },
  {
    "name": "Kitagawa",
    "country": "JP",
    "lat": 33.44769,
    "lng": 134.04207
  },
  {
    "name": "Kipkelion",
    "country": "KE",
    "lat": -0.19982,
    "lng": 35.46735
  },
  {
    "name": "Kitui",
    "country": "KE",
    "lat": -1.36696,
    "lng": 38.01055
  },
  {
    "name": "Kithimani",
    "country": "KE",
    "lat": -1.18483,
    "lng": 37.44685
  },
  {
    "name": "Kithii",
    "country": "KE",
    "lat": -1.39897,
    "lng": 37.31378
  },
  {
    "name": "Kitale",
    "country": "KE",
    "lat": 1.01572,
    "lng": 35.00622
  },
  {
    "name": "Kisumu",
    "country": "KE",
    "lat": -0.10221,
    "lng": 34.76171
  },
  {
    "name": "Kisii",
    "country": "KE",
    "lat": -0.68174,
    "lng": 34.76666
  },
  {
    "name": "Kiserian",
    "country": "KE",
    "lat": -1.4275,
    "lng": 36.6865
  },
  {
    "name": "Kiriaini",
    "country": "KE",
    "lat": -0.87917,
    "lng": 36.88736
  },
  {
    "name": "Kipini",
    "country": "KE",
    "lat": -2.52565,
    "lng": 40.5262
  },
  {
    "name": "Kinoi",
    "country": "KE",
    "lat": -1.6558,
    "lng": 37.37454
  },
  {
    "name": "Kinna",
    "country": "KE",
    "lat": 0.31883,
    "lng": 38.20499
  },
  {
    "name": "Kinango",
    "country": "KE",
    "lat": -4.13723,
    "lng": 39.31528
  },
  {
    "name": "Kihancha",
    "country": "KE",
    "lat": -1.19347,
    "lng": 34.61967
  },
  {
    "name": "Kiminini",
    "country": "KE",
    "lat": 0.89284,
    "lng": 34.92468
  },
  {
    "name": "Kimilili",
    "country": "KE",
    "lat": 0.78775,
    "lng": 34.71562
  },
  {
    "name": "Kimende",
    "country": "KE",
    "lat": -0.98294,
    "lng": 36.63091
  },
  {
    "name": "Kimbimbi",
    "country": "KE",
    "lat": -0.62233,
    "lng": 37.36482
  },
  {
    "name": "Kimana",
    "country": "KE",
    "lat": -2.79884,
    "lng": 37.53708
  },
  {
    "name": "Kilifi",
    "country": "KE",
    "lat": -3.63045,
    "lng": 39.84992
  },
  {
    "name": "Kilgoris",
    "country": "KE",
    "lat": -1.00819,
    "lng": 34.87809
  },
  {
    "name": "Kikuyu",
    "country": "KE",
    "lat": -1.24627,
    "lng": 36.66291
  },
  {
    "name": "Kikima",
    "country": "KE",
    "lat": -1.66208,
    "lng": 37.4469
  },
  {
    "name": "Kijabe",
    "country": "KE",
    "lat": -0.948,
    "lng": 36.598
  },
  {
    "name": "Kiirua",
    "country": "KE",
    "lat": 0.12079,
    "lng": 37.55953
  },
  {
    "name": "Kiganjo",
    "country": "KE",
    "lat": -0.39626,
    "lng": 37.00006
  },
  {
    "name": "Kibwezi",
    "country": "KE",
    "lat": -2.40935,
    "lng": 37.96631
  },
  {
    "name": "Kianyaga",
    "country": "KE",
    "lat": -0.49546,
    "lng": 37.35027
  },
  {
    "name": "Kiambu",
    "country": "KE",
    "lat": -1.17139,
    "lng": 36.83556
  },
  {
    "name": "Kitengela",
    "country": "KE",
    "lat": -1.47612,
    "lng": 36.96144
  },
  {
    "name": "Kiboko",
    "country": "KE",
    "lat": -2.21053,
    "lng": 37.72026
  },
  {
    "name": "Kiambur",
    "country": "KE",
    "lat": 0.40778,
    "lng": 36.29533
  },
  {
    "name": "Kinungi",
    "country": "KE",
    "lat": -0.80415,
    "lng": 36.53133
  },
  {
    "name": "Kien Chrey",
    "country": "KH",
    "lat": 12.06929,
    "lng": 105.49638
  },
  {
    "name": "Kiri Vongs",
    "country": "KH",
    "lat": 10.63781,
    "lng": 104.87319
  },
  {
    "name": "Kilju",
    "country": "KP",
    "lat": 40.96417,
    "lng": 129.32778
  },
  {
    "name": "Kinzan",
    "country": "KR",
    "lat": 36.10306,
    "lng": 127.48889
  },
  {
    "name": "Kimje",
    "country": "KR",
    "lat": 35.80167,
    "lng": 126.88889
  },
  {
    "name": "Kimhae",
    "country": "KR",
    "lat": 35.23417,
    "lng": 128.88111
  },
  {
    "name": "Kishkenekol’",
    "country": "KZ",
    "lat": 53.63589,
    "lng": 72.34079
  },
  {
    "name": "Kilinochchi",
    "country": "LK",
    "lat": 9.3961,
    "lng": 80.3982
  },
  {
    "name": "Kirchberg",
    "country": "LU",
    "lat": 49.62389,
    "lng": 6.14944
  },
  {
    "name": "Kiklah",
    "country": "LY",
    "lat": 32.08333,
    "lng": 12.7
  },
  {
    "name": "Kili",
    "country": "MH",
    "lat": 5.64387,
    "lng": 169.12109
  },
  {
    "name": "Kičevo",
    "country": "MK",
    "lat": 41.51274,
    "lng": 20.95867
  },
  {
    "name": "Kisela Voda",
    "country": "MK",
    "lat": 41.94889,
    "lng": 21.50278
  },
  {
    "name": "Kita",
    "country": "ML",
    "lat": 13.03885,
    "lng": -9.48817
  },
  {
    "name": "Kidal",
    "country": "ML",
    "lat": 18.44345,
    "lng": 1.40921
  },
  {
    "name": "Kinmparana",
    "country": "ML",
    "lat": 12.84217,
    "lng": -4.9245
  },
  {
    "name": "Kin Taw",
    "country": "MM",
    "lat": 26.03124,
    "lng": 95.82293
  },
  {
    "name": "Kiffa",
    "country": "MR",
    "lat": 16.62073,
    "lng": -11.40208
  },
  {
    "name": "Kirkop",
    "country": "MT",
    "lat": 35.84233,
    "lng": 14.48557
  },
  {
    "name": "Kini",
    "country": "MX",
    "lat": 21.13557,
    "lng": -89.31691
  },
  {
    "name": "Kinchil",
    "country": "MX",
    "lat": 20.91696,
    "lng": -89.94728
  },
  {
    "name": "Kimbila",
    "country": "MX",
    "lat": 20.93403,
    "lng": -89.1247
  },
  {
    "name": "Kinil",
    "country": "MX",
    "lat": 20.32379,
    "lng": -89.13285
  },
  {
    "name": "Kilómetro Noventa y Nueve",
    "country": "MX",
    "lat": 28.12668,
    "lng": -105.58018
  },
  {
    "name": "Kilómetro 30",
    "country": "MX",
    "lat": 16.99778,
    "lng": -99.78
  },
  {
    "name": "Kilómetro 40",
    "country": "MX",
    "lat": 17.04944,
    "lng": -99.77056
  },
  {
    "name": "Kinarut",
    "country": "MY",
    "lat": 5.8231,
    "lng": 116.0466
  },
  {
    "name": "Kinabatangan",
    "country": "MY",
    "lat": 5.58602,
    "lng": 117.85083
  },
  {
    "name": "Kingston",
    "country": "NF",
    "lat": -29.05459,
    "lng": 167.96628
  },
  {
    "name": "Kiyawa",
    "country": "NG",
    "lat": 11.78442,
    "lng": 9.6069
  },
  {
    "name": "Kisi",
    "country": "NG",
    "lat": 9.08297,
    "lng": 3.85196
  },
  {
    "name": "Kiru",
    "country": "NG",
    "lat": 11.7021,
    "lng": 8.13481
  },
  {
    "name": "Kiri Kasamma",
    "country": "NG",
    "lat": 12.69273,
    "lng": 10.25456
  },
  {
    "name": "Kirfi",
    "country": "NG",
    "lat": 10.40556,
    "lng": 10.40451
  },
  {
    "name": "Kibiya",
    "country": "NG",
    "lat": 11.528,
    "lng": 8.66108
  },
  {
    "name": "Kijkduin",
    "country": "NL",
    "lat": 52.06765,
    "lng": 4.22188
  },
  {
    "name": "Kirkenes",
    "country": "NO",
    "lat": 69.72706,
    "lng": 30.04578
  },
  {
    "name": "Kirkenær",
    "country": "NO",
    "lat": 60.4579,
    "lng": 12.05855
  },
  {
    "name": "Kinsarvik",
    "country": "NO",
    "lat": 60.37567,
    "lng": 6.71948
  },
  {
    "name": "Kirkebygda",
    "country": "NO",
    "lat": 59.4921,
    "lng": 10.87432
  },
  {
    "name": "Kirkebygda",
    "country": "NO",
    "lat": 59.76452,
    "lng": 11.14492
  },
  {
    "name": "Ki̇̄rtipur",
    "country": "NP",
    "lat": 27.67851,
    "lng": 85.27574
  },
  {
    "name": "Kirwee",
    "country": "NZ",
    "lat": -43.5,
    "lng": 172.21667
  },
  {
    "name": "Kilbirnie",
    "country": "NZ",
    "lat": -41.31824,
    "lng": 174.79506
  },
  {
    "name": "Kihikihi",
    "country": "NZ",
    "lat": -38.03333,
    "lng": 175.35
  },
  {
    "name": "Kingswell",
    "country": "NZ",
    "lat": -46.43842,
    "lng": 168.36009
  },
  {
    "name": "Kingsland",
    "country": "NZ",
    "lat": -36.87267,
    "lng": 174.72592
  },
  {
    "name": "Kishuara",
    "country": "PE",
    "lat": -13.69129,
    "lng": -73.11844
  },
  {
    "name": "Kimbiri",
    "country": "PE",
    "lat": -12.61935,
    "lng": -73.78814
  },
  {
    "name": "Kiunga",
    "country": "PG",
    "lat": -6.12193,
    "lng": 141.29061
  },
  {
    "name": "Kimbe",
    "country": "PG",
    "lat": -5.55085,
    "lng": 150.13766
  },
  {
    "name": "Kieta",
    "country": "PG",
    "lat": -6.21462,
    "lng": 155.63251
  },
  {
    "name": "Kinatakutan",
    "country": "PH",
    "lat": 13.955,
    "lng": 122.4678
  },
  {
    "name": "Kiupo",
    "country": "PH",
    "lat": 5.84167,
    "lng": 125.31917
  },
  {
    "name": "Kitobo",
    "country": "PH",
    "lat": 7.57444,
    "lng": 125.105
  },
  {
    "name": "Kitcharao",
    "country": "PH",
    "lat": 9.455,
    "lng": 125.57306
  },
  {
    "name": "Kitapak",
    "country": "PH",
    "lat": 6.95333,
    "lng": 124.42556
  },
  {
    "name": "Kitaotao",
    "country": "PH",
    "lat": 7.63972,
    "lng": 125.00889
  },
  {
    "name": "Kitango",
    "country": "PH",
    "lat": 6.94833,
    "lng": 124.44111
  },
  {
    "name": "Kisolon",
    "country": "PH",
    "lat": 8.33,
    "lng": 124.97694
  },
  {
    "name": "Kisante",
    "country": "PH",
    "lat": 6.92306,
    "lng": 125.155
  },
  {
    "name": "Kipit",
    "country": "PH",
    "lat": 8.04611,
    "lng": 122.53222
  },
  {
    "name": "Kipalbig",
    "country": "PH",
    "lat": 6.41056,
    "lng": 124.9264
  },
  {
    "name": "Kinogitan",
    "country": "PH",
    "lat": 8.98556,
    "lng": 124.79278
  },
  {
    "name": "Kinangan",
    "country": "PH",
    "lat": 6.30139,
    "lng": 125.585
  },
  {
    "name": "Kinamayan",
    "country": "PH",
    "lat": 7.49944,
    "lng": 125.67361
  },
  {
    "name": "Kinalansan",
    "country": "PH",
    "lat": 13.7036,
    "lng": 123.5531
  },
  {
    "name": "Kinalaglagan",
    "country": "PH",
    "lat": 14.00149,
    "lng": 121.09772
  },
  {
    "name": "Kinablangan",
    "country": "PH",
    "lat": 7.6928,
    "lng": 126.54912
  },
  {
    "name": "Kinabhangan",
    "country": "PH",
    "lat": 8.96917,
    "lng": 125.3575
  },
  {
    "name": "Kimaya",
    "country": "PH",
    "lat": 8.56472,
    "lng": 124.83972
  },
  {
    "name": "Kimanuit",
    "country": "PH",
    "lat": 7.76039,
    "lng": 124.72497
  },
  {
    "name": "Kiloloran",
    "country": "PH",
    "lat": 14.63571,
    "lng": 121.60617
  },
  {
    "name": "Kilim",
    "country": "PH",
    "lat": 10.7118,
    "lng": 124.7968
  },
  {
    "name": "Kidapawan",
    "country": "PH",
    "lat": 7.00833,
    "lng": 125.08944
  },
  {
    "name": "Kibureau",
    "country": "PH",
    "lat": 7.6975,
    "lng": 125.2325
  },
  {
    "name": "Kibungan",
    "country": "PH",
    "lat": 16.695,
    "lng": 120.6553
  },
  {
    "name": "Kibonsod",
    "country": "PH",
    "lat": 9.00694,
    "lng": 125.20944
  },
  {
    "name": "Kiblawan",
    "country": "PH",
    "lat": 6.61417,
    "lng": 125.23667
  },
  {
    "name": "Kibawe",
    "country": "PH",
    "lat": 7.56861,
    "lng": 124.98778
  },
  {
    "name": "Kibangay",
    "country": "PH",
    "lat": 8.04972,
    "lng": 124.89306
  },
  {
    "name": "Kiangan",
    "country": "PH",
    "lat": 16.77607,
    "lng": 121.08584
  },
  {
    "name": "Kiamba",
    "country": "PH",
    "lat": 5.98944,
    "lng": 124.62417
  },
  {
    "name": "Kije",
    "country": "PL",
    "lat": 50.60721,
    "lng": 20.57121
  },
  {
    "name": "Kiełpin",
    "country": "PL",
    "lat": 52.35796,
    "lng": 20.86214
  },
  {
    "name": "Kielce",
    "country": "PL",
    "lat": 50.87033,
    "lng": 20.62752
  },
  {
    "name": "Kielanówka",
    "country": "PL",
    "lat": 50.02616,
    "lng": 21.92905
  },
  {
    "name": "Kiszkowo",
    "country": "PL",
    "lat": 52.58871,
    "lng": 17.2663
  },
  {
    "name": "Kisielice",
    "country": "PL",
    "lat": 53.60855,
    "lng": 19.2635
  },
  {
    "name": "Kikół",
    "country": "PL",
    "lat": 52.90994,
    "lng": 19.12016
  },
  {
    "name": "Kietrz",
    "country": "PL",
    "lat": 50.08042,
    "lng": 18.00432
  },
  {
    "name": "Kiernozia",
    "country": "PL",
    "lat": 52.26858,
    "lng": 19.87092
  },
  {
    "name": "Kiełczów",
    "country": "PL",
    "lat": 51.13999,
    "lng": 17.17798
  },
  {
    "name": "Kifil Ḩāris",
    "country": "PS",
    "lat": 32.11827,
    "lng": 35.15719
  },
  {
    "name": "Kikinda",
    "country": "RS",
    "lat": 45.82972,
    "lng": 20.46528
  },
  {
    "name": "Kisač",
    "country": "RS",
    "lat": 45.35421,
    "lng": 19.72975
  },
  {
    "name": "Kishcha",
    "country": "RU",
    "lat": 42.17677,
    "lng": 47.58117
  },
  {
    "name": "Kipen’",
    "country": "RU",
    "lat": 59.67407,
    "lng": 29.84977
  },
  {
    "name": "Kizner",
    "country": "RU",
    "lat": 56.27489,
    "lng": 51.508
  },
  {
    "name": "Kizlyar",
    "country": "RU",
    "lat": 43.84686,
    "lng": 46.70977
  },
  {
    "name": "Kizlyar",
    "country": "RU",
    "lat": 43.70379,
    "lng": 44.5944
  },
  {
    "name": "Kizilyurt",
    "country": "RU",
    "lat": 43.20279,
    "lng": 46.86594
  },
  {
    "name": "Kizil’skoye",
    "country": "RU",
    "lat": 52.72098,
    "lng": 58.89648
  },
  {
    "name": "Kizema",
    "country": "RU",
    "lat": 61.11304,
    "lng": 44.83017
  },
  {
    "name": "Kizel",
    "country": "RU",
    "lat": 59.04709,
    "lng": 57.64767
  },
  {
    "name": "Kiyevskoye",
    "country": "RU",
    "lat": 45.03829,
    "lng": 37.88829
  },
  {
    "name": "Kiyasovo",
    "country": "RU",
    "lat": 56.34907,
    "lng": 53.12439
  },
  {
    "name": "Kitovo",
    "country": "RU",
    "lat": 56.86586,
    "lng": 41.28246
  },
  {
    "name": "Kislyakovskaya",
    "country": "RU",
    "lat": 46.4417,
    "lng": 39.675
  },
  {
    "name": "Kislovodsk",
    "country": "RU",
    "lat": 43.91333,
    "lng": 42.72083
  },
  {
    "name": "Kishpek",
    "country": "RU",
    "lat": 43.655,
    "lng": 43.64083
  },
  {
    "name": "Kirzhach",
    "country": "RU",
    "lat": 56.15273,
    "lng": 38.85509
  },
  {
    "name": "Kirya",
    "country": "RU",
    "lat": 55.08102,
    "lng": 46.86091
  },
  {
    "name": "Kirsanov",
    "country": "RU",
    "lat": 52.6509,
    "lng": 42.73481
  },
  {
    "name": "Kirs",
    "country": "RU",
    "lat": 59.33829,
    "lng": 52.24402
  },
  {
    "name": "Kirovskiy",
    "country": "RU",
    "lat": 51.41667,
    "lng": 36.66667
  },
  {
    "name": "Kirovskiy",
    "country": "RU",
    "lat": 45.84639,
    "lng": 48.12472
  },
  {
    "name": "Kirovskaya",
    "country": "RU",
    "lat": 46.9748,
    "lng": 40.0402
  },
  {
    "name": "Kirovsk",
    "country": "RU",
    "lat": 67.61475,
    "lng": 33.67274
  },
  {
    "name": "Kirovsk",
    "country": "RU",
    "lat": 59.88002,
    "lng": 30.99549
  },
  {
    "name": "Kirovo-Chepetsk",
    "country": "RU",
    "lat": 58.55091,
    "lng": 50.031
  },
  {
    "name": "Kirov",
    "country": "RU",
    "lat": 58.59809,
    "lng": 49.65783
  },
  {
    "name": "Kirov",
    "country": "RU",
    "lat": 54.06889,
    "lng": 34.29891
  },
  {
    "name": "Kiritsy",
    "country": "RU",
    "lat": 54.2862,
    "lng": 40.3572
  },
  {
    "name": "Kirishi",
    "country": "RU",
    "lat": 59.47417,
    "lng": 32.04007
  },
  {
    "name": "Kirillov",
    "country": "RU",
    "lat": 59.86299,
    "lng": 38.38128
  },
  {
    "name": "Kirgiz-Miyaki",
    "country": "RU",
    "lat": 53.63123,
    "lng": 54.80422
  },
  {
    "name": "Kireyevsk",
    "country": "RU",
    "lat": 53.9297,
    "lng": 37.92148
  },
  {
    "name": "Kingisepp",
    "country": "RU",
    "lat": 59.37627,
    "lng": 28.61409
  },
  {
    "name": "Kineshma",
    "country": "RU",
    "lat": 57.43665,
    "lng": 42.12766
  },
  {
    "name": "Kinel’-Cherkassy",
    "country": "RU",
    "lat": 53.4669,
    "lng": 51.4941
  },
  {
    "name": "Kinel’",
    "country": "RU",
    "lat": 53.22658,
    "lng": 50.62614
  },
  {
    "name": "Kimry",
    "country": "RU",
    "lat": 56.87456,
    "lng": 37.35957
  },
  {
    "name": "Kimovsk",
    "country": "RU",
    "lat": 53.97312,
    "lng": 38.53502
  },
  {
    "name": "Kil’mez’",
    "country": "RU",
    "lat": 56.94459,
    "lng": 51.06363
  },
  {
    "name": "Kilemary",
    "country": "RU",
    "lat": 56.77848,
    "lng": 46.86499
  },
  {
    "name": "Kiknur",
    "country": "RU",
    "lat": 57.30405,
    "lng": 47.20037
  },
  {
    "name": "Kikerino",
    "country": "RU",
    "lat": 59.46466,
    "lng": 29.62729
  },
  {
    "name": "Kideksha",
    "country": "RU",
    "lat": 56.42381,
    "lng": 40.52146
  },
  {
    "name": "Kichmengskiy Gorodok",
    "country": "RU",
    "lat": 59.98164,
    "lng": 45.78543
  },
  {
    "name": "Kiselëvsk",
    "country": "RU",
    "lat": 53.99,
    "lng": 86.6621
  },
  {
    "name": "Kirovgrad",
    "country": "RU",
    "lat": 57.43134,
    "lng": 60.06172
  },
  {
    "name": "Kizhinga",
    "country": "RU",
    "lat": 51.84861,
    "lng": 109.90647
  },
  {
    "name": "Kitoy",
    "country": "RU",
    "lat": 52.6,
    "lng": 103.9
  },
  {
    "name": "Kirovskiy",
    "country": "RU",
    "lat": 45.09221,
    "lng": 133.50145
  },
  {
    "name": "Kirensk",
    "country": "RU",
    "lat": 57.7756,
    "lng": 108.11535
  },
  {
    "name": "Kimil’tey",
    "country": "RU",
    "lat": 54.1337,
    "lng": 101.9811
  },
  {
    "name": "Kichera",
    "country": "RU",
    "lat": 55.93874,
    "lng": 110.10122
  },
  {
    "name": "Kievskiy",
    "country": "RU",
    "lat": 55.42999,
    "lng": 36.8666
  },
  {
    "name": "Kisilevsk",
    "country": "RU",
    "lat": 53.99623,
    "lng": 86.64847
  },
  {
    "name": "Kinigi",
    "country": "RW",
    "lat": -1.4426,
    "lng": 29.5902
  },
  {
    "name": "Kirimbi",
    "country": "RW",
    "lat": -2.26469,
    "lng": 29.19644
  },
  {
    "name": "Kigali",
    "country": "RW",
    "lat": -1.94995,
    "lng": 30.05885
  },
  {
    "name": "Kibuye",
    "country": "RW",
    "lat": -2.06028,
    "lng": 29.34778
  },
  {
    "name": "Kibungo",
    "country": "RW",
    "lat": -2.1597,
    "lng": 30.5427
  },
  {
    "name": "Kirambo",
    "country": "RW",
    "lat": -2.3155,
    "lng": 29.1415
  },
  {
    "name": "Kirakira",
    "country": "SB",
    "lat": -10.45442,
    "lng": 161.92045
  },
  {
    "name": "Kināna",
    "country": "SD",
    "lat": 14.0361,
    "lng": 33.1712
  },
  {
    "name": "Kiruna",
    "country": "SE",
    "lat": 67.85572,
    "lng": 20.22513
  },
  {
    "name": "Kista",
    "country": "SE",
    "lat": 59.40316,
    "lng": 17.94479
  },
  {
    "name": "Kisa",
    "country": "SE",
    "lat": 57.98781,
    "lng": 15.63303
  },
  {
    "name": "Kinna",
    "country": "SE",
    "lat": 57.50728,
    "lng": 12.69463
  },
  {
    "name": "Kimstad",
    "country": "SE",
    "lat": 58.54967,
    "lng": 15.96296
  },
  {
    "name": "Kilafors",
    "country": "SE",
    "lat": 61.23333,
    "lng": 16.56667
  },
  {
    "name": "Kil",
    "country": "SE",
    "lat": 59.50234,
    "lng": 13.31277
  },
  {
    "name": "Kidričevo",
    "country": "SI",
    "lat": 46.40315,
    "lng": 15.79869
  },
  {
    "name": "Kisovec",
    "country": "SI",
    "lat": 46.13911,
    "lng": 14.96295
  },
  {
    "name": "Kidira",
    "country": "SN",
    "lat": 14.45668,
    "lng": -12.21659
  },
  {
    "name": "Kismayo",
    "country": "SO",
    "lat": -0.35817,
    "lng": 42.54536
  },
  {
    "name": "Kinnsibbā",
    "country": "SY",
    "lat": 35.7441,
    "lng": 36.164
  },
  {
    "name": "Kirdimi",
    "country": "TD",
    "lat": 18.15223,
    "lng": 18.5385
  },
  {
    "name": "Kirov",
    "country": "TJ",
    "lat": 37.81908,
    "lng": 68.85905
  },
  {
    "name": "Kim",
    "country": "TJ",
    "lat": 40.20798,
    "lng": 70.46882
  },
  {
    "name": "Kindirip",
    "country": "TR",
    "lat": 37.44706,
    "lng": 41.21976
  },
  {
    "name": "Kirişçiler",
    "country": "TR",
    "lat": 37.04361,
    "lng": 30.70028
  },
  {
    "name": "Kireçocağı",
    "country": "TR",
    "lat": 37.05,
    "lng": 35.23333
  },
  {
    "name": "Kireç",
    "country": "TR",
    "lat": 39.55517,
    "lng": 28.36506
  },
  {
    "name": "Kiraz",
    "country": "TR",
    "lat": 38.23056,
    "lng": 28.20444
  },
  {
    "name": "Kilis",
    "country": "TR",
    "lat": 36.71611,
    "lng": 37.115
  },
  {
    "name": "Kiğı",
    "country": "TR",
    "lat": 39.31361,
    "lng": 40.35028
  },
  {
    "name": "Kirazlıyayla",
    "country": "TR",
    "lat": 36.97833,
    "lng": 29.20278
  },
  {
    "name": "Kirazlı",
    "country": "TR",
    "lat": 40.09964,
    "lng": 29.04163
  },
  {
    "name": "Kirazlı",
    "country": "TR",
    "lat": 40.04176,
    "lng": 26.7009
  },
  {
    "name": "Kilimli",
    "country": "TR",
    "lat": 41.49111,
    "lng": 31.83861
  },
  {
    "name": "Kiriş",
    "country": "TR",
    "lat": 36.5757,
    "lng": 30.58115
  },
  {
    "name": "Kihangara",
    "country": "TZ",
    "lat": -2.58333,
    "lng": 33.35
  },
  {
    "name": "Kiwira",
    "country": "TZ",
    "lat": -9.17307,
    "lng": 33.54152
  },
  {
    "name": "Kiwengwa",
    "country": "TZ",
    "lat": -5.98957,
    "lng": 39.3768
  },
  {
    "name": "Kisiwani",
    "country": "TZ",
    "lat": -4.13333,
    "lng": 37.95
  },
  {
    "name": "Kishapu",
    "country": "TZ",
    "lat": -3.61667,
    "lng": 33.86667
  },
  {
    "name": "Kisesa",
    "country": "TZ",
    "lat": -2.55,
    "lng": 33.03333
  },
  {
    "name": "Kisesa",
    "country": "TZ",
    "lat": -3.08333,
    "lng": 34.15
  },
  {
    "name": "Kisarawe",
    "country": "TZ",
    "lat": -6.9,
    "lng": 39.06667
  },
  {
    "name": "Kisanga",
    "country": "TZ",
    "lat": -7.43622,
    "lng": 37.70337
  },
  {
    "name": "Kirya",
    "country": "TZ",
    "lat": -3.91667,
    "lng": 37.48333
  },
  {
    "name": "Kirando",
    "country": "TZ",
    "lat": -7.41667,
    "lng": 30.6
  },
  {
    "name": "Kiomboi",
    "country": "TZ",
    "lat": -4.26667,
    "lng": 34.36667
  },
  {
    "name": "Kintinku",
    "country": "TZ",
    "lat": -5.88333,
    "lng": 35.23333
  },
  {
    "name": "Kingori",
    "country": "TZ",
    "lat": -3.28333,
    "lng": 36.98333
  },
  {
    "name": "Kimamba",
    "country": "TZ",
    "lat": -6.78333,
    "lng": 37.13333
  },
  {
    "name": "Kilwa Masoko",
    "country": "TZ",
    "lat": -8.9251,
    "lng": 39.5131
  },
  {
    "name": "Kilosa",
    "country": "TZ",
    "lat": -6.83333,
    "lng": 36.98333
  },
  {
    "name": "Kilindoni",
    "country": "TZ",
    "lat": -7.91446,
    "lng": 39.66204
  },
  {
    "name": "Kilimatinde",
    "country": "TZ",
    "lat": -5.85,
    "lng": 34.95
  },
  {
    "name": "Kijini",
    "country": "TZ",
    "lat": -5.85,
    "lng": 39.31667
  },
  {
    "name": "Kihurio",
    "country": "TZ",
    "lat": -4.46667,
    "lng": 38.06667
  },
  {
    "name": "Kigoma",
    "country": "TZ",
    "lat": -4.87694,
    "lng": 29.62667
  },
  {
    "name": "Kidodi",
    "country": "TZ",
    "lat": -7.60361,
    "lng": 37.00438
  },
  {
    "name": "Kidatu",
    "country": "TZ",
    "lat": -7.69916,
    "lng": 36.95722
  },
  {
    "name": "Kibondo",
    "country": "TZ",
    "lat": -3.58639,
    "lng": 30.72028
  },
  {
    "name": "Kibiti",
    "country": "TZ",
    "lat": -7.72178,
    "lng": 38.93749
  },
  {
    "name": "Kibaya",
    "country": "TZ",
    "lat": -5.3,
    "lng": 36.56667
  },
  {
    "name": "Kibara",
    "country": "TZ",
    "lat": -2.15,
    "lng": 33.45
  },
  {
    "name": "Kibakwe",
    "country": "TZ",
    "lat": -6.71667,
    "lng": 36.36667
  },
  {
    "name": "Kibaha",
    "country": "TZ",
    "lat": -6.76667,
    "lng": 38.91667
  },
  {
    "name": "Kiratu",
    "country": "TZ",
    "lat": -3.33333,
    "lng": 35.66667
  },
  {
    "name": "Kitangari",
    "country": "TZ",
    "lat": -10.65,
    "lng": 39.33333
  },
  {
    "name": "Kitama",
    "country": "TZ",
    "lat": -10.71667,
    "lng": 39.73333
  },
  {
    "name": "Kigonsera",
    "country": "TZ",
    "lat": -10.8,
    "lng": 35.05
  },
  {
    "name": "Kisasa",
    "country": "TZ",
    "lat": -6.17526,
    "lng": 35.79266
  },
  {
    "name": "Kibaigwa",
    "country": "TZ",
    "lat": -6.08125,
    "lng": 36.64657
  },
  {
    "name": "Kivsharivka",
    "country": "UA",
    "lat": 49.63026,
    "lng": 37.6775
  },
  {
    "name": "Kinetspil",
    "country": "UA",
    "lat": 48.00426,
    "lng": 30.78659
  },
  {
    "name": "Kivertsi",
    "country": "UA",
    "lat": 50.83425,
    "lng": 25.45821
  },
  {
    "name": "Kitsman",
    "country": "UA",
    "lat": 48.43867,
    "lng": 25.76111
  },
  {
    "name": "Kirovskoye",
    "country": "UA",
    "lat": 45.54503,
    "lng": 33.07769
  },
  {
    "name": "Kirovskoye",
    "country": "UA",
    "lat": 45.22967,
    "lng": 35.19987
  },
  {
    "name": "Kirovo",
    "country": "UA",
    "lat": 45.22106,
    "lng": 35.84227
  },
  {
    "name": "Kiliya",
    "country": "UA",
    "lat": 45.44445,
    "lng": 29.26396
  },
  {
    "name": "Kirove",
    "country": "UA",
    "lat": 50.3689,
    "lng": 31.12066
  },
  {
    "name": "Kiziba",
    "country": "UG",
    "lat": 0.51389,
    "lng": 32.35056
  },
  {
    "name": "Kitgum",
    "country": "UG",
    "lat": 3.27833,
    "lng": 32.88667
  },
  {
    "name": "Kisoro",
    "country": "UG",
    "lat": -1.28538,
    "lng": 29.68497
  },
  {
    "name": "Kiryandongo",
    "country": "UG",
    "lat": 1.87633,
    "lng": 32.06225
  },
  {
    "name": "Kiruhura",
    "country": "UG",
    "lat": -0.19664,
    "lng": 30.84446
  },
  {
    "name": "Kireka",
    "country": "UG",
    "lat": 0.3475,
    "lng": 32.64917
  },
  {
    "name": "Kira",
    "country": "UG",
    "lat": 0.4,
    "lng": 32.63333
  },
  {
    "name": "Kinoni",
    "country": "UG",
    "lat": -0.70111,
    "lng": 30.49389
  },
  {
    "name": "Kilembe",
    "country": "UG",
    "lat": 0.19835,
    "lng": 30.01302
  },
  {
    "name": "Kikube",
    "country": "UG",
    "lat": 1.35639,
    "lng": 31.22222
  },
  {
    "name": "Kihihi",
    "country": "UG",
    "lat": -0.75,
    "lng": 29.7
  },
  {
    "name": "Kigumba",
    "country": "UG",
    "lat": 1.80838,
    "lng": 32.00502
  },
  {
    "name": "Kigorobya",
    "country": "UG",
    "lat": 1.6162,
    "lng": 31.3089
  },
  {
    "name": "Kibuku",
    "country": "UG",
    "lat": 1.04333,
    "lng": 33.7975
  },
  {
    "name": "Kiboga",
    "country": "UG",
    "lat": 0.91611,
    "lng": 31.77417
  },
  {
    "name": "Kibingo",
    "country": "UG",
    "lat": -0.62602,
    "lng": 30.43594
  },
  {
    "name": "Kibiito",
    "country": "UG",
    "lat": 0.47722,
    "lng": 30.1925
  },
  {
    "name": "Kibale",
    "country": "UG",
    "lat": 0.8,
    "lng": 31.06667
  },
  {
    "name": "Kitamilo",
    "country": "UG",
    "lat": 0.22215,
    "lng": 33.20608
  },
  {
    "name": "Kisinga",
    "country": "UG",
    "lat": 0.07684,
    "lng": 29.86832
  },
  {
    "name": "Kiryandongo Refugee Camp",
    "country": "UG",
    "lat": 1.9399,
    "lng": 32.16605
  },
  {
    "name": "Kimberly",
    "country": "US",
    "lat": 33.77344,
    "lng": -86.81388
  },
  {
    "name": "Kinsey",
    "country": "US",
    "lat": 31.29906,
    "lng": -85.34438
  },
  {
    "name": "Kings Point",
    "country": "US",
    "lat": 26.44535,
    "lng": -80.13977
  },
  {
    "name": "Kissimmee",
    "country": "US",
    "lat": 28.30468,
    "lng": -81.41667
  },
  {
    "name": "Kingsland",
    "country": "US",
    "lat": 30.79996,
    "lng": -81.68983
  },
  {
    "name": "Kincaid",
    "country": "US",
    "lat": 39.58866,
    "lng": -89.41454
  },
  {
    "name": "Kingman",
    "country": "US",
    "lat": 37.64585,
    "lng": -98.11367
  },
  {
    "name": "Kinsley",
    "country": "US",
    "lat": 37.92307,
    "lng": -99.40984
  },
  {
    "name": "Kiowa",
    "country": "US",
    "lat": 37.01725,
    "lng": -98.48535
  },
  {
    "name": "Killian",
    "country": "US",
    "lat": 30.35881,
    "lng": -90.5862
  },
  {
    "name": "Kinder",
    "country": "US",
    "lat": 30.48548,
    "lng": -92.8507
  },
  {
    "name": "Kingstown",
    "country": "US",
    "lat": 39.20483,
    "lng": -76.05133
  },
  {
    "name": "Kingsville",
    "country": "US",
    "lat": 39.44872,
    "lng": -76.41774
  },
  {
    "name": "Kimberling City",
    "country": "US",
    "lat": 36.6334,
    "lng": -93.41685
  },
  {
    "name": "Kingston",
    "country": "US",
    "lat": 39.64417,
    "lng": -94.03855
  },
  {
    "name": "Kirkwood",
    "country": "US",
    "lat": 38.58339,
    "lng": -90.40678
  },
  {
    "name": "Kissee Mills",
    "country": "US",
    "lat": 36.68367,
    "lng": -93.0499
  },
  {
    "name": "Kiln",
    "country": "US",
    "lat": 30.40908,
    "lng": -89.43505
  },
  {
    "name": "Kill Devil Hills",
    "country": "US",
    "lat": 36.03072,
    "lng": -75.67601
  },
  {
    "name": "King",
    "country": "US",
    "lat": 36.28069,
    "lng": -80.35922
  },
  {
    "name": "Kings Grant",
    "country": "US",
    "lat": 34.26295,
    "lng": -77.8636
  },
  {
    "name": "Kings Mountain",
    "country": "US",
    "lat": 35.24513,
    "lng": -81.34119
  },
  {
    "name": "Kinston",
    "country": "US",
    "lat": 35.26266,
    "lng": -77.58164
  },
  {
    "name": "Kitty Hawk",
    "country": "US",
    "lat": 36.06461,
    "lng": -75.70573
  },
  {
    "name": "Kingston Estates",
    "country": "US",
    "lat": 39.92372,
    "lng": -74.98795
  },
  {
    "name": "Kings Mills",
    "country": "US",
    "lat": 39.35561,
    "lng": -84.24855
  },
  {
    "name": "Kingston",
    "country": "US",
    "lat": 39.47395,
    "lng": -82.91073
  },
  {
    "name": "Kiefer",
    "country": "US",
    "lat": 35.94482,
    "lng": -96.06528
  },
  {
    "name": "Kingfisher",
    "country": "US",
    "lat": 35.86143,
    "lng": -97.93172
  },
  {
    "name": "Kingston",
    "country": "US",
    "lat": 33.99871,
    "lng": -96.71972
  },
  {
    "name": "Kingsessing",
    "country": "US",
    "lat": 39.93678,
    "lng": -75.22963
  },
  {
    "name": "Kiawah Island",
    "country": "US",
    "lat": 32.60824,
    "lng": -80.08482
  },
  {
    "name": "Kingstree",
    "country": "US",
    "lat": 33.66766,
    "lng": -79.83063
  },
  {
    "name": "Kimball",
    "country": "US",
    "lat": 35.04786,
    "lng": -85.67191
  },
  {
    "name": "Kingsport",
    "country": "US",
    "lat": 36.54843,
    "lng": -82.56182
  },
  {
    "name": "Kingston",
    "country": "US",
    "lat": 35.88091,
    "lng": -84.50854
  },
  {
    "name": "Kingston Springs",
    "country": "US",
    "lat": 36.102,
    "lng": -87.11501
  },
  {
    "name": "Kilgore",
    "country": "US",
    "lat": 32.38626,
    "lng": -94.87577
  },
  {
    "name": "Killeen",
    "country": "US",
    "lat": 31.11712,
    "lng": -97.7278
  },
  {
    "name": "Kingsland",
    "country": "US",
    "lat": 30.65824,
    "lng": -98.44058
  },
  {
    "name": "Kingsville",
    "country": "US",
    "lat": 27.51587,
    "lng": -97.85611
  },
  {
    "name": "Kirby",
    "country": "US",
    "lat": 29.46329,
    "lng": -98.38557
  },
  {
    "name": "Kirbyville",
    "country": "US",
    "lat": 30.66048,
    "lng": -93.89268
  },
  {
    "name": "Kilmarnock",
    "country": "US",
    "lat": 37.71041,
    "lng": -76.37967
  },
  {
    "name": "King George",
    "country": "US",
    "lat": 38.26818,
    "lng": -77.18442
  },
  {
    "name": "King William",
    "country": "US",
    "lat": 37.68736,
    "lng": -77.01358
  },
  {
    "name": "King and Queen Court House",
    "country": "US",
    "lat": 37.66986,
    "lng": -76.87746
  },
  {
    "name": "Kings Park",
    "country": "US",
    "lat": 38.80622,
    "lng": -77.24332
  },
  {
    "name": "Kingwood",
    "country": "US",
    "lat": 39.47176,
    "lng": -79.68339
  },
  {
    "name": "Killingly Center",
    "country": "US",
    "lat": 41.83871,
    "lng": -71.86924
  },
  {
    "name": "Killingworth",
    "country": "US",
    "lat": 41.35815,
    "lng": -72.5637
  },
  {
    "name": "Kingsley",
    "country": "US",
    "lat": 42.58832,
    "lng": -95.96752
  },
  {
    "name": "Kildeer",
    "country": "US",
    "lat": 42.17058,
    "lng": -88.04785
  },
  {
    "name": "Kingston",
    "country": "US",
    "lat": 42.09975,
    "lng": -88.75898
  },
  {
    "name": "Kirkland",
    "country": "US",
    "lat": 42.09253,
    "lng": -88.85121
  },
  {
    "name": "Kingsford Heights",
    "country": "US",
    "lat": 41.4806,
    "lng": -86.69169
  },
  {
    "name": "Kingston",
    "country": "US",
    "lat": 41.99455,
    "lng": -70.72448
  },
  {
    "name": "Kingfield",
    "country": "US",
    "lat": 44.95922,
    "lng": -70.15395
  },
  {
    "name": "Kittery Point",
    "country": "US",
    "lat": 43.08299,
    "lng": -70.71009
  },
  {
    "name": "Kittery",
    "country": "US",
    "lat": 43.08814,
    "lng": -70.73616
  },
  {
    "name": "Kilmanagh",
    "country": "US",
    "lat": 43.75613,
    "lng": -83.3569
  },
  {
    "name": "Kingsford",
    "country": "US",
    "lat": 45.79496,
    "lng": -88.07207
  },
  {
    "name": "Kingsley",
    "country": "US",
    "lat": 44.58473,
    "lng": -85.5359
  },
  {
    "name": "King City",
    "country": "US",
    "lat": 40.05138,
    "lng": -94.52412
  },
  {
    "name": "Kirksville",
    "country": "US",
    "lat": 40.19475,
    "lng": -92.58325
  },
  {
    "name": "Kingston",
    "country": "US",
    "lat": 42.93648,
    "lng": -71.05339
  },
  {
    "name": "Kingston",
    "country": "US",
    "lat": 40.37538,
    "lng": -74.61349
  },
  {
    "name": "Kinnelon",
    "country": "US",
    "lat": 41.00176,
    "lng": -74.3671
  },
  {
    "name": "Kiantone",
    "country": "US",
    "lat": 42.022,
    "lng": -79.1981
  },
  {
    "name": "Kinderhook",
    "country": "US",
    "lat": 42.39536,
    "lng": -73.6979
  },
  {
    "name": "Kings Bridge",
    "country": "US",
    "lat": 40.87871,
    "lng": -73.90514
  },
  {
    "name": "Kings Park",
    "country": "US",
    "lat": 40.88621,
    "lng": -73.25734
  },
  {
    "name": "Kings Point",
    "country": "US",
    "lat": 40.81982,
    "lng": -73.73513
  },
  {
    "name": "Kingston",
    "country": "US",
    "lat": 41.92704,
    "lng": -73.99736
  },
  {
    "name": "Kirkville",
    "country": "US",
    "lat": 43.07507,
    "lng": -75.95186
  },
  {
    "name": "Kiryas Joel",
    "country": "US",
    "lat": 41.34204,
    "lng": -74.16792
  },
  {
    "name": "Kirtland",
    "country": "US",
    "lat": 41.62894,
    "lng": -81.3615
  },
  {
    "name": "King of Prussia",
    "country": "US",
    "lat": 40.08927,
    "lng": -75.39602
  },
  {
    "name": "Kingston",
    "country": "US",
    "lat": 41.26175,
    "lng": -75.89686
  },
  {
    "name": "Kittanning",
    "country": "US",
    "lat": 40.81645,
    "lng": -79.52199
  },
  {
    "name": "Kingston",
    "country": "US",
    "lat": 41.48038,
    "lng": -71.52256
  },
  {
    "name": "Kiel",
    "country": "US",
    "lat": 43.91249,
    "lng": -88.03565
  },
  {
    "name": "Kimberly",
    "country": "US",
    "lat": 44.27221,
    "lng": -88.339
  },
  {
    "name": "King",
    "country": "US",
    "lat": 44.33748,
    "lng": -89.14178
  },
  {
    "name": "Kingman",
    "country": "US",
    "lat": 35.18944,
    "lng": -114.05301
  },
  {
    "name": "King City",
    "country": "US",
    "lat": 36.21274,
    "lng": -121.12603
  },
  {
    "name": "Kings Beach",
    "country": "US",
    "lat": 39.23768,
    "lng": -120.02658
  },
  {
    "name": "Kingsburg",
    "country": "US",
    "lat": 36.51384,
    "lng": -119.55402
  },
  {
    "name": "Kiowa",
    "country": "US",
    "lat": 39.34721,
    "lng": -104.46441
  },
  {
    "name": "Kittredge",
    "country": "US",
    "lat": 39.65471,
    "lng": -105.29971
  },
  {
    "name": "Kirtland",
    "country": "US",
    "lat": 36.73417,
    "lng": -108.3598
  },
  {
    "name": "Kingsbury",
    "country": "US",
    "lat": 38.97713,
    "lng": -119.90685
  },
  {
    "name": "Kimberly",
    "country": "US",
    "lat": 42.5338,
    "lng": -114.36476
  },
  {
    "name": "Killdeer",
    "country": "US",
    "lat": 47.37196,
    "lng": -102.75408
  },
  {
    "name": "Kimball",
    "country": "US",
    "lat": 41.23581,
    "lng": -103.663
  },
  {
    "name": "King City",
    "country": "US",
    "lat": 45.391,
    "lng": -122.81578
  },
  {
    "name": "Kingston",
    "country": "US",
    "lat": 47.7985,
    "lng": -122.49806
  },
  {
    "name": "Kingsgate",
    "country": "US",
    "lat": 47.72704,
    "lng": -122.17957
  },
  {
    "name": "Kirkland",
    "country": "US",
    "lat": 47.68149,
    "lng": -122.20874
  },
  {
    "name": "Kittitas",
    "country": "US",
    "lat": 46.98318,
    "lng": -120.41701
  },
  {
    "name": "King Cove",
    "country": "US",
    "lat": 55.06087,
    "lng": -162.31853
  },
  {
    "name": "Kings Bay Base",
    "country": "US",
    "lat": 30.79836,
    "lng": -81.56589
  },
  {
    "name": "Kings Park West",
    "country": "US",
    "lat": 38.81443,
    "lng": -77.29582
  },
  {
    "name": "Kihei Mauka",
    "country": "US",
    "lat": 20.74305,
    "lng": -156.43995
  },
  {
    "name": "Kitob",
    "country": "UZ",
    "lat": 39.12158,
    "lng": 66.88605
  },
  {
    "name": "Kitob Shahri",
    "country": "UZ",
    "lat": 39.12251,
    "lng": 66.8757
  },
  {
    "name": "Kirguli",
    "country": "UZ",
    "lat": 40.43553,
    "lng": 71.76721
  },
  {
    "name": "Kingstown",
    "country": "VC",
    "lat": 13.15527,
    "lng": -61.22742
  },
  {
    "name": "Kim Tân",
    "country": "VN",
    "lat": 20.13053,
    "lng": 105.67454
  },
  {
    "name": "Kim Sơn",
    "country": "VN",
    "lat": 19.60409,
    "lng": 104.91903
  },
  {
    "name": "Kiến Giang",
    "country": "VN",
    "lat": 17.22328,
    "lng": 106.79011
  },
  {
    "name": "Kinh Môn",
    "country": "VN",
    "lat": 20.98962,
    "lng": 106.5551
  },
  {
    "name": "Kim Bài",
    "country": "VN",
    "lat": 20.85265,
    "lng": 105.76963
  },
  {
    "name": "Kiên Lương",
    "country": "VN",
    "lat": 10.28624,
    "lng": 104.64616
  },
  {
    "name": "Kim Song Trường",
    "country": "VN",
    "lat": 18.46343,
    "lng": 105.68731
  },
  {
    "name": "Kitāf",
    "country": "YE",
    "lat": 17.03165,
    "lng": 44.10905
  },
  {
    "name": "Kilmia",
    "country": "YE",
    "lat": 12.18576,
    "lng": 52.23332
  },
  {
    "name": "Kirsh",
    "country": "YE",
    "lat": 13.36473,
    "lng": 44.49046
  },
  {
    "name": "Kirkwood",
    "country": "ZA",
    "lat": -33.39829,
    "lng": 25.44279
  },
  {
    "name": "Kinross",
    "country": "ZA",
    "lat": -26.41663,
    "lng": 29.08668
  },
  {
    "name": "Kimberley",
    "country": "ZA",
    "lat": -28.73226,
    "lng": 24.76232
  },
  {
    "name": "Kitwe",
    "country": "ZM",
    "lat": -12.80243,
    "lng": 28.21323
  }
]