[
  {
    "name": "Kpozoun",
    "country": "BJ",
    "lat": 7.22868,
    "lng": 2.21317
  },
  {
    "name": "Kpomassè",
    "country": "BJ",
    "lat": 6.46216,
    "lng": 1.99362
  },
  {
    "name": "Kpékekro",
    "country": "CI",
    "lat": 7.74204,
    "lng": -4.7842
  },
  {
    "name": "Kpakpanou",
    "country": "CI",
    "lat": 7.78211,
    "lng": -4.45951
  },
  {
    "name": "Kprako",
    "country": "CI",
    "lat": 6.79475,
    "lng": -4.64833
  },
  {
    "name": "Kpoussoussou",
    "country": "CI",
    "lat": 6.75116,
    "lng": -5.23651
  },
  {
    "name": "Kpouébo",
    "country": "CI",
    "lat": 6.33441,
    "lng": -4.85618
  },
  {
    "name": "Kpoleu",
    "country": "CI",
    "lat": 7.5241,
    "lng": -8.32641
  },
  {
    "name": "Kplessou",
    "country": "CI",
    "lat": 6.55414,
    "lng": -5.2047
  },
  {
    "name": "Kpeungarikaha",
    "country": "CI",
    "lat": 9.3754,
    "lng": -5.49836
  },
  {
    "name": "Kpéso",
    "country": "CI",
    "lat": 8.40927,
    "lng": -5.88811
  },
  {
    "name": "Kpolessou",
    "country": "CI",
    "lat": 7.3103,
    "lng": -4.95002
  },
  {
    "name": "Kpéfélé",
    "country": "CI",
    "lat": 8.14317,
    "lng": -5.03599
  },
  {
    "name": "Kpata",
    "country": "CI",
    "lat": 7.71913,
    "lng": -7.54581
  },
  {
    "name": "Kpanzaopleu",
    "country": "CI",
    "lat": 7.41483,
    "lng": -7.85374
  },
  {
    "name": "Kpantouopleu",
    "country": "CI",
    "lat": 6.88626,
    "lng": -8.31391
  },
  {
    "name": "Kpan Houyé",
    "country": "CI",
    "lat": 7.45366,
    "lng": -8.34868
  },
  {
    "name": "Kpangouiné",
    "country": "CI",
    "lat": 7.18623,
    "lng": -7.87846
  },
  {
    "name": "Kpangouen",
    "country": "CI",
    "lat": 7.42898,
    "lng": -7.5193
  },
  {
    "name": "Kpogouin",
    "country": "CI",
    "lat": 7.59861,
    "lng": -7.94106
  },
  {
    "name": "Kpapekou",
    "country": "CI",
    "lat": 6.25143,
    "lng": -5.95054
  },
  {
    "name": "Kpobli",
    "country": "CI",
    "lat": 6.54735,
    "lng": -8.28109
  },
  {
    "name": "Kpogrobouo",
    "country": "CI",
    "lat": 6.25331,
    "lng": -6.12535
  },
  {
    "name": "Kpangban",
    "country": "CI",
    "lat": 5.58177,
    "lng": -6.75359
  },
  {
    "name": "Kpada",
    "country": "CI",
    "lat": 5.77996,
    "lng": -6.48509
  },
  {
    "name": "Kpotè",
    "country": "CI",
    "lat": 4.87116,
    "lng": -6.53403
  },
  {
    "name": "Kpatasso",
    "country": "CI",
    "lat": 5.70234,
    "lng": -5.05932
  },
  {
    "name": "Kparognoua",
    "country": "CI",
    "lat": 5.6744,
    "lng": -5.98274
  },
  {
    "name": "Kpadagnoa",
    "country": "CI",
    "lat": 5.57574,
    "lng": -5.90638
  },
  {
    "name": "Kprogouélé",
    "country": "CI",
    "lat": 7.53194,
    "lng": -7.33848
  },
  {
    "name": "Kpanpleu-Sin-Houyé",
    "country": "CI",
    "lat": 7.32853,
    "lng": -8.31208
  },
  {
    "name": "Kpafonon",
    "country": "CI",
    "lat": 9.68941,
    "lng": -6.49939
  },
  {
    "name": "Kpana-Ouélasso",
    "country": "CI",
    "lat": 8.20313,
    "lng": -4.33654
  },
  {
    "name": "Kpandu",
    "country": "GH",
    "lat": 6.99536,
    "lng": 0.29306
  },
  {
    "name": "Kpandae",
    "country": "GH",
    "lat": 8.46885,
    "lng": -0.01127
  },
  {
    "name": "Kpor",
    "country": "NG",
    "lat": 4.65265,
    "lng": 7.28397
  },
  {
    "name": "Kpalimé",
    "country": "TG",
    "lat": 6.9,
    "lng": 0.63333
  }
]