[
  {
    "name": "Liberta",
    "country": "AG",
    "lat": 17.04141,
    "lng": -61.79052
  },
  {
    "name": "Livadhja",
    "country": "AL",
    "lat": 39.78917,
    "lng": 20.12194
  },
  {
    "name": "Lis",
    "country": "AL",
    "lat": 41.6275,
    "lng": 20.08528
  },
  {
    "name": "Liqenas",
    "country": "AL",
    "lat": 40.78667,
    "lng": 20.90222
  },
  {
    "name": "Librazhd",
    "country": "AL",
    "lat": 41.17944,
    "lng": 20.315
  },
  {
    "name": "Libonik",
    "country": "AL",
    "lat": 40.70444,
    "lng": 20.70861
  },
  {
    "name": "Libohovë",
    "country": "AL",
    "lat": 40.03111,
    "lng": 20.26306
  },
  {
    "name": "Librazhd-Qendër",
    "country": "AL",
    "lat": 41.19694,
    "lng": 20.33556
  },
  {
    "name": "Libofshë",
    "country": "AL",
    "lat": 40.83444,
    "lng": 19.55222
  },
  {
    "name": "Lichk",
    "country": "AM",
    "lat": 40.15933,
    "lng": 45.23467
  },
  {
    "name": "Lincoln",
    "country": "AR",
    "lat": -34.86819,
    "lng": -61.52929
  },
  {
    "name": "Limay Mahuida",
    "country": "AR",
    "lat": -37.15966,
    "lng": -66.67436
  },
  {
    "name": "Libertador General San Martín",
    "country": "AR",
    "lat": -23.81305,
    "lng": -64.79353
  },
  {
    "name": "Litzelsdorf",
    "country": "AT",
    "lat": 47.20826,
    "lng": 16.1717
  },
  {
    "name": "Litschau",
    "country": "AT",
    "lat": 48.94409,
    "lng": 15.04483
  },
  {
    "name": "Linz",
    "country": "AT",
    "lat": 48.30639,
    "lng": 14.28611
  },
  {
    "name": "Lilienfeld",
    "country": "AT",
    "lat": 48.01312,
    "lng": 15.59664
  },
  {
    "name": "Ligist",
    "country": "AT",
    "lat": 46.99389,
    "lng": 15.21083
  },
  {
    "name": "Liezen",
    "country": "AT",
    "lat": 47.56667,
    "lng": 14.23333
  },
  {
    "name": "Liesingtal",
    "country": "AT",
    "lat": 47.34597,
    "lng": 15.01352
  },
  {
    "name": "Lienz",
    "country": "AT",
    "lat": 46.8289,
    "lng": 12.76903
  },
  {
    "name": "Lieboch",
    "country": "AT",
    "lat": 46.97417,
    "lng": 15.3375
  },
  {
    "name": "Liebenau",
    "country": "AT",
    "lat": 47.03333,
    "lng": 15.46667
  },
  {
    "name": "Lichtenwörth",
    "country": "AT",
    "lat": 47.82756,
    "lng": 16.29873
  },
  {
    "name": "Lichtenegg",
    "country": "AT",
    "lat": 48.15,
    "lng": 14.0
  },
  {
    "name": "Lichtenegg",
    "country": "AT",
    "lat": 47.6,
    "lng": 16.2
  },
  {
    "name": "Liebenfels",
    "country": "AT",
    "lat": 46.73778,
    "lng": 14.28667
  },
  {
    "name": "Lind",
    "country": "AT",
    "lat": 46.62244,
    "lng": 13.84715
  },
  {
    "name": "Lingenau",
    "country": "AT",
    "lat": 47.45033,
    "lng": 9.92166
  },
  {
    "name": "Littlehampton",
    "country": "AU",
    "lat": -35.04225,
    "lng": 138.86423
  },
  {
    "name": "Liverpool",
    "country": "AU",
    "lat": -33.91938,
    "lng": 150.92588
  },
  {
    "name": "Little River",
    "country": "AU",
    "lat": -37.96667,
    "lng": 144.5
  },
  {
    "name": "Lithgow",
    "country": "AU",
    "lat": -33.4845,
    "lng": 150.14903
  },
  {
    "name": "Lismore",
    "country": "AU",
    "lat": -28.81354,
    "lng": 153.2773
  },
  {
    "name": "Lisarow",
    "country": "AU",
    "lat": -33.38333,
    "lng": 151.36667
  },
  {
    "name": "Lindisfarne",
    "country": "AU",
    "lat": -42.84837,
    "lng": 147.36192
  },
  {
    "name": "Lindfield",
    "country": "AU",
    "lat": -33.78333,
    "lng": 151.16667
  },
  {
    "name": "Lilydale",
    "country": "AU",
    "lat": -37.75,
    "lng": 145.35
  },
  {
    "name": "Lightning Ridge",
    "country": "AU",
    "lat": -29.42743,
    "lng": 147.97865
  },
  {
    "name": "Lidcombe",
    "country": "AU",
    "lat": -33.86436,
    "lng": 151.0397
  },
  {
    "name": "Lilli Pilli",
    "country": "AU",
    "lat": -34.0683,
    "lng": 151.11574
  },
  {
    "name": "Little Bay",
    "country": "AU",
    "lat": -33.97899,
    "lng": 151.24299
  },
  {
    "name": "Lilyfield",
    "country": "AU",
    "lat": -33.87499,
    "lng": 151.1653
  },
  {
    "name": "Little Grove",
    "country": "AU",
    "lat": -35.06803,
    "lng": 117.87197
  },
  {
    "name": "Little Mountain",
    "country": "AU",
    "lat": -26.78436,
    "lng": 153.09218
  },
  {
    "name": "Liberty Grove",
    "country": "AU",
    "lat": -33.84095,
    "lng": 151.08402
  },
  {
    "name": "Linden Park",
    "country": "AU",
    "lat": -34.94347,
    "lng": 138.64728
  },
  {
    "name": "Lismore Heights",
    "country": "AU",
    "lat": -28.80102,
    "lng": 153.30048
  },
  {
    "name": "Livno",
    "country": "BA",
    "lat": 43.82695,
    "lng": 17.00746
  },
  {
    "name": "Liješnica",
    "country": "BA",
    "lat": 44.49497,
    "lng": 18.07644
  },
  {
    "name": "Lixhe",
    "country": "BE",
    "lat": 50.7544,
    "lng": 5.68028
  },
  {
    "name": "Lissewege",
    "country": "BE",
    "lat": 51.29427,
    "lng": 3.19331
  },
  {
    "name": "Lippelo",
    "country": "BE",
    "lat": 51.04258,
    "lng": 4.259
  },
  {
    "name": "Lint",
    "country": "BE",
    "lat": 51.12707,
    "lng": 4.49669
  },
  {
    "name": "Linkhout",
    "country": "BE",
    "lat": 50.96778,
    "lng": 5.1374
  },
  {
    "name": "Linkebeek",
    "country": "BE",
    "lat": 50.76781,
    "lng": 4.33688
  },
  {
    "name": "Linden",
    "country": "BE",
    "lat": 50.89494,
    "lng": 4.77027
  },
  {
    "name": "Lincent",
    "country": "BE",
    "lat": 50.71222,
    "lng": 5.03654
  },
  {
    "name": "Limerlé",
    "country": "BE",
    "lat": 50.15804,
    "lng": 5.92395
  },
  {
    "name": "Limelette",
    "country": "BE",
    "lat": 50.68428,
    "lng": 4.57186
  },
  {
    "name": "Limbourg",
    "country": "BE",
    "lat": 50.61222,
    "lng": 5.9412
  },
  {
    "name": "Limal",
    "country": "BE",
    "lat": 50.69477,
    "lng": 4.57538
  },
  {
    "name": "Lillois-Witterzée",
    "country": "BE",
    "lat": 50.64549,
    "lng": 4.36681
  },
  {
    "name": "Lille",
    "country": "BE",
    "lat": 51.24197,
    "lng": 4.82313
  },
  {
    "name": "Ligny",
    "country": "BE",
    "lat": 50.51244,
    "lng": 4.57735
  },
  {
    "name": "Liezele",
    "country": "BE",
    "lat": 51.05998,
    "lng": 4.28038
  },
  {
    "name": "Liers",
    "country": "BE",
    "lat": 50.69396,
    "lng": 5.56458
  },
  {
    "name": "Lier",
    "country": "BE",
    "lat": 51.13128,
    "lng": 4.57041
  },
  {
    "name": "Lierneux",
    "country": "BE",
    "lat": 50.28477,
    "lng": 5.79236
  },
  {
    "name": "Liège",
    "country": "BE",
    "lat": 50.63373,
    "lng": 5.56749
  },
  {
    "name": "Liedekerke",
    "country": "BE",
    "lat": 50.86892,
    "lng": 4.08743
  },
  {
    "name": "Lichtervelde",
    "country": "BE",
    "lat": 51.03333,
    "lng": 3.15
  },
  {
    "name": "Lichtaart",
    "country": "BE",
    "lat": 51.22495,
    "lng": 4.91681
  },
  {
    "name": "Libramont",
    "country": "BE",
    "lat": 49.91741,
    "lng": 5.37318
  },
  {
    "name": "Libin",
    "country": "BE",
    "lat": 49.98107,
    "lng": 5.25612
  },
  {
    "name": "Liberchies",
    "country": "BE",
    "lat": 50.51421,
    "lng": 4.42123
  },
  {
    "name": "Liang",
    "country": "BN",
    "lat": 4.67747,
    "lng": 114.49587
  },
  {
    "name": "Limoncito",
    "country": "BO",
    "lat": -18.02782,
    "lng": -63.40307
  },
  {
    "name": "Lizarda",
    "country": "BR",
    "lat": -9.59417,
    "lng": -46.67306
  },
  {
    "name": "Livramento",
    "country": "BR",
    "lat": -7.37417,
    "lng": -36.94639
  },
  {
    "name": "Limoeiro do Norte",
    "country": "BR",
    "lat": -5.14556,
    "lng": -38.09806
  },
  {
    "name": "Limoeiro do Ajuru",
    "country": "BR",
    "lat": -1.89528,
    "lng": -49.38056
  },
  {
    "name": "Limoeiro de Anadia",
    "country": "BR",
    "lat": -9.74056,
    "lng": -36.50278
  },
  {
    "name": "Limoeiro",
    "country": "BR",
    "lat": -7.87472,
    "lng": -35.45028
  },
  {
    "name": "Livramento do Brumado",
    "country": "BR",
    "lat": -13.65145,
    "lng": -41.84564
  },
  {
    "name": "Lins",
    "country": "BR",
    "lat": -21.67861,
    "lng": -49.7425
  },
  {
    "name": "Linhares",
    "country": "BR",
    "lat": -19.39111,
    "lng": -40.07222
  },
  {
    "name": "Lindóia",
    "country": "BR",
    "lat": -22.52306,
    "lng": -46.65
  },
  {
    "name": "Limeira",
    "country": "BR",
    "lat": -22.56472,
    "lng": -47.40167
  },
  {
    "name": "Lima Duarte",
    "country": "BR",
    "lat": -21.8425,
    "lng": -43.79306
  },
  {
    "name": "Licínio de Almeida",
    "country": "BR",
    "lat": -14.68222,
    "lng": -42.5075
  },
  {
    "name": "Liberdade",
    "country": "BR",
    "lat": -23.56338,
    "lng": -46.63228
  },
  {
    "name": "Liberdade",
    "country": "BR",
    "lat": -22.02889,
    "lng": -44.31972
  },
  {
    "name": "Liberato Salzano",
    "country": "BR",
    "lat": -27.6,
    "lng": -53.07278
  },
  {
    "name": "Lidianópolis",
    "country": "BR",
    "lat": -24.10944,
    "lng": -51.6525
  },
  {
    "name": "Lima Campos",
    "country": "BR",
    "lat": -4.51667,
    "lng": -44.46667
  },
  {
    "name": "Limeira do Oeste",
    "country": "BR",
    "lat": -19.55111,
    "lng": -50.58056
  },
  {
    "name": "Lindoeste",
    "country": "BR",
    "lat": -25.26,
    "lng": -53.57611
  },
  {
    "name": "Lindóia do Sul",
    "country": "BR",
    "lat": -27.05333,
    "lng": -52.06667
  },
  {
    "name": "Lindolfo Collor",
    "country": "BR",
    "lat": -29.59694,
    "lng": -51.20944
  },
  {
    "name": "Linha Nova",
    "country": "BR",
    "lat": -29.4675,
    "lng": -51.20083
  },
  {
    "name": "Limão",
    "country": "BR",
    "lat": -23.49283,
    "lng": -46.66916
  },
  {
    "name": "Livramento de Nossa Senhora",
    "country": "BR",
    "lat": -13.64136,
    "lng": -41.84319
  },
  {
    "name": "Liozno",
    "country": "BY",
    "lat": 55.0199,
    "lng": 30.7969
  },
  {
    "name": "Lida",
    "country": "BY",
    "lat": 53.88333,
    "lng": 25.29972
  },
  {
    "name": "Little Belize",
    "country": "BZ",
    "lat": 18.198,
    "lng": -88.40792
  },
  {
    "name": "Libertad",
    "country": "BZ",
    "lat": 18.30791,
    "lng": -88.45444
  },
  {
    "name": "Limoges",
    "country": "CA",
    "lat": 45.3334,
    "lng": -75.24931
  },
  {
    "name": "Lincoln",
    "country": "CA",
    "lat": 45.90012,
    "lng": -66.58218
  },
  {
    "name": "Lincoln Park",
    "country": "CA",
    "lat": 49.28333,
    "lng": -122.75
  },
  {
    "name": "Lindsay",
    "country": "CA",
    "lat": 44.35012,
    "lng": -78.73286
  },
  {
    "name": "Linière",
    "country": "CA",
    "lat": 46.00007,
    "lng": -70.41572
  },
  {
    "name": "Lions Bay",
    "country": "CA",
    "lat": 49.45218,
    "lng": -123.2376
  },
  {
    "name": "Listowel",
    "country": "CA",
    "lat": 43.7334,
    "lng": -80.94973
  },
  {
    "name": "Little Current",
    "country": "CA",
    "lat": 45.97927,
    "lng": -81.9248
  },
  {
    "name": "Lively",
    "country": "CA",
    "lat": 46.43338,
    "lng": -81.14975
  },
  {
    "name": "Lillooet",
    "country": "CA",
    "lat": 50.6856,
    "lng": -121.942
  },
  {
    "name": "Little Portugal",
    "country": "CA",
    "lat": 43.64663,
    "lng": -79.42956
  },
  {
    "name": "Lincoln Park",
    "country": "CA",
    "lat": 51.00417,
    "lng": -114.12529
  },
  {
    "name": "Lions Gate",
    "country": "CA",
    "lat": 49.32643,
    "lng": -123.12201
  },
  {
    "name": "Little Mountain",
    "country": "CA",
    "lat": 49.18064,
    "lng": -121.92206
  },
  {
    "name": "Little India",
    "country": "CA",
    "lat": 49.22568,
    "lng": -123.10158
  },
  {
    "name": "Lisala",
    "country": "CD",
    "lat": 2.15127,
    "lng": 21.51672
  },
  {
    "name": "Likasi",
    "country": "CD",
    "lat": -10.98303,
    "lng": 26.7384
  },
  {
    "name": "Libenge",
    "country": "CD",
    "lat": 3.65332,
    "lng": 18.63566
  },
  {
    "name": "Littau",
    "country": "CH",
    "lat": 47.05,
    "lng": 8.26274
  },
  {
    "name": "Linthal",
    "country": "CH",
    "lat": 46.92127,
    "lng": 8.99799
  },
  {
    "name": "Linden",
    "country": "CH",
    "lat": 46.8469,
    "lng": 7.67831
  },
  {
    "name": "Ligornetto",
    "country": "CH",
    "lat": 45.86161,
    "lng": 8.95166
  },
  {
    "name": "Liestal",
    "country": "CH",
    "lat": 47.48455,
    "lng": 7.73446
  },
  {
    "name": "Liesberg",
    "country": "CH",
    "lat": 47.40398,
    "lng": 7.42787
  },
  {
    "name": "Lichtensteig",
    "country": "CH",
    "lat": 47.32381,
    "lng": 9.08758
  },
  {
    "name": "Ligaleu",
    "country": "CI",
    "lat": 7.01543,
    "lng": -8.25598
  },
  {
    "name": "Lissolo",
    "country": "CI",
    "lat": 8.0743,
    "lng": -4.01743
  },
  {
    "name": "Lipoyo",
    "country": "CI",
    "lat": 4.99534,
    "lng": -6.02107
  },
  {
    "name": "Lipara",
    "country": "CI",
    "lat": 8.84528,
    "lng": -6.68444
  },
  {
    "name": "Linguékoro",
    "country": "CI",
    "lat": 9.42823,
    "lng": -4.62753
  },
  {
    "name": "Lingouébo",
    "country": "CI",
    "lat": 7.49778,
    "lng": -5.65833
  },
  {
    "name": "Liguéguhé",
    "country": "CI",
    "lat": 6.6886,
    "lng": -6.60012
  },
  {
    "name": "Liga",
    "country": "CI",
    "lat": 6.60371,
    "lng": -6.53512
  },
  {
    "name": "Lieupleu",
    "country": "CI",
    "lat": 7.09527,
    "lng": -8.10789
  },
  {
    "name": "Linguesso",
    "country": "CI",
    "lat": 9.20551,
    "lng": -7.62082
  },
  {
    "name": "Liagui",
    "country": "CI",
    "lat": 5.7454,
    "lng": -6.85756
  },
  {
    "name": "Liliyo",
    "country": "CI",
    "lat": 5.99473,
    "lng": -6.3573
  },
  {
    "name": "Lingoho",
    "country": "CI",
    "lat": 9.45512,
    "lng": -7.25409
  },
  {
    "name": "Ligrohouin",
    "country": "CI",
    "lat": 5.8589,
    "lng": -5.81668
  },
  {
    "name": "Liboli",
    "country": "CI",
    "lat": 5.22128,
    "lng": -5.18145
  },
  {
    "name": "Liadjénoufla",
    "country": "CI",
    "lat": 6.81109,
    "lng": -5.7775
  },
  {
    "name": "Litobli",
    "country": "CI",
    "lat": 6.87751,
    "lng": -7.00803
  },
  {
    "name": "Linares",
    "country": "CL",
    "lat": -35.84667,
    "lng": -71.59308
  },
  {
    "name": "Limache",
    "country": "CL",
    "lat": -33.01327,
    "lng": -71.26084
  },
  {
    "name": "Limbe",
    "country": "CM",
    "lat": 4.02356,
    "lng": 9.20607
  },
  {
    "name": "Liuku",
    "country": "CN",
    "lat": 25.8505,
    "lng": 98.85567
  },
  {
    "name": "Liushujie",
    "country": "CN",
    "lat": 46.08891,
    "lng": 85.68885
  },
  {
    "name": "Liangji",
    "country": "CN",
    "lat": 33.96389,
    "lng": 117.96944
  },
  {
    "name": "Liuji",
    "country": "CN",
    "lat": 34.35833,
    "lng": 117.05278
  },
  {
    "name": "Lintan Chengguanzhen",
    "country": "CN",
    "lat": 34.68885,
    "lng": 103.35242
  },
  {
    "name": "Liaoyang",
    "country": "CN",
    "lat": 37.07977,
    "lng": 113.33986
  },
  {
    "name": "Linjiang",
    "country": "CN",
    "lat": 36.3275,
    "lng": 112.88194
  },
  {
    "name": "Linxi",
    "country": "CN",
    "lat": 36.86554,
    "lng": 115.49474
  },
  {
    "name": "Lingyun",
    "country": "CN",
    "lat": 24.34943,
    "lng": 106.56174
  },
  {
    "name": "Lingquan",
    "country": "CN",
    "lat": 36.99949,
    "lng": 110.844
  },
  {
    "name": "Lizi",
    "country": "CN",
    "lat": 29.81127,
    "lng": 107.92447
  },
  {
    "name": "Lizhuangzi",
    "country": "CN",
    "lat": 39.00417,
    "lng": 117.52556
  },
  {
    "name": "Liyuan",
    "country": "CN",
    "lat": 29.40044,
    "lng": 110.15903
  },
  {
    "name": "Liyang",
    "country": "CN",
    "lat": 31.71772,
    "lng": 118.35731
  },
  {
    "name": "Licheng",
    "country": "CN",
    "lat": 31.42813,
    "lng": 119.48353
  },
  {
    "name": "Lixiqiao",
    "country": "CN",
    "lat": 26.79472,
    "lng": 110.41806
  },
  {
    "name": "Lixin",
    "country": "CN",
    "lat": 34.91222,
    "lng": 105.08056
  },
  {
    "name": "Lixin Chengguanzhen",
    "country": "CN",
    "lat": 33.14328,
    "lng": 116.22718
  },
  {
    "name": "Liwu",
    "country": "CN",
    "lat": 38.48774,
    "lng": 115.57474
  },
  {
    "name": "Lixian",
    "country": "CN",
    "lat": 34.19,
    "lng": 105.1725
  },
  {
    "name": "Liyang",
    "country": "CN",
    "lat": 29.64484,
    "lng": 111.75024
  },
  {
    "name": "Liuzikou",
    "country": "CN",
    "lat": 39.87028,
    "lng": 117.34667
  },
  {
    "name": "Liuyin",
    "country": "CN",
    "lat": 29.96207,
    "lng": 106.60996
  },
  {
    "name": "Liuxin",
    "country": "CN",
    "lat": 34.36861,
    "lng": 117.115
  },
  {
    "name": "Liuwudiancun",
    "country": "CN",
    "lat": 24.56923,
    "lng": 118.19064
  },
  {
    "name": "Liutuan",
    "country": "CN",
    "lat": 36.93333,
    "lng": 119.38333
  },
  {
    "name": "Liuquan",
    "country": "CN",
    "lat": 34.43417,
    "lng": 117.29833
  },
  {
    "name": "Liulin",
    "country": "CN",
    "lat": 37.45333,
    "lng": 110.90189
  },
  {
    "name": "Liukuaizhuang",
    "country": "CN",
    "lat": 39.24789,
    "lng": 117.33941
  },
  {
    "name": "Liujiaxia",
    "country": "CN",
    "lat": 35.934,
    "lng": 103.31831
  },
  {
    "name": "Liujiaping",
    "country": "CN",
    "lat": 32.8,
    "lng": 104.83333
  },
  {
    "name": "Liuduzhai",
    "country": "CN",
    "lat": 27.36611,
    "lng": 110.935
  },
  {
    "name": "Liucheng",
    "country": "CN",
    "lat": 30.7,
    "lng": 103.83771
  },
  {
    "name": "Liuba",
    "country": "CN",
    "lat": 33.61861,
    "lng": 106.91889
  },
  {
    "name": "Liu’anzhuang",
    "country": "CN",
    "lat": 39.23868,
    "lng": 117.19819
  },
  {
    "name": "Lishui",
    "country": "CN",
    "lat": 28.46042,
    "lng": 119.91029
  },
  {
    "name": "Lishi",
    "country": "CN",
    "lat": 37.51556,
    "lng": 111.13417
  },
  {
    "name": "Lishi",
    "country": "CN",
    "lat": 29.07888,
    "lng": 106.262
  },
  {
    "name": "Lishi",
    "country": "CN",
    "lat": 24.77206,
    "lng": 115.02568
  },
  {
    "name": "Lintong",
    "country": "CN",
    "lat": 34.37803,
    "lng": 109.20892
  },
  {
    "name": "Lishan",
    "country": "CN",
    "lat": 31.85764,
    "lng": 113.29505
  },
  {
    "name": "Liquan Chengguanzhen",
    "country": "CN",
    "lat": 34.48111,
    "lng": 108.42361
  },
  {
    "name": "Liuzhou",
    "country": "CN",
    "lat": 24.32405,
    "lng": 109.40698
  },
  {
    "name": "Linyi",
    "country": "CN",
    "lat": 35.06306,
    "lng": 118.34278
  },
  {
    "name": "Linquan",
    "country": "CN",
    "lat": 37.97965,
    "lng": 111.02059
  },
  {
    "name": "Linzhou",
    "country": "CN",
    "lat": 36.06545,
    "lng": 113.81547
  },
  {
    "name": "Linxia Chengguanzhen",
    "country": "CN",
    "lat": 35.60028,
    "lng": 103.20639
  },
  {
    "name": "Linxi",
    "country": "CN",
    "lat": 39.71183,
    "lng": 118.44954
  },
  {
    "name": "Linwu Chengguanzhen",
    "country": "CN",
    "lat": 25.23247,
    "lng": 112.53981
  },
  {
    "name": "Lintingkou",
    "country": "CN",
    "lat": 39.63028,
    "lng": 117.50028
  },
  {
    "name": "Linshui",
    "country": "CN",
    "lat": 36.42472,
    "lng": 114.20472
  },
  {
    "name": "Linshi",
    "country": "CN",
    "lat": 29.66698,
    "lng": 107.19233
  },
  {
    "name": "Linquan Chengguanzhen",
    "country": "CN",
    "lat": 33.08506,
    "lng": 115.29023
  },
  {
    "name": "Linqu",
    "country": "CN",
    "lat": 36.51556,
    "lng": 118.53972
  },
  {
    "name": "Linqiong",
    "country": "CN",
    "lat": 30.41587,
    "lng": 103.46089
  },
  {
    "name": "Linping",
    "country": "CN",
    "lat": 30.4225,
    "lng": 120.29722
  },
  {
    "name": "Linmingguan",
    "country": "CN",
    "lat": 36.77715,
    "lng": 114.4894
  },
  {
    "name": "Linli",
    "country": "CN",
    "lat": 29.44686,
    "lng": 111.63892
  },
  {
    "name": "Linkou",
    "country": "CN",
    "lat": 26.24806,
    "lng": 109.86361
  },
  {
    "name": "Linjiang",
    "country": "CN",
    "lat": 29.24522,
    "lng": 105.95663
  },
  {
    "name": "Linjiang",
    "country": "CN",
    "lat": 33.06218,
    "lng": 104.92142
  },
  {
    "name": "Linjiang",
    "country": "CN",
    "lat": 31.09956,
    "lng": 108.21964
  },
  {
    "name": "Linjiacun",
    "country": "CN",
    "lat": 35.99389,
    "lng": 119.65028
  },
  {
    "name": "Linhai",
    "country": "CN",
    "lat": 28.85535,
    "lng": 121.1447
  },
  {
    "name": "Lingcheng",
    "country": "CN",
    "lat": 37.33501,
    "lng": 116.57045
  },
  {
    "name": "Lingxi",
    "country": "CN",
    "lat": 29.005,
    "lng": 109.84472
  },
  {
    "name": "Lingwu Nongchang",
    "country": "CN",
    "lat": 38.13333,
    "lng": 106.3
  },
  {
    "name": "Lingshou",
    "country": "CN",
    "lat": 38.30797,
    "lng": 114.37424
  },
  {
    "name": "Lingjiang",
    "country": "CN",
    "lat": 31.7346,
    "lng": 105.93162
  },
  {
    "name": "Linghe",
    "country": "CN",
    "lat": 36.36417,
    "lng": 119.07694
  },
  {
    "name": "Lingcheng",
    "country": "CN",
    "lat": 33.81639,
    "lng": 118.11361
  },
  {
    "name": "Lingcheng",
    "country": "CN",
    "lat": 33.53766,
    "lng": 117.53357
  },
  {
    "name": "Lingcheng",
    "country": "CN",
    "lat": 22.42317,
    "lng": 109.29303
  },
  {
    "name": "Lingao",
    "country": "CN",
    "lat": 19.90873,
    "lng": 109.68717
  },
  {
    "name": "Linfeng",
    "country": "CN",
    "lat": 29.891,
    "lng": 107.21971
  },
  {
    "name": "Linfen",
    "country": "CN",
    "lat": 36.08889,
    "lng": 111.51889
  },
  {
    "name": "Lincheng",
    "country": "CN",
    "lat": 37.4429,
    "lng": 114.49946
  },
  {
    "name": "Lincheng",
    "country": "CN",
    "lat": 26.86932,
    "lng": 109.66336
  },
  {
    "name": "Lincang",
    "country": "CN",
    "lat": 23.87972,
    "lng": 100.09455
  },
  {
    "name": "Lin’an",
    "country": "CN",
    "lat": 30.23583,
    "lng": 119.71806
  },
  {
    "name": "Lijiang",
    "country": "CN",
    "lat": 23.5711,
    "lng": 102.00417
  },
  {
    "name": "Liji",
    "country": "CN",
    "lat": 33.76667,
    "lng": 117.78333
  },
  {
    "name": "Ligezhuang",
    "country": "CN",
    "lat": 36.35778,
    "lng": 120.14278
  },
  {
    "name": "Lidu",
    "country": "CN",
    "lat": 29.73861,
    "lng": 107.29477
  },
  {
    "name": "Lichuan",
    "country": "CN",
    "lat": 30.3,
    "lng": 108.85
  },
  {
    "name": "Lihou",
    "country": "CN",
    "lat": 36.50289,
    "lng": 113.36945
  },
  {
    "name": "Lipu",
    "country": "CN",
    "lat": 24.49866,
    "lng": 110.39285
  },
  {
    "name": "Licheng",
    "country": "CN",
    "lat": 23.29549,
    "lng": 113.82465
  },
  {
    "name": "Licha",
    "country": "CN",
    "lat": 36.05722,
    "lng": 119.78333
  },
  {
    "name": "Liaolan",
    "country": "CN",
    "lat": 36.67444,
    "lng": 119.87528
  },
  {
    "name": "Liaogao",
    "country": "CN",
    "lat": 28.17,
    "lng": 109.195
  },
  {
    "name": "Liaocheng",
    "country": "CN",
    "lat": 36.45064,
    "lng": 116.00247
  },
  {
    "name": "Lianzhou",
    "country": "CN",
    "lat": 24.78186,
    "lng": 112.3712
  },
  {
    "name": "Lianhecun",
    "country": "CN",
    "lat": 24.58932,
    "lng": 118.33903
  },
  {
    "name": "Liangzhai",
    "country": "CN",
    "lat": 34.5,
    "lng": 116.75
  },
  {
    "name": "Liangyaping",
    "country": "CN",
    "lat": 27.71833,
    "lng": 110.67083
  },
  {
    "name": "Liangxiang",
    "country": "CN",
    "lat": 39.73598,
    "lng": 116.13295
  },
  {
    "name": "Liangshui",
    "country": "CN",
    "lat": 33.43177,
    "lng": 104.80909
  },
  {
    "name": "Lianghekou",
    "country": "CN",
    "lat": 33.6904,
    "lng": 104.488
  },
  {
    "name": "Liangdang Chengguanzhen",
    "country": "CN",
    "lat": 33.90972,
    "lng": 106.30222
  },
  {
    "name": "Liangcunchang",
    "country": "CN",
    "lat": 28.40667,
    "lng": 106.42444
  },
  {
    "name": "Liancheng",
    "country": "CN",
    "lat": 25.71826,
    "lng": 116.74892
  },
  {
    "name": "Liancheng",
    "country": "CN",
    "lat": 24.05192,
    "lng": 105.07497
  },
  {
    "name": "Lianjiang",
    "country": "CN",
    "lat": 21.64673,
    "lng": 110.28172
  },
  {
    "name": "Lianyuan",
    "country": "CN",
    "lat": 27.68833,
    "lng": 111.66417
  },
  {
    "name": "Liujiang",
    "country": "CN",
    "lat": 24.25731,
    "lng": 109.32186
  },
  {
    "name": "Liulin",
    "country": "CN",
    "lat": 34.58972,
    "lng": 103.50417
  },
  {
    "name": "Lianzhu",
    "country": "CN",
    "lat": 23.40844,
    "lng": 101.71028
  },
  {
    "name": "Lin’an",
    "country": "CN",
    "lat": 23.60255,
    "lng": 102.83092
  },
  {
    "name": "Liangshan",
    "country": "CN",
    "lat": 35.80259,
    "lng": 116.09743
  },
  {
    "name": "Lingbao",
    "country": "CN",
    "lat": 34.52184,
    "lng": 110.88508
  },
  {
    "name": "Lingchuan",
    "country": "CN",
    "lat": 25.39697,
    "lng": 110.318
  },
  {
    "name": "Lianjiang",
    "country": "CN",
    "lat": 26.20113,
    "lng": 119.53492
  },
  {
    "name": "Linshui",
    "country": "CN",
    "lat": 30.33314,
    "lng": 106.93095
  },
  {
    "name": "Liping",
    "country": "CN",
    "lat": 26.23111,
    "lng": 109.13139
  },
  {
    "name": "Lijiang",
    "country": "CN",
    "lat": 26.86879,
    "lng": 100.22072
  },
  {
    "name": "Liucheng",
    "country": "CN",
    "lat": 24.66739,
    "lng": 109.23547
  },
  {
    "name": "Liuping",
    "country": "CN",
    "lat": 34.89139,
    "lng": 105.71917
  },
  {
    "name": "Lingxia",
    "country": "CN",
    "lat": 22.694,
    "lng": 113.83563
  },
  {
    "name": "Lianghu",
    "country": "CN",
    "lat": 29.99152,
    "lng": 120.89845
  },
  {
    "name": "Lingcheng",
    "country": "CN",
    "lat": 35.534,
    "lng": 116.918
  },
  {
    "name": "Liulinzhou",
    "country": "CN",
    "lat": 29.42857,
    "lng": 113.02404
  },
  {
    "name": "Lixi",
    "country": "CN",
    "lat": 28.53126,
    "lng": 108.611
  },
  {
    "name": "Lianhe",
    "country": "CN",
    "lat": 47.13333,
    "lng": 129.27426
  },
  {
    "name": "Liuhe",
    "country": "CN",
    "lat": 42.28473,
    "lng": 125.74544
  },
  {
    "name": "Lishu",
    "country": "CN",
    "lat": 45.08976,
    "lng": 130.68956
  },
  {
    "name": "Lishu",
    "country": "CN",
    "lat": 43.30727,
    "lng": 124.33371
  },
  {
    "name": "Linxi",
    "country": "CN",
    "lat": 43.51667,
    "lng": 118.03333
  },
  {
    "name": "Linkou",
    "country": "CN",
    "lat": 45.2762,
    "lng": 130.27332
  },
  {
    "name": "Linjiang",
    "country": "CN",
    "lat": 41.80694,
    "lng": 126.90778
  },
  {
    "name": "Lingyuan",
    "country": "CN",
    "lat": 41.24,
    "lng": 119.40111
  },
  {
    "name": "Lingdong",
    "country": "CN",
    "lat": 46.55428,
    "lng": 131.14493
  },
  {
    "name": "Lindong",
    "country": "CN",
    "lat": 43.98333,
    "lng": 119.4
  },
  {
    "name": "Lindian",
    "country": "CN",
    "lat": 47.1703,
    "lng": 124.85711
  },
  {
    "name": "Liaozhong",
    "country": "CN",
    "lat": 41.50611,
    "lng": 122.72417
  },
  {
    "name": "Liaoyang",
    "country": "CN",
    "lat": 41.27194,
    "lng": 123.17306
  },
  {
    "name": "Lianshan",
    "country": "CN",
    "lat": 40.76432,
    "lng": 120.85327
  },
  {
    "name": "Linghai",
    "country": "CN",
    "lat": 41.16528,
    "lng": 121.36667
  },
  {
    "name": "Liangshi",
    "country": "CN",
    "lat": 27.20636,
    "lng": 111.73714
  },
  {
    "name": "Lianjiang",
    "country": "CN",
    "lat": 22.59018,
    "lng": 113.07642
  },
  {
    "name": "Lianhu",
    "country": "CN",
    "lat": 34.25848,
    "lng": 108.92421
  },
  {
    "name": "Linjiang",
    "country": "CN",
    "lat": 33.96105,
    "lng": 104.50951
  },
  {
    "name": "Lijie",
    "country": "CN",
    "lat": 33.90213,
    "lng": 104.07156
  },
  {
    "name": "Liping",
    "country": "CN",
    "lat": 33.18559,
    "lng": 104.8839
  },
  {
    "name": "Lianhua",
    "country": "CN",
    "lat": 35.0616,
    "lng": 105.79108
  },
  {
    "name": "Liangshan",
    "country": "CN",
    "lat": 35.07319,
    "lng": 105.974
  },
  {
    "name": "Lianghe",
    "country": "CN",
    "lat": 33.12168,
    "lng": 105.91947
  },
  {
    "name": "Liuxiang",
    "country": "CN",
    "lat": 33.79937,
    "lng": 105.44447
  },
  {
    "name": "Liulin",
    "country": "CN",
    "lat": 33.87437,
    "lng": 106.1696
  },
  {
    "name": "Liushun",
    "country": "CN",
    "lat": 34.6492,
    "lng": 103.54139
  },
  {
    "name": "Lichuan Zhen",
    "country": "CN",
    "lat": 34.24845,
    "lng": 104.31947
  },
  {
    "name": "Liuxiang",
    "country": "CN",
    "lat": 37.87143,
    "lng": 112.56054
  },
  {
    "name": "Liaozi",
    "country": "CN",
    "lat": 31.81374,
    "lng": 108.6423
  },
  {
    "name": "Lingjiao",
    "country": "CN",
    "lat": 31.39795,
    "lng": 109.43996
  },
  {
    "name": "Liangping",
    "country": "CN",
    "lat": 31.12136,
    "lng": 109.96909
  },
  {
    "name": "Lihe",
    "country": "CN",
    "lat": 30.81609,
    "lng": 108.26216
  },
  {
    "name": "Lishu",
    "country": "CN",
    "lat": 30.66438,
    "lng": 108.74758
  },
  {
    "name": "Linxi",
    "country": "CN",
    "lat": 30.40644,
    "lng": 108.3502
  },
  {
    "name": "Lichang",
    "country": "CN",
    "lat": 30.34909,
    "lng": 108.14127
  },
  {
    "name": "Liutang",
    "country": "CN",
    "lat": 29.93244,
    "lng": 108.27733
  },
  {
    "name": "Lirang",
    "country": "CN",
    "lat": 30.68494,
    "lng": 107.63145
  },
  {
    "name": "Liren",
    "country": "CN",
    "lat": 28.68264,
    "lng": 109.17974
  },
  {
    "name": "Liangzeng",
    "country": "CN",
    "lat": 28.88365,
    "lng": 108.39162
  },
  {
    "name": "Lishui",
    "country": "CN",
    "lat": 29.83048,
    "lng": 108.64355
  },
  {
    "name": "Lin’e",
    "country": "CN",
    "lat": 29.44149,
    "lng": 108.85193
  },
  {
    "name": "Lianhe",
    "country": "CN",
    "lat": 29.59324,
    "lng": 108.42665
  },
  {
    "name": "Lianhu",
    "country": "CN",
    "lat": 29.69808,
    "lng": 108.43528
  },
  {
    "name": "Lizhi",
    "country": "CN",
    "lat": 29.70317,
    "lng": 107.39521
  },
  {
    "name": "Lijia",
    "country": "CN",
    "lat": 29.67878,
    "lng": 106.49312
  },
  {
    "name": "Liupanshui",
    "country": "CN",
    "lat": 26.59444,
    "lng": 104.83333
  },
  {
    "name": "Lingquan",
    "country": "CN",
    "lat": 49.4052,
    "lng": 117.677
  },
  {
    "name": "Liuzhi",
    "country": "CN",
    "lat": 26.2342,
    "lng": 105.426
  },
  {
    "name": "Linhe",
    "country": "CN",
    "lat": 38.3214,
    "lng": 106.368
  },
  {
    "name": "Lianyungang",
    "country": "CN",
    "lat": 34.59845,
    "lng": 119.21556
  },
  {
    "name": "Liangqing",
    "country": "CN",
    "lat": 22.73911,
    "lng": 108.34367
  },
  {
    "name": "Liunan",
    "country": "CN",
    "lat": 24.29973,
    "lng": 109.39059
  },
  {
    "name": "Liubei",
    "country": "CN",
    "lat": 24.36437,
    "lng": 109.39851
  },
  {
    "name": "Liguo",
    "country": "CN",
    "lat": 34.55287,
    "lng": 117.33296
  },
  {
    "name": "Liushan",
    "country": "CN",
    "lat": 36.44972,
    "lng": 118.76016
  },
  {
    "name": "Ligang",
    "country": "CN",
    "lat": 38.64643,
    "lng": 106.43043
  },
  {
    "name": "Lingwu",
    "country": "CN",
    "lat": 38.10191,
    "lng": 106.34017
  },
  {
    "name": "Lijun",
    "country": "CN",
    "lat": 38.18583,
    "lng": 106.12
  },
  {
    "name": "Lichuan",
    "country": "CN",
    "lat": 33.77267,
    "lng": 105.94642
  },
  {
    "name": "Liufeng",
    "country": "CN",
    "lat": 34.73453,
    "lng": 105.38609
  },
  {
    "name": "Lianwu",
    "country": "CN",
    "lat": 35.09684,
    "lng": 106.11105
  },
  {
    "name": "Liubao",
    "country": "CN",
    "lat": 35.05823,
    "lng": 106.23531
  },
  {
    "name": "Liangping",
    "country": "CN",
    "lat": 30.66108,
    "lng": 107.7661
  },
  {
    "name": "Lixianghu",
    "country": "CN",
    "lat": 29.35937,
    "lng": 106.97423
  },
  {
    "name": "Lianchi",
    "country": "CN",
    "lat": 38.88147,
    "lng": 115.49142
  },
  {
    "name": "Lingzhi (Northwest Gate)",
    "country": "CN",
    "lat": 22.56766,
    "lng": 113.90685
  },
  {
    "name": "Lingzhi Town",
    "country": "CN",
    "lat": 22.5655,
    "lng": 113.90335
  },
  {
    "name": "Liutang",
    "country": "CN",
    "lat": 22.57801,
    "lng": 113.88722
  },
  {
    "name": "Liuxiangdong",
    "country": "CN",
    "lat": 22.58519,
    "lng": 113.9298
  },
  {
    "name": "Lingui",
    "country": "CN",
    "lat": 25.25031,
    "lng": 110.19682
  },
  {
    "name": "Linares",
    "country": "CO",
    "lat": 1.35078,
    "lng": -77.52339
  },
  {
    "name": "Liborina",
    "country": "CO",
    "lat": 6.6779,
    "lng": -75.81218
  },
  {
    "name": "Limón",
    "country": "CR",
    "lat": 9.99074,
    "lng": -83.03596
  },
  {
    "name": "Liberia",
    "country": "CR",
    "lat": 10.63517,
    "lng": -85.43779
  },
  {
    "name": "Limonar",
    "country": "CU",
    "lat": 22.95035,
    "lng": -81.41059
  },
  {
    "name": "Livádia",
    "country": "CY",
    "lat": 34.95515,
    "lng": 33.62734
  },
  {
    "name": "Liopétri",
    "country": "CY",
    "lat": 35.00885,
    "lng": 33.89256
  },
  {
    "name": "Limassol",
    "country": "CY",
    "lat": 34.68406,
    "lng": 33.03794
  },
  {
    "name": "Litvínovice",
    "country": "CZ",
    "lat": 48.96207,
    "lng": 14.45146
  },
  {
    "name": "Litvínov",
    "country": "CZ",
    "lat": 50.6042,
    "lng": 13.61812
  },
  {
    "name": "Litovel",
    "country": "CZ",
    "lat": 49.70121,
    "lng": 17.07615
  },
  {
    "name": "Litomyšl",
    "country": "CZ",
    "lat": 49.86809,
    "lng": 16.31298
  },
  {
    "name": "Litoměřice",
    "country": "CZ",
    "lat": 50.53348,
    "lng": 14.1318
  },
  {
    "name": "Lišov",
    "country": "CZ",
    "lat": 49.01597,
    "lng": 14.60838
  },
  {
    "name": "Lipůvka",
    "country": "CZ",
    "lat": 49.33933,
    "lng": 16.55313
  },
  {
    "name": "Liptál",
    "country": "CZ",
    "lat": 49.29051,
    "lng": 17.92177
  },
  {
    "name": "Lipovec",
    "country": "CZ",
    "lat": 49.38394,
    "lng": 16.80583
  },
  {
    "name": "Lipov",
    "country": "CZ",
    "lat": 48.90495,
    "lng": 17.46171
  },
  {
    "name": "Lipník nad Bečvou",
    "country": "CZ",
    "lat": 49.52721,
    "lng": 17.58594
  },
  {
    "name": "Lidečko",
    "country": "CZ",
    "lat": 49.20303,
    "lng": 18.0513
  },
  {
    "name": "Lichnov",
    "country": "CZ",
    "lat": 50.00786,
    "lng": 17.6264
  },
  {
    "name": "Lichnov (o. Nový Jičín)",
    "country": "CZ",
    "lat": 49.56423,
    "lng": 18.16898
  },
  {
    "name": "Libušín",
    "country": "CZ",
    "lat": 50.16819,
    "lng": 14.05458
  },
  {
    "name": "Libuš",
    "country": "CZ",
    "lat": 50.00956,
    "lng": 14.46196
  },
  {
    "name": "Libouchec",
    "country": "CZ",
    "lat": 50.75854,
    "lng": 14.04071
  },
  {
    "name": "Libochovice",
    "country": "CZ",
    "lat": 50.40626,
    "lng": 14.04439
  },
  {
    "name": "Libiš",
    "country": "CZ",
    "lat": 50.27417,
    "lng": 14.5024
  },
  {
    "name": "Libice nad Cidlinou",
    "country": "CZ",
    "lat": 50.12677,
    "lng": 15.1782
  },
  {
    "name": "Liběšice",
    "country": "CZ",
    "lat": 50.56886,
    "lng": 14.28906
  },
  {
    "name": "Liberec",
    "country": "CZ",
    "lat": 50.76711,
    "lng": 15.05619
  },
  {
    "name": "Libeň",
    "country": "CZ",
    "lat": 50.10819,
    "lng": 14.47457
  },
  {
    "name": "Libčice nad Vltavou",
    "country": "CZ",
    "lat": 50.19778,
    "lng": 14.36385
  },
  {
    "name": "Libavské Údolí",
    "country": "CZ",
    "lat": 50.12887,
    "lng": 12.55249
  },
  {
    "name": "Libáň",
    "country": "CZ",
    "lat": 50.37542,
    "lng": 15.21684
  },
  {
    "name": "Lipová-lázně",
    "country": "CZ",
    "lat": 50.22766,
    "lng": 17.14039
  },
  {
    "name": "Litzendorf",
    "country": "DE",
    "lat": 49.91444,
    "lng": 11.01028
  },
  {
    "name": "Litzelstetten",
    "country": "DE",
    "lat": 47.71409,
    "lng": 9.17307
  },
  {
    "name": "List",
    "country": "DE",
    "lat": 55.01917,
    "lng": 8.43132
  },
  {
    "name": "Lissendorf",
    "country": "DE",
    "lat": 50.31667,
    "lng": 6.6
  },
  {
    "name": "Lippstadt",
    "country": "DE",
    "lat": 51.67369,
    "lng": 8.34482
  },
  {
    "name": "Linz am Rhein",
    "country": "DE",
    "lat": 50.56884,
    "lng": 7.28445
  },
  {
    "name": "Lintig",
    "country": "DE",
    "lat": 53.60341,
    "lng": 8.87876
  },
  {
    "name": "Linnich",
    "country": "DE",
    "lat": 50.98002,
    "lng": 6.27049
  },
  {
    "name": "Linn",
    "country": "DE",
    "lat": 51.33743,
    "lng": 6.64241
  },
  {
    "name": "Lingenfeld",
    "country": "DE",
    "lat": 49.25389,
    "lng": 8.33861
  },
  {
    "name": "Lingen",
    "country": "DE",
    "lat": 52.52143,
    "lng": 7.31845
  },
  {
    "name": "Lindwedel",
    "country": "DE",
    "lat": 52.60784,
    "lng": 9.68737
  },
  {
    "name": "Lindow",
    "country": "DE",
    "lat": 52.96689,
    "lng": 12.98498
  },
  {
    "name": "Lindlar",
    "country": "DE",
    "lat": 51.01959,
    "lng": 7.37758
  },
  {
    "name": "Lindhorst",
    "country": "DE",
    "lat": 52.35789,
    "lng": 9.28319
  },
  {
    "name": "Lindewitt",
    "country": "DE",
    "lat": 54.7,
    "lng": 9.2
  },
  {
    "name": "Lindenfels",
    "country": "DE",
    "lat": 49.68369,
    "lng": 8.78151
  },
  {
    "name": "Lindenberg",
    "country": "DE",
    "lat": 52.24578,
    "lng": 10.5619
  },
  {
    "name": "Lindenberg",
    "country": "DE",
    "lat": 47.60284,
    "lng": 9.88549
  },
  {
    "name": "Lindenberg",
    "country": "DE",
    "lat": 49.38028,
    "lng": 8.09861
  },
  {
    "name": "Linden",
    "country": "DE",
    "lat": 49.35,
    "lng": 7.65
  },
  {
    "name": "Lindberg",
    "country": "DE",
    "lat": 49.0368,
    "lng": 13.25423
  },
  {
    "name": "Lindau",
    "country": "DE",
    "lat": 54.38531,
    "lng": 9.90465
  },
  {
    "name": "Lindau",
    "country": "DE",
    "lat": 52.03751,
    "lng": 12.10788
  },
  {
    "name": "Lindau",
    "country": "DE",
    "lat": 47.54612,
    "lng": 9.68431
  },
  {
    "name": "Linau",
    "country": "DE",
    "lat": 53.64446,
    "lng": 10.46853
  },
  {
    "name": "Limburgerhof",
    "country": "DE",
    "lat": 49.42444,
    "lng": 8.39194
  },
  {
    "name": "Limburg an der Lahn",
    "country": "DE",
    "lat": 50.3836,
    "lng": 8.0503
  },
  {
    "name": "Limbach-Oberfrohna",
    "country": "DE",
    "lat": 50.85882,
    "lng": 12.76165
  },
  {
    "name": "Limbach",
    "country": "DE",
    "lat": 50.58333,
    "lng": 12.25
  },
  {
    "name": "Lilienthal",
    "country": "DE",
    "lat": 53.14193,
    "lng": 8.90338
  },
  {
    "name": "Lieskau",
    "country": "DE",
    "lat": 51.50395,
    "lng": 11.86208
  },
  {
    "name": "Lieser",
    "country": "DE",
    "lat": 49.91667,
    "lng": 7.01667
  },
  {
    "name": "Lienen",
    "country": "DE",
    "lat": 52.15,
    "lng": 7.98333
  },
  {
    "name": "Liebstadt",
    "country": "DE",
    "lat": 50.86417,
    "lng": 13.85694
  },
  {
    "name": "Lieblos",
    "country": "DE",
    "lat": 50.20789,
    "lng": 9.1432
  },
  {
    "name": "Lieberose",
    "country": "DE",
    "lat": 51.98491,
    "lng": 14.29987
  },
  {
    "name": "Liebenwalde",
    "country": "DE",
    "lat": 52.87125,
    "lng": 13.39465
  },
  {
    "name": "Liebenburg",
    "country": "DE",
    "lat": 52.02176,
    "lng": 10.43169
  },
  {
    "name": "Liebenau",
    "country": "DE",
    "lat": 52.60362,
    "lng": 9.09719
  },
  {
    "name": "Liebenau",
    "country": "DE",
    "lat": 51.49699,
    "lng": 9.28207
  },
  {
    "name": "Ließem",
    "country": "DE",
    "lat": 50.64752,
    "lng": 7.15877
  },
  {
    "name": "Lichterfelde",
    "country": "DE",
    "lat": 52.4333,
    "lng": 13.30762
  },
  {
    "name": "Lichtentanne",
    "country": "DE",
    "lat": 50.69255,
    "lng": 12.42585
  },
  {
    "name": "Lichtenstein",
    "country": "DE",
    "lat": 50.75659,
    "lng": 12.63025
  },
  {
    "name": "Lichtenrade",
    "country": "DE",
    "lat": 52.39844,
    "lng": 13.40637
  },
  {
    "name": "Lichtenfels",
    "country": "DE",
    "lat": 50.14567,
    "lng": 11.05928
  },
  {
    "name": "Lichtenberg",
    "country": "DE",
    "lat": 52.51395,
    "lng": 13.49975
  },
  {
    "name": "Lichtenberg",
    "country": "DE",
    "lat": 51.18333,
    "lng": 13.96667
  },
  {
    "name": "Lichtenberg",
    "country": "DE",
    "lat": 50.83492,
    "lng": 13.42478
  },
  {
    "name": "Lichtenberg",
    "country": "DE",
    "lat": 50.38335,
    "lng": 11.67624
  },
  {
    "name": "Lichtenau",
    "country": "DE",
    "lat": 51.61707,
    "lng": 8.89665
  },
  {
    "name": "Lichtenau",
    "country": "DE",
    "lat": 49.15979,
    "lng": 10.37935
  },
  {
    "name": "Lichtenau",
    "country": "DE",
    "lat": 48.72607,
    "lng": 8.00486
  },
  {
    "name": "Lichte",
    "country": "DE",
    "lat": 50.5177,
    "lng": 11.18483
  },
  {
    "name": "Lich",
    "country": "DE",
    "lat": 50.52085,
    "lng": 8.81567
  },
  {
    "name": "Liederbach",
    "country": "DE",
    "lat": 50.12221,
    "lng": 8.49397
  },
  {
    "name": "Linkenheim-Hochstetten",
    "country": "DE",
    "lat": 49.13197,
    "lng": 8.41244
  },
  {
    "name": "Liseleje",
    "country": "DK",
    "lat": 56.01295,
    "lng": 11.96544
  },
  {
    "name": "Lisbjerg",
    "country": "DK",
    "lat": 56.22075,
    "lng": 10.16861
  },
  {
    "name": "Lind",
    "country": "DK",
    "lat": 56.106,
    "lng": 8.97915
  },
  {
    "name": "Lille Skensved",
    "country": "DK",
    "lat": 55.50977,
    "lng": 12.13506
  },
  {
    "name": "Lillerød",
    "country": "DK",
    "lat": 55.87496,
    "lng": 12.34579
  },
  {
    "name": "Licey al Medio",
    "country": "DO",
    "lat": 19.43333,
    "lng": -70.6
  },
  {
    "name": "Limoncocha",
    "country": "EC",
    "lat": -0.41053,
    "lng": -76.62387
  },
  {
    "name": "Licto",
    "country": "EC",
    "lat": -1.80539,
    "lng": -78.60409
  },
  {
    "name": "Lincán",
    "country": "EC",
    "lat": -1.65284,
    "lng": -78.70592
  },
  {
    "name": "Linaküla",
    "country": "EE",
    "lat": 58.13722,
    "lng": 23.97444
  },
  {
    "name": "Liiva",
    "country": "EE",
    "lat": 58.60194,
    "lng": 23.24694
  },
  {
    "name": "Lihula",
    "country": "EE",
    "lat": 58.68139,
    "lng": 23.84528
  },
  {
    "name": "Linares de la Sierra",
    "country": "ES",
    "lat": 37.87963,
    "lng": -6.62321
  },
  {
    "name": "Linares",
    "country": "ES",
    "lat": 38.09519,
    "lng": -3.63602
  },
  {
    "name": "Lillo",
    "country": "ES",
    "lat": 39.72331,
    "lng": -3.30618
  },
  {
    "name": "Liétor",
    "country": "ES",
    "lat": 38.54267,
    "lng": -1.95367
  },
  {
    "name": "Librilla",
    "country": "ES",
    "lat": 37.88642,
    "lng": -1.35557
  },
  {
    "name": "Lizoáin",
    "country": "ES",
    "lat": 42.79868,
    "lng": -1.46753
  },
  {
    "name": "Lizartza",
    "country": "ES",
    "lat": 43.10236,
    "lng": -2.03489
  },
  {
    "name": "Lituénigo",
    "country": "ES",
    "lat": 41.83533,
    "lng": -1.76196
  },
  {
    "name": "Litago",
    "country": "ES",
    "lat": 41.81407,
    "lng": -1.75276
  },
  {
    "name": "Linyola",
    "country": "ES",
    "lat": 41.7,
    "lng": 0.91667
  },
  {
    "name": "Linares de Riofrío",
    "country": "ES",
    "lat": 40.58338,
    "lng": -5.92091
  },
  {
    "name": "Linares de Mora",
    "country": "ES",
    "lat": 40.32159,
    "lng": -0.57468
  },
  {
    "name": "Limpias",
    "country": "ES",
    "lat": 43.36402,
    "lng": -3.41778
  },
  {
    "name": "Liédena",
    "country": "ES",
    "lat": 42.61943,
    "lng": -1.27579
  },
  {
    "name": "Lidón",
    "country": "ES",
    "lat": 40.71725,
    "lng": -1.1125
  },
  {
    "name": "Liceras",
    "country": "ES",
    "lat": 41.37939,
    "lng": -3.24371
  },
  {
    "name": "Libros",
    "country": "ES",
    "lat": 40.16311,
    "lng": -1.23361
  },
  {
    "name": "Liendo",
    "country": "ES",
    "lat": 43.4008,
    "lng": -3.37029
  },
  {
    "name": "Liérganes",
    "country": "ES",
    "lat": 43.34614,
    "lng": -3.74668
  },
  {
    "name": "Lista",
    "country": "ES",
    "lat": 40.43202,
    "lng": -3.67583
  },
  {
    "name": "Linnanmaa",
    "country": "FI",
    "lat": 65.05559,
    "lng": 25.46639
  },
  {
    "name": "Liperi",
    "country": "FI",
    "lat": 62.53333,
    "lng": 29.36667
  },
  {
    "name": "Liminka",
    "country": "FI",
    "lat": 64.80985,
    "lng": 25.41545
  },
  {
    "name": "Liljendal",
    "country": "FI",
    "lat": 60.57346,
    "lng": 26.05257
  },
  {
    "name": "Lieto",
    "country": "FI",
    "lat": 60.51032,
    "lng": 22.46176
  },
  {
    "name": "Lieksa",
    "country": "FI",
    "lat": 63.31667,
    "lng": 30.01667
  },
  {
    "name": "Lintuvaara",
    "country": "FI",
    "lat": 60.2344,
    "lng": 24.81348
  },
  {
    "name": "Linnainmaa",
    "country": "FI",
    "lat": 61.49502,
    "lng": 23.88617
  },
  {
    "name": "Lippajärvi",
    "country": "FI",
    "lat": 60.23052,
    "lng": 24.71623
  },
  {
    "name": "Lintulampi",
    "country": "FI",
    "lat": 61.52696,
    "lng": 23.6706
  },
  {
    "name": "Linnoitus",
    "country": "FI",
    "lat": 61.06647,
    "lng": 28.18225
  },
  {
    "name": "Lidmalmen",
    "country": "FI",
    "lat": 60.26801,
    "lng": 24.99878
  },
  {
    "name": "Linjat",
    "country": "FI",
    "lat": 60.18331,
    "lng": 24.9465
  },
  {
    "name": "Liisankallio",
    "country": "FI",
    "lat": 61.4991,
    "lng": 23.7923
  },
  {
    "name": "Limingantulli",
    "country": "FI",
    "lat": 64.99598,
    "lng": 25.46452
  },
  {
    "name": "Lizy-sur-Ourcq",
    "country": "FR",
    "lat": 49.02454,
    "lng": 3.02178
  },
  {
    "name": "Livry-sur-Seine",
    "country": "FR",
    "lat": 48.51771,
    "lng": 2.67879
  },
  {
    "name": "Livry-Gargan",
    "country": "FR",
    "lat": 48.9193,
    "lng": 2.54305
  },
  {
    "name": "Livron-sur-Drôme",
    "country": "FR",
    "lat": 44.77689,
    "lng": 4.8418
  },
  {
    "name": "Livré-sur-Changeon",
    "country": "FR",
    "lat": 48.21919,
    "lng": -1.34409
  },
  {
    "name": "Livinhac-le-Haut",
    "country": "FR",
    "lat": 44.59212,
    "lng": 2.23117
  },
  {
    "name": "Livet-et-Gavet",
    "country": "FR",
    "lat": 45.10782,
    "lng": 5.93333
  },
  {
    "name": "Liverdy-en-Brie",
    "country": "FR",
    "lat": 48.69987,
    "lng": 2.77606
  },
  {
    "name": "Liverdun",
    "country": "FR",
    "lat": 48.74973,
    "lng": 6.06372
  },
  {
    "name": "Livarot",
    "country": "FR",
    "lat": 49.005,
    "lng": 0.1502
  },
  {
    "name": "Lit-et-Mixe",
    "country": "FR",
    "lat": 44.03242,
    "lng": -1.25687
  },
  {
    "name": "Listrac-Médoc",
    "country": "FR",
    "lat": 45.07417,
    "lng": -0.79167
  },
  {
    "name": "Lissieu",
    "country": "FR",
    "lat": 45.86487,
    "lng": 4.74221
  },
  {
    "name": "Lisses",
    "country": "FR",
    "lat": 48.60222,
    "lng": 2.42245
  },
  {
    "name": "Lisle-sur-Tarn",
    "country": "FR",
    "lat": 43.85347,
    "lng": 1.80983
  },
  {
    "name": "Lisieux",
    "country": "FR",
    "lat": 49.1466,
    "lng": 0.22925
  },
  {
    "name": "Liré",
    "country": "FR",
    "lat": 47.34322,
    "lng": -1.16536
  },
  {
    "name": "Lipsheim",
    "country": "FR",
    "lat": 48.49164,
    "lng": 7.66751
  },
  {
    "name": "Lion-sur-Mer",
    "country": "FR",
    "lat": 49.30018,
    "lng": -0.32157
  },
  {
    "name": "Linxe",
    "country": "FR",
    "lat": 43.92088,
    "lng": -1.24707
  },
  {
    "name": "Linselles",
    "country": "FR",
    "lat": 50.73708,
    "lng": 3.07878
  },
  {
    "name": "Linguizzetta",
    "country": "FR",
    "lat": 42.26384,
    "lng": 9.47297
  },
  {
    "name": "Lingolsheim",
    "country": "FR",
    "lat": 48.55752,
    "lng": 7.68253
  },
  {
    "name": "Linas",
    "country": "FR",
    "lat": 48.63041,
    "lng": 2.26266
  },
  {
    "name": "Linars",
    "country": "FR",
    "lat": 45.65784,
    "lng": 0.08673
  },
  {
    "name": "Linards",
    "country": "FR",
    "lat": 45.70148,
    "lng": 1.53125
  },
  {
    "name": "Limoux",
    "country": "FR",
    "lat": 43.05487,
    "lng": 2.22173
  },
  {
    "name": "Limours",
    "country": "FR",
    "lat": 48.64625,
    "lng": 2.07688
  },
  {
    "name": "Limonest",
    "country": "FR",
    "lat": 45.83702,
    "lng": 4.77188
  },
  {
    "name": "Limoges",
    "country": "FR",
    "lat": 45.83362,
    "lng": 1.24759
  },
  {
    "name": "Limetz-Villez",
    "country": "FR",
    "lat": 49.06667,
    "lng": 1.55
  },
  {
    "name": "Limésy",
    "country": "FR",
    "lat": 49.61271,
    "lng": 0.92483
  },
  {
    "name": "Limerzel",
    "country": "FR",
    "lat": 47.63646,
    "lng": -2.35427
  },
  {
    "name": "Limeil-Brévannes",
    "country": "FR",
    "lat": 48.7448,
    "lng": 2.48705
  },
  {
    "name": "Limay",
    "country": "FR",
    "lat": 48.99553,
    "lng": 1.74081
  },
  {
    "name": "Limas",
    "country": "FR",
    "lat": 45.97558,
    "lng": 4.7055
  },
  {
    "name": "Lillers",
    "country": "FR",
    "lat": 50.56345,
    "lng": 2.48042
  },
  {
    "name": "Lillebonne",
    "country": "FR",
    "lat": 49.5203,
    "lng": 0.53617
  },
  {
    "name": "Lille",
    "country": "FR",
    "lat": 50.63391,
    "lng": 3.05512
  },
  {
    "name": "Ligugé",
    "country": "FR",
    "lat": 46.51984,
    "lng": 0.32665
  },
  {
    "name": "Ligueil",
    "country": "FR",
    "lat": 47.0421,
    "lng": 0.81893
  },
  {
    "name": "Ligré",
    "country": "FR",
    "lat": 47.11185,
    "lng": 0.27562
  },
  {
    "name": "Ligny-le-Ribault",
    "country": "FR",
    "lat": 47.68419,
    "lng": 1.78153
  },
  {
    "name": "Ligny-le-Châtel",
    "country": "FR",
    "lat": 47.90022,
    "lng": 3.7576
  },
  {
    "name": "Ligny-en-Cambrésis",
    "country": "FR",
    "lat": 50.10123,
    "lng": 3.37841
  },
  {
    "name": "Ligny-en-Barrois",
    "country": "FR",
    "lat": 48.68861,
    "lng": 5.32543
  },
  {
    "name": "Lignières",
    "country": "FR",
    "lat": 46.75152,
    "lng": 2.17381
  },
  {
    "name": "Ligné",
    "country": "FR",
    "lat": 47.41148,
    "lng": -1.37796
  },
  {
    "name": "Lignan-sur-Orb",
    "country": "FR",
    "lat": 43.38395,
    "lng": 3.16981
  },
  {
    "name": "Liffré",
    "country": "FR",
    "lat": 48.21371,
    "lng": -1.50898
  },
  {
    "name": "Liffol-le-Grand",
    "country": "FR",
    "lat": 48.31771,
    "lng": 5.58125
  },
  {
    "name": "Liévin",
    "country": "FR",
    "lat": 50.4198,
    "lng": 2.78068
  },
  {
    "name": "Lieu-Saint-Amand",
    "country": "FR",
    "lat": 50.27318,
    "lng": 3.34624
  },
  {
    "name": "Lieusaint",
    "country": "FR",
    "lat": 48.63476,
    "lng": 2.54806
  },
  {
    "name": "Lieurey",
    "country": "FR",
    "lat": 49.23019,
    "lng": 0.49879
  },
  {
    "name": "Lieuran-lès-Béziers",
    "country": "FR",
    "lat": 43.41869,
    "lng": 3.23686
  },
  {
    "name": "Liesse-Notre-Dame",
    "country": "FR",
    "lat": 49.61667,
    "lng": 3.8
  },
  {
    "name": "Liergues",
    "country": "FR",
    "lat": 45.97138,
    "lng": 4.66231
  },
  {
    "name": "Lièpvre",
    "country": "FR",
    "lat": 48.27166,
    "lng": 7.28229
  },
  {
    "name": "Licques",
    "country": "FR",
    "lat": 50.78416,
    "lng": 1.93844
  },
  {
    "name": "Libourne",
    "country": "FR",
    "lat": 44.91449,
    "lng": -0.24186
  },
  {
    "name": "Libercourt",
    "country": "FR",
    "lat": 50.48322,
    "lng": 3.01584
  },
  {
    "name": "Liancourt",
    "country": "FR",
    "lat": 49.33034,
    "lng": 2.46595
  },
  {
    "name": "Libreville",
    "country": "GA",
    "lat": 0.39241,
    "lng": 9.45356
  },
  {
    "name": "Livingston",
    "country": "GB",
    "lat": 55.90288,
    "lng": -3.52261
  },
  {
    "name": "Liversedge",
    "country": "GB",
    "lat": 53.70514,
    "lng": -1.69327
  },
  {
    "name": "Liverpool",
    "country": "GB",
    "lat": 53.41058,
    "lng": -2.97794
  },
  {
    "name": "Little Weighton",
    "country": "GB",
    "lat": 53.79021,
    "lng": -0.50679
  },
  {
    "name": "Littleport",
    "country": "GB",
    "lat": 52.45784,
    "lng": 0.30603
  },
  {
    "name": "Little Paxton",
    "country": "GB",
    "lat": 52.25045,
    "lng": -0.25801
  },
  {
    "name": "Little Marlow",
    "country": "GB",
    "lat": 51.584,
    "lng": -0.74046
  },
  {
    "name": "Little Lever",
    "country": "GB",
    "lat": 53.56346,
    "lng": -2.37803
  },
  {
    "name": "Little Hulton",
    "country": "GB",
    "lat": 53.53333,
    "lng": -2.41667
  },
  {
    "name": "Little Houghton",
    "country": "GB",
    "lat": 53.54576,
    "lng": -1.35999
  },
  {
    "name": "Littlehampton",
    "country": "GB",
    "lat": 50.81137,
    "lng": -0.54078
  },
  {
    "name": "Little Eaton",
    "country": "GB",
    "lat": 52.97028,
    "lng": -1.4595
  },
  {
    "name": "Little Dunmow",
    "country": "GB",
    "lat": 51.86096,
    "lng": 0.41478
  },
  {
    "name": "Little Clacton",
    "country": "GB",
    "lat": 51.82557,
    "lng": 1.14215
  },
  {
    "name": "Littlebourne",
    "country": "GB",
    "lat": 51.27445,
    "lng": 1.16687
  },
  {
    "name": "Littleborough",
    "country": "GB",
    "lat": 53.64413,
    "lng": -2.09581
  },
  {
    "name": "Little Bookham",
    "country": "GB",
    "lat": 51.2806,
    "lng": -0.39066
  },
  {
    "name": "Little Barford",
    "country": "GB",
    "lat": 52.19898,
    "lng": -0.2729
  },
  {
    "name": "Little Amwell",
    "country": "GB",
    "lat": 51.78333,
    "lng": -0.03333
  },
  {
    "name": "Litherland",
    "country": "GB",
    "lat": 53.46993,
    "lng": -2.99809
  },
  {
    "name": "Liss",
    "country": "GB",
    "lat": 51.04277,
    "lng": -0.89238
  },
  {
    "name": "Lisnaskea",
    "country": "GB",
    "lat": 54.25,
    "lng": -7.45
  },
  {
    "name": "Liskeard",
    "country": "GB",
    "lat": 50.4545,
    "lng": -4.46517
  },
  {
    "name": "Lisburn",
    "country": "GB",
    "lat": 54.52337,
    "lng": -6.03527
  },
  {
    "name": "Liphook",
    "country": "GB",
    "lat": 51.07673,
    "lng": -0.8032
  },
  {
    "name": "Linton upon Ouse",
    "country": "GB",
    "lat": 54.04639,
    "lng": -1.2492
  },
  {
    "name": "Linton",
    "country": "GB",
    "lat": 52.09783,
    "lng": 0.27672
  },
  {
    "name": "Linton",
    "country": "GB",
    "lat": 51.92529,
    "lng": -2.49669
  },
  {
    "name": "Linthwaite",
    "country": "GB",
    "lat": 53.62418,
    "lng": -1.85017
  },
  {
    "name": "Linlithgow",
    "country": "GB",
    "lat": 55.97639,
    "lng": -3.60364
  },
  {
    "name": "Lingwood",
    "country": "GB",
    "lat": 52.62104,
    "lng": 1.48616
  },
  {
    "name": "Lingfield",
    "country": "GB",
    "lat": 51.17719,
    "lng": -0.01558
  },
  {
    "name": "Lingen",
    "country": "GB",
    "lat": 52.3,
    "lng": -2.93333
  },
  {
    "name": "Lingdale",
    "country": "GB",
    "lat": 54.53787,
    "lng": -0.95864
  },
  {
    "name": "Lincoln",
    "country": "GB",
    "lat": 53.22683,
    "lng": -0.53792
  },
  {
    "name": "Limpley Stoke",
    "country": "GB",
    "lat": 51.34487,
    "lng": -2.31409
  },
  {
    "name": "Limekilns",
    "country": "GB",
    "lat": 56.03336,
    "lng": -3.47713
  },
  {
    "name": "Limehouse",
    "country": "GB",
    "lat": 51.51412,
    "lng": -0.03282
  },
  {
    "name": "Limavady",
    "country": "GB",
    "lat": 55.05045,
    "lng": -6.95074
  },
  {
    "name": "Lifton",
    "country": "GB",
    "lat": 50.64356,
    "lng": -4.28216
  },
  {
    "name": "Lidlington",
    "country": "GB",
    "lat": 52.04154,
    "lng": -0.55914
  },
  {
    "name": "Lichfield",
    "country": "GB",
    "lat": 52.68154,
    "lng": -1.82549
  },
  {
    "name": "Little Chalfont",
    "country": "GB",
    "lat": 51.66829,
    "lng": -0.57038
  },
  {
    "name": "Little Hallingbury",
    "country": "GB",
    "lat": 51.83324,
    "lng": 0.18151
  },
  {
    "name": "Lightwater",
    "country": "GB",
    "lat": 51.34846,
    "lng": -0.67147
  },
  {
    "name": "Linwood",
    "country": "GB",
    "lat": 55.84834,
    "lng": -4.49337
  },
  {
    "name": "Little Venice",
    "country": "GB",
    "lat": 51.52356,
    "lng": -0.18079
  },
  {
    "name": "Littlethorpe",
    "country": "GB",
    "lat": 52.56759,
    "lng": -1.20226
  },
  {
    "name": "Lixoúri",
    "country": "GR",
    "lat": 38.20133,
    "lng": 20.43706
  },
  {
    "name": "Livanátes",
    "country": "GR",
    "lat": 38.711,
    "lng": 23.0503
  },
  {
    "name": "Lithakiá",
    "country": "GR",
    "lat": 37.71935,
    "lng": 20.83013
  },
  {
    "name": "Limnokhórion",
    "country": "GR",
    "lat": 38.14115,
    "lng": 21.48047
  },
  {
    "name": "Limín Mesoyaías",
    "country": "GR",
    "lat": 37.89108,
    "lng": 24.00307
  },
  {
    "name": "Limín Khersonísou",
    "country": "GR",
    "lat": 35.32297,
    "lng": 25.39275
  },
  {
    "name": "Ligourión",
    "country": "GR",
    "lat": 37.61233,
    "lng": 23.03773
  },
  {
    "name": "Lidoríki",
    "country": "GR",
    "lat": 38.52389,
    "lng": 22.19972
  },
  {
    "name": "Lianokládhion",
    "country": "GR",
    "lat": 38.91655,
    "lng": 22.30336
  },
  {
    "name": "Livadeiá",
    "country": "GR",
    "lat": 38.43616,
    "lng": 22.87665
  },
  {
    "name": "Livádi",
    "country": "GR",
    "lat": 40.12625,
    "lng": 22.15753
  },
  {
    "name": "Livaderó",
    "country": "GR",
    "lat": 40.03455,
    "lng": 21.94279
  },
  {
    "name": "Litóchoro",
    "country": "GR",
    "lat": 40.10056,
    "lng": 22.49778
  },
  {
    "name": "Lití",
    "country": "GR",
    "lat": 40.74533,
    "lng": 22.97982
  },
  {
    "name": "Limenária",
    "country": "GR",
    "lat": 40.62741,
    "lng": 24.5765
  },
  {
    "name": "Lianovérgi",
    "country": "GR",
    "lat": 40.63526,
    "lng": 22.5082
  },
  {
    "name": "Linden",
    "country": "GY",
    "lat": 6.00815,
    "lng": -58.30724
  },
  {
    "name": "Liberte",
    "country": "HK",
    "lat": 22.33465,
    "lng": 114.14886
  },
  {
    "name": "Liure",
    "country": "HN",
    "lat": 13.53583,
    "lng": -87.09194
  },
  {
    "name": "Ližnjan",
    "country": "HR",
    "lat": 44.82833,
    "lng": 13.95694
  },
  {
    "name": "Lišane Ostrovičke",
    "country": "HR",
    "lat": 43.97334,
    "lng": 15.76073
  },
  {
    "name": "Lipik",
    "country": "HR",
    "lat": 45.41139,
    "lng": 17.15222
  },
  {
    "name": "Lički Osik",
    "country": "HR",
    "lat": 44.60389,
    "lng": 15.42472
  },
  {
    "name": "Lipovljani",
    "country": "HR",
    "lat": 45.39667,
    "lng": 16.88972
  },
  {
    "name": "Lipošćaki",
    "country": "HR",
    "lat": 45.40018,
    "lng": 15.27985
  },
  {
    "name": "Liberpolis",
    "country": "HR",
    "lat": 45.77468,
    "lng": 18.88007
  },
  {
    "name": "Limonade",
    "country": "HT",
    "lat": 19.67014,
    "lng": -72.1243
  },
  {
    "name": "Litér",
    "country": "HU",
    "lat": 47.10104,
    "lng": 18.00454
  },
  {
    "name": "Lipótváros",
    "country": "HU",
    "lat": 47.50243,
    "lng": 19.0493
  },
  {
    "name": "Liptáktelep",
    "country": "HU",
    "lat": 47.44646,
    "lng": 19.1604
  },
  {
    "name": "Ligettelek",
    "country": "HU",
    "lat": 47.49308,
    "lng": 19.1285
  },
  {
    "name": "Lintongnihuta",
    "country": "ID",
    "lat": 2.276,
    "lng": 98.866
  },
  {
    "name": "Limapuluh",
    "country": "ID",
    "lat": 3.1689,
    "lng": 99.4175
  },
  {
    "name": "Liwa",
    "country": "ID",
    "lat": -5.03554,
    "lng": 104.07595
  },
  {
    "name": "Lirung",
    "country": "ID",
    "lat": 3.93735,
    "lng": 126.6957
  },
  {
    "name": "Limboto",
    "country": "ID",
    "lat": 0.627,
    "lng": 122.9778
  },
  {
    "name": "Likupang",
    "country": "ID",
    "lat": 1.6722,
    "lng": 125.06104
  },
  {
    "name": "Limusnunggal",
    "country": "ID",
    "lat": -7.5039,
    "lng": 108.4022
  },
  {
    "name": "Likioen",
    "country": "ID",
    "lat": -10.7484,
    "lng": 123.0446
  },
  {
    "name": "Listowel",
    "country": "IE",
    "lat": 52.44639,
    "lng": -9.485
  },
  {
    "name": "Lismore",
    "country": "IE",
    "lat": 52.13667,
    "lng": -7.93083
  },
  {
    "name": "Limerick",
    "country": "IE",
    "lat": 52.66472,
    "lng": -8.62306
  },
  {
    "name": "Little Bray",
    "country": "IE",
    "lat": 53.20444,
    "lng": -6.12083
  },
  {
    "name": "Li On",
    "country": "IL",
    "lat": 31.67744,
    "lng": 34.93464
  },
  {
    "name": "Lingsugūr",
    "country": "IN",
    "lat": 16.15876,
    "lng": 76.52174
  },
  {
    "name": "Limodra",
    "country": "IN",
    "lat": 21.3554,
    "lng": 73.00648
  },
  {
    "name": "Limbdi",
    "country": "IN",
    "lat": 22.56507,
    "lng": 71.81076
  },
  {
    "name": "Lilia",
    "country": "IN",
    "lat": 21.53678,
    "lng": 71.36362
  },
  {
    "name": "Libāspur",
    "country": "IN",
    "lat": 28.75089,
    "lng": 77.14647
  },
  {
    "name": "Limbodi",
    "country": "IN",
    "lat": 22.66656,
    "lng": 75.88997
  },
  {
    "name": "Lingiādīh",
    "country": "IN",
    "lat": 22.07748,
    "lng": 82.17605
  },
  {
    "name": "Lido Tikok",
    "country": "IN",
    "lat": 27.288,
    "lng": 95.73579
  },
  {
    "name": "Lido Town",
    "country": "IN",
    "lat": 27.29402,
    "lng": 95.74175
  },
  {
    "name": "Limla",
    "country": "IN",
    "lat": 21.18551,
    "lng": 72.70298
  },
  {
    "name": "Lipari",
    "country": "IT",
    "lat": 38.46743,
    "lng": 14.95398
  },
  {
    "name": "Linguaglossa",
    "country": "IT",
    "lat": 37.84243,
    "lng": 15.13774
  },
  {
    "name": "Linera",
    "country": "IT",
    "lat": 37.6638,
    "lng": 15.13653
  },
  {
    "name": "Limbadi-Caroni",
    "country": "IT",
    "lat": 38.55902,
    "lng": 15.96441
  },
  {
    "name": "Licodia Eubea",
    "country": "IT",
    "lat": 37.15674,
    "lng": 14.70555
  },
  {
    "name": "Licata",
    "country": "IT",
    "lat": 37.10267,
    "lng": 13.93972
  },
  {
    "name": "Librizzi",
    "country": "IT",
    "lat": 38.09719,
    "lng": 14.95909
  },
  {
    "name": "Lizzano in Belvedere",
    "country": "IT",
    "lat": 44.16135,
    "lng": 10.89408
  },
  {
    "name": "Lizzano",
    "country": "IT",
    "lat": 40.39301,
    "lng": 17.44571
  },
  {
    "name": "Lizzanello",
    "country": "IT",
    "lat": 40.30475,
    "lng": 18.22283
  },
  {
    "name": "Livorno Ferraris",
    "country": "IT",
    "lat": 45.28271,
    "lng": 8.0778
  },
  {
    "name": "Livorno",
    "country": "IT",
    "lat": 43.54427,
    "lng": 10.32615
  },
  {
    "name": "Livo",
    "country": "IT",
    "lat": 46.40471,
    "lng": 11.01927
  },
  {
    "name": "Livo",
    "country": "IT",
    "lat": 46.16849,
    "lng": 9.30414
  },
  {
    "name": "Livinallongo del Col di Lana",
    "country": "IT",
    "lat": 46.48162,
    "lng": 11.95399
  },
  {
    "name": "Livigno",
    "country": "IT",
    "lat": 46.5363,
    "lng": 10.13348
  },
  {
    "name": "Liveri",
    "country": "IT",
    "lat": 40.90406,
    "lng": 14.56536
  },
  {
    "name": "Lissone",
    "country": "IT",
    "lat": 45.61236,
    "lng": 9.23985
  },
  {
    "name": "Liscate",
    "country": "IT",
    "lat": 45.48316,
    "lng": 9.4103
  },
  {
    "name": "Lioni",
    "country": "IT",
    "lat": 40.88083,
    "lng": 15.18335
  },
  {
    "name": "Linate",
    "country": "IT",
    "lat": 45.44701,
    "lng": 9.27229
  },
  {
    "name": "Limosano",
    "country": "IT",
    "lat": 41.67554,
    "lng": 14.6223
  },
  {
    "name": "Limone sul Garda",
    "country": "IT",
    "lat": 45.8145,
    "lng": 10.79278
  },
  {
    "name": "Limone Piemonte",
    "country": "IT",
    "lat": 44.20091,
    "lng": 7.57861
  },
  {
    "name": "Limiti di Greccio",
    "country": "IT",
    "lat": 42.45329,
    "lng": 12.76955
  },
  {
    "name": "Limite",
    "country": "IT",
    "lat": 43.7445,
    "lng": 10.97996
  },
  {
    "name": "Limena",
    "country": "IT",
    "lat": 45.46948,
    "lng": 11.84574
  },
  {
    "name": "Limbiate",
    "country": "IT",
    "lat": 45.59951,
    "lng": 9.12509
  },
  {
    "name": "Limatola",
    "country": "IT",
    "lat": 41.14012,
    "lng": 14.39437
  },
  {
    "name": "Lillianes",
    "country": "IT",
    "lat": 45.62948,
    "lng": 7.84126
  },
  {
    "name": "Ligosullo",
    "country": "IT",
    "lat": 46.54008,
    "lng": 13.07547
  },
  {
    "name": "Ligonchio",
    "country": "IT",
    "lat": 44.31635,
    "lng": 10.34224
  },
  {
    "name": "Lignano Sabbiadoro",
    "country": "IT",
    "lat": 45.6759,
    "lng": 13.11727
  },
  {
    "name": "Lignana",
    "country": "IT",
    "lat": 45.28606,
    "lng": 8.34393
  },
  {
    "name": "Lierna",
    "country": "IT",
    "lat": 45.95818,
    "lng": 9.30513
  },
  {
    "name": "Lido di Ostia",
    "country": "IT",
    "lat": 41.73212,
    "lng": 12.27654
  },
  {
    "name": "Lido di Jesolo",
    "country": "IT",
    "lat": 45.50694,
    "lng": 12.64694
  },
  {
    "name": "Lido",
    "country": "IT",
    "lat": 45.4105,
    "lng": 12.36649
  },
  {
    "name": "Licusati",
    "country": "IT",
    "lat": 40.0541,
    "lng": 15.36437
  },
  {
    "name": "Licenza",
    "country": "IT",
    "lat": 42.07413,
    "lng": 12.90008
  },
  {
    "name": "Licciana Nardi",
    "country": "IT",
    "lat": 44.26472,
    "lng": 10.03725
  },
  {
    "name": "Liberi",
    "country": "IT",
    "lat": 41.22648,
    "lng": 14.28985
  },
  {
    "name": "Li Punti-San Giovanni",
    "country": "IT",
    "lat": 40.76338,
    "lng": 8.489
  },
  {
    "name": "Lido Adriano",
    "country": "IT",
    "lat": 44.41673,
    "lng": 12.30552
  },
  {
    "name": "Lido degli Estensi",
    "country": "IT",
    "lat": 44.66639,
    "lng": 12.25
  },
  {
    "name": "Lido di Pomposa-Lido degli Scacchi",
    "country": "IT",
    "lat": 44.70667,
    "lng": 12.23611
  },
  {
    "name": "Limana",
    "country": "IT",
    "lat": 46.10039,
    "lng": 12.18552
  },
  {
    "name": "Lisignago",
    "country": "IT",
    "lat": 46.16061,
    "lng": 11.18768
  },
  {
    "name": "Limido Comasco",
    "country": "IT",
    "lat": 45.68917,
    "lng": 8.97984
  },
  {
    "name": "Lipomo",
    "country": "IT",
    "lat": 45.79288,
    "lng": 9.12024
  },
  {
    "name": "Linarolo",
    "country": "IT",
    "lat": 45.16236,
    "lng": 9.26995
  },
  {
    "name": "Lirio",
    "country": "IT",
    "lat": 44.99446,
    "lng": 9.25656
  },
  {
    "name": "Liscia",
    "country": "IT",
    "lat": 41.95524,
    "lng": 14.55532
  },
  {
    "name": "Lisciano Niccone",
    "country": "IT",
    "lat": 43.24684,
    "lng": 12.14305
  },
  {
    "name": "Limina",
    "country": "IT",
    "lat": 37.94076,
    "lng": 15.27119
  },
  {
    "name": "Livraga",
    "country": "IT",
    "lat": 45.19227,
    "lng": 9.54646
  },
  {
    "name": "Lisio",
    "country": "IT",
    "lat": 44.30713,
    "lng": 7.97874
  },
  {
    "name": "Lisanza",
    "country": "IT",
    "lat": 45.73926,
    "lng": 8.59852
  },
  {
    "name": "Lisiera",
    "country": "IT",
    "lat": 45.57848,
    "lng": 11.61178
  },
  {
    "name": "Lido dei Pini",
    "country": "IT",
    "lat": 41.5366,
    "lng": 12.58976
  },
  {
    "name": "Lido di Fermo",
    "country": "IT",
    "lat": 43.20556,
    "lng": 13.78467
  },
  {
    "name": "Limidi",
    "country": "IT",
    "lat": 44.76427,
    "lng": 10.92002
  },
  {
    "name": "Litta Parodi-Cascinagrossa",
    "country": "IT",
    "lat": 44.87336,
    "lng": 8.71246
  },
  {
    "name": "Lido",
    "country": "IT",
    "lat": 40.19128,
    "lng": 16.70692
  },
  {
    "name": "Livera",
    "country": "IT",
    "lat": 45.61239,
    "lng": 8.10571
  },
  {
    "name": "Licinella-Torre di Paestum",
    "country": "IT",
    "lat": 40.40656,
    "lng": 14.99764
  },
  {
    "name": "Lionel Town",
    "country": "JM",
    "lat": 17.81007,
    "lng": -77.24061
  },
  {
    "name": "Linstead",
    "country": "JM",
    "lat": 18.13683,
    "lng": -77.03171
  },
  {
    "name": "Limit",
    "country": "JM",
    "lat": 18.15287,
    "lng": -77.47121
  },
  {
    "name": "Litein",
    "country": "KE",
    "lat": -0.58249,
    "lng": 35.18969
  },
  {
    "name": "Limuru",
    "country": "KE",
    "lat": -1.1136,
    "lng": 36.64205
  },
  {
    "name": "Limbi",
    "country": "KM",
    "lat": -12.23944,
    "lng": 44.50528
  },
  {
    "name": "Lingoni",
    "country": "KM",
    "lat": -12.25583,
    "lng": 44.41833
  },
  {
    "name": "Little Cayman",
    "country": "KY",
    "lat": 19.66114,
    "lng": -80.10984
  },
  {
    "name": "Lisakovsk",
    "country": "KZ",
    "lat": 52.54488,
    "lng": 62.49893
  },
  {
    "name": "Linkuva",
    "country": "LT",
    "lat": 56.08596,
    "lng": 23.97061
  },
  {
    "name": "Lintgen",
    "country": "LU",
    "lat": 49.72243,
    "lng": 6.13016
  },
  {
    "name": "Limpertsberg",
    "country": "LU",
    "lat": 49.62083,
    "lng": 6.12167
  },
  {
    "name": "Limbaži",
    "country": "LV",
    "lat": 57.51287,
    "lng": 24.71941
  },
  {
    "name": "Liezēre",
    "country": "LV",
    "lat": 57.01823,
    "lng": 26.06395
  },
  {
    "name": "Liepāja",
    "country": "LV",
    "lat": 56.50474,
    "lng": 21.01085
  },
  {
    "name": "Lielvārde",
    "country": "LV",
    "lat": 56.72066,
    "lng": 24.80743
  },
  {
    "name": "Lieģi",
    "country": "LV",
    "lat": 56.58173,
    "lng": 21.33399
  },
  {
    "name": "Lipci",
    "country": "ME",
    "lat": 42.49722,
    "lng": 18.65806
  },
  {
    "name": "Likiep",
    "country": "MH",
    "lat": 9.82511,
    "lng": 169.31065
  },
  {
    "name": "Lib",
    "country": "MH",
    "lat": 8.31221,
    "lng": 167.37662
  },
  {
    "name": "Lisičani",
    "country": "MK",
    "lat": 41.46139,
    "lng": 21.05444
  },
  {
    "name": "Lipkovo",
    "country": "MK",
    "lat": 42.15696,
    "lng": 21.58559
  },
  {
    "name": "Linhpa",
    "country": "MM",
    "lat": 25.80948,
    "lng": 95.53347
  },
  {
    "name": "Lija",
    "country": "MT",
    "lat": 35.90048,
    "lng": 14.44628
  },
  {
    "name": "Likoma",
    "country": "MW",
    "lat": -12.06667,
    "lng": 34.73333
  },
  {
    "name": "Liwonde",
    "country": "MW",
    "lat": -15.06665,
    "lng": 35.22543
  },
  {
    "name": "Livingstonia",
    "country": "MW",
    "lat": -10.60603,
    "lng": 34.10788
  },
  {
    "name": "Lilongwe",
    "country": "MW",
    "lat": -13.96692,
    "lng": 33.78725
  },
  {
    "name": "Linares",
    "country": "MX",
    "lat": 24.85798,
    "lng": -99.56768
  },
  {
    "name": "Limones",
    "country": "MX",
    "lat": 19.3382,
    "lng": -96.92336
  },
  {
    "name": "Libre Unión",
    "country": "MX",
    "lat": 20.70635,
    "lng": -88.80959
  },
  {
    "name": "Libres",
    "country": "MX",
    "lat": 19.46574,
    "lng": -97.68737
  },
  {
    "name": "Libertad Ventanas",
    "country": "MX",
    "lat": 15.53954,
    "lng": -92.27576
  },
  {
    "name": "Libertad",
    "country": "MX",
    "lat": 18.18117,
    "lng": -93.36875
  },
  {
    "name": "Libertad",
    "country": "MX",
    "lat": 17.83436,
    "lng": -93.41826
  },
  {
    "name": "Libertad",
    "country": "MX",
    "lat": 17.40964,
    "lng": -92.71443
  },
  {
    "name": "Libertad Melchor Ocampo",
    "country": "MX",
    "lat": 16.37389,
    "lng": -93.475
  },
  {
    "name": "Libertad Álvaro Obregón",
    "country": "MX",
    "lat": 19.13452,
    "lng": -97.76728
  },
  {
    "name": "Lindavista",
    "country": "MX",
    "lat": 18.08899,
    "lng": -95.77597
  },
  {
    "name": "Licenciado Gustavo Díaz Ordaz",
    "country": "MX",
    "lat": 30.97506,
    "lng": -116.15565
  },
  {
    "name": "Licenciado Benito Juárez",
    "country": "MX",
    "lat": 24.65667,
    "lng": -107.545
  },
  {
    "name": "Lindavista",
    "country": "MX",
    "lat": 20.02611,
    "lng": -98.79778
  },
  {
    "name": "Lipuntahuaca",
    "country": "MX",
    "lat": 20.09119,
    "lng": -97.63026
  },
  {
    "name": "Licenciado Gustavo Díaz Ordaz (18 de Marzo)",
    "country": "MX",
    "lat": 18.63222,
    "lng": -91.00278
  },
  {
    "name": "Lingga",
    "country": "MY",
    "lat": 1.35,
    "lng": 111.16667
  },
  {
    "name": "Limbang",
    "country": "MY",
    "lat": 4.75477,
    "lng": 115.01011
  },
  {
    "name": "Limbong",
    "country": "MY",
    "lat": 6.13333,
    "lng": 100.41667
  },
  {
    "name": "Linggi",
    "country": "MY",
    "lat": 2.4857,
    "lng": 102.0096
  },
  {
    "name": "Lidung Jelo",
    "country": "MY",
    "lat": 2.64848,
    "lng": 114.78653
  },
  {
    "name": "Lichinga",
    "country": "MZ",
    "lat": -13.31278,
    "lng": 35.24056
  },
  {
    "name": "Linyanti",
    "country": "NA",
    "lat": -18.07229,
    "lng": 24.01566
  },
  {
    "name": "Lissam",
    "country": "NG",
    "lat": 7.1961,
    "lng": 10.0462
  },
  {
    "name": "Lith",
    "country": "NL",
    "lat": 51.80583,
    "lng": 5.43889
  },
  {
    "name": "Lisserbroek",
    "country": "NL",
    "lat": 52.25667,
    "lng": 4.57222
  },
  {
    "name": "Lisse",
    "country": "NL",
    "lat": 52.26,
    "lng": 4.55694
  },
  {
    "name": "Linschoten",
    "country": "NL",
    "lat": 52.0625,
    "lng": 4.91528
  },
  {
    "name": "Linne",
    "country": "NL",
    "lat": 51.155,
    "lng": 5.93889
  },
  {
    "name": "Lindenholt",
    "country": "NL",
    "lat": 51.8327,
    "lng": 5.7934
  },
  {
    "name": "Lindenheuvel",
    "country": "NL",
    "lat": 50.98509,
    "lng": 5.81667
  },
  {
    "name": "Limmen",
    "country": "NL",
    "lat": 52.56917,
    "lng": 4.69444
  },
  {
    "name": "Limmel",
    "country": "NL",
    "lat": 50.86718,
    "lng": 5.70719
  },
  {
    "name": "Limbricht",
    "country": "NL",
    "lat": 51.01167,
    "lng": 5.8375
  },
  {
    "name": "Lievendaal",
    "country": "NL",
    "lat": 51.44219,
    "lng": 5.43405
  },
  {
    "name": "Liesveld",
    "country": "NL",
    "lat": 51.9325,
    "lng": 4.83194
  },
  {
    "name": "Liessel",
    "country": "NL",
    "lat": 51.41333,
    "lng": 5.82083
  },
  {
    "name": "Lieshout",
    "country": "NL",
    "lat": 51.52036,
    "lng": 5.59479
  },
  {
    "name": "Lierop",
    "country": "NL",
    "lat": 51.41917,
    "lng": 5.67917
  },
  {
    "name": "Lienden",
    "country": "NL",
    "lat": 51.94833,
    "lng": 5.51806
  },
  {
    "name": "Liempde",
    "country": "NL",
    "lat": 51.56917,
    "lng": 5.37222
  },
  {
    "name": "Lichtenvoorde",
    "country": "NL",
    "lat": 51.98667,
    "lng": 6.56667
  },
  {
    "name": "Lichtenberg",
    "country": "NL",
    "lat": 50.9022,
    "lng": 6.02523
  },
  {
    "name": "Lindås",
    "country": "NO",
    "lat": 60.73639,
    "lng": 5.16102
  },
  {
    "name": "Lillestrøm",
    "country": "NO",
    "lat": 59.95597,
    "lng": 11.04918
  },
  {
    "name": "Lillesand",
    "country": "NO",
    "lat": 58.24879,
    "lng": 8.3778
  },
  {
    "name": "Lillehammer",
    "country": "NO",
    "lat": 61.11514,
    "lng": 10.46628
  },
  {
    "name": "Liknes",
    "country": "NO",
    "lat": 58.31216,
    "lng": 6.9618
  },
  {
    "name": "Lierbyen",
    "country": "NO",
    "lat": 59.78651,
    "lng": 10.24447
  },
  {
    "name": "Lincoln",
    "country": "NZ",
    "lat": -43.65,
    "lng": 172.48333
  },
  {
    "name": "Lincoln",
    "country": "NZ",
    "lat": -36.8582,
    "lng": 174.62019
  },
  {
    "name": "Liwá",
    "country": "OM",
    "lat": 24.53077,
    "lng": 56.563
  },
  {
    "name": "Limones",
    "country": "PA",
    "lat": 8.10094,
    "lng": -82.86591
  },
  {
    "name": "Limón de Tijeras",
    "country": "PA",
    "lat": 7.82269,
    "lng": -80.91598
  },
  {
    "name": "Licupis",
    "country": "PE",
    "lat": -6.424,
    "lng": -79.24201
  },
  {
    "name": "Livitaca",
    "country": "PE",
    "lat": -14.31314,
    "lng": -71.68925
  },
  {
    "name": "Lircay",
    "country": "PE",
    "lat": -13.0,
    "lng": -74.71667
  },
  {
    "name": "Lincha",
    "country": "PE",
    "lat": -12.79861,
    "lng": -75.665
  },
  {
    "name": "Limbani",
    "country": "PE",
    "lat": -14.14959,
    "lng": -69.6908
  },
  {
    "name": "Limatambo",
    "country": "PE",
    "lat": -13.47975,
    "lng": -72.44327
  },
  {
    "name": "Lima",
    "country": "PE",
    "lat": -12.04318,
    "lng": -77.02824
  },
  {
    "name": "Lima Pampa",
    "country": "PE",
    "lat": -14.08976,
    "lng": -71.33664
  },
  {
    "name": "Limoncarro",
    "country": "PE",
    "lat": -7.3011,
    "lng": -79.4168
  },
  {
    "name": "Liwan",
    "country": "PH",
    "lat": 17.5191,
    "lng": 121.632
  },
  {
    "name": "Limbuhan",
    "country": "PH",
    "lat": 11.88377,
    "lng": 124.05011
  },
  {
    "name": "Little Baguio",
    "country": "PH",
    "lat": 7.89389,
    "lng": 125.27639
  },
  {
    "name": "Litayan",
    "country": "PH",
    "lat": 7.33583,
    "lng": 124.03472
  },
  {
    "name": "Lipayran",
    "country": "PH",
    "lat": 11.0593,
    "lng": 123.6342
  },
  {
    "name": "Lipay",
    "country": "PH",
    "lat": 15.4561,
    "lng": 119.9208
  },
  {
    "name": "Lipahan",
    "country": "PH",
    "lat": 13.83687,
    "lng": 121.40167
  },
  {
    "name": "Lipa City",
    "country": "PH",
    "lat": 13.9411,
    "lng": 121.1631
  },
  {
    "name": "Liozon",
    "country": "PH",
    "lat": 15.3993,
    "lng": 119.933
  },
  {
    "name": "Lintangan",
    "country": "PH",
    "lat": 7.21554,
    "lng": 121.952
  },
  {
    "name": "Linoan",
    "country": "PH",
    "lat": 7.626,
    "lng": 125.9741
  },
  {
    "name": "Linmansangan",
    "country": "PH",
    "lat": 15.8298,
    "lng": 120.29593
  },
  {
    "name": "Lingion",
    "country": "PH",
    "lat": 8.18806,
    "lng": 124.60972
  },
  {
    "name": "Lingig",
    "country": "PH",
    "lat": 8.03889,
    "lng": 126.4125
  },
  {
    "name": "Lingayen",
    "country": "PH",
    "lat": 16.02182,
    "lng": 120.23194
  },
  {
    "name": "Lingating",
    "country": "PH",
    "lat": 8.33167,
    "lng": 124.62889
  },
  {
    "name": "Lingasan",
    "country": "PH",
    "lat": 8.4966,
    "lng": 123.3997
  },
  {
    "name": "Linay",
    "country": "PH",
    "lat": 8.51667,
    "lng": 123.13333
  },
  {
    "name": "Linaon",
    "country": "PH",
    "lat": 9.9499,
    "lng": 122.4483
  },
  {
    "name": "Linao",
    "country": "PH",
    "lat": 7.16778,
    "lng": 124.9675
  },
  {
    "name": "Linao",
    "country": "PH",
    "lat": 7.0172,
    "lng": 125.992
  },
  {
    "name": "Linan",
    "country": "PH",
    "lat": 6.43218,
    "lng": 124.97617
  },
  {
    "name": "Linamon",
    "country": "PH",
    "lat": 8.18603,
    "lng": 124.16276
  },
  {
    "name": "Linabuan Sur",
    "country": "PH",
    "lat": 11.65111,
    "lng": 122.345
  },
  {
    "name": "Linabuan",
    "country": "PH",
    "lat": 11.651,
    "lng": 122.3575
  },
  {
    "name": "Linabo",
    "country": "PH",
    "lat": 8.05417,
    "lng": 125.155
  },
  {
    "name": "Limulan",
    "country": "PH",
    "lat": 6.58528,
    "lng": 124.06189
  },
  {
    "name": "Limpapa",
    "country": "PH",
    "lat": 7.11972,
    "lng": 121.91056
  },
  {
    "name": "Limot",
    "country": "PH",
    "lat": 7.0405,
    "lng": 126.27268
  },
  {
    "name": "Limon",
    "country": "PH",
    "lat": 12.3,
    "lng": 122.01667
  },
  {
    "name": "Limon",
    "country": "PH",
    "lat": 11.2889,
    "lng": 124.5671
  },
  {
    "name": "Limanancong",
    "country": "PH",
    "lat": 10.9893,
    "lng": 119.3593
  },
  {
    "name": "Limbo",
    "country": "PH",
    "lat": 7.25167,
    "lng": 124.24389
  },
  {
    "name": "Limbalod",
    "country": "PH",
    "lat": 7.13278,
    "lng": 124.79889
  },
  {
    "name": "Limbaan",
    "country": "PH",
    "lat": 7.6396,
    "lng": 125.8209
  },
  {
    "name": "Limay",
    "country": "PH",
    "lat": 14.56194,
    "lng": 120.59833
  },
  {
    "name": "Limaong",
    "country": "PH",
    "lat": 7.36056,
    "lng": 122.36639
  },
  {
    "name": "Limao",
    "country": "PH",
    "lat": 7.07917,
    "lng": 125.67361
  },
  {
    "name": "Liloy",
    "country": "PH",
    "lat": 8.11444,
    "lng": 122.65944
  },
  {
    "name": "Liloan",
    "country": "PH",
    "lat": 11.04417,
    "lng": 124.55056
  },
  {
    "name": "Liloan",
    "country": "PH",
    "lat": 10.3991,
    "lng": 123.9992
  },
  {
    "name": "Liloan",
    "country": "PH",
    "lat": 10.15811,
    "lng": 125.11806
  },
  {
    "name": "Lilio",
    "country": "PH",
    "lat": 14.1313,
    "lng": 121.4362
  },
  {
    "name": "Liliongan",
    "country": "PH",
    "lat": 7.36278,
    "lng": 124.79278
  },
  {
    "name": "Lila",
    "country": "PH",
    "lat": 9.5918,
    "lng": 124.0958
  },
  {
    "name": "Ligayan",
    "country": "PH",
    "lat": 4.65442,
    "lng": 119.47062
  },
  {
    "name": "Ligaya",
    "country": "PH",
    "lat": 15.5091,
    "lng": 121.2872
  },
  {
    "name": "Ligaya",
    "country": "PH",
    "lat": 12.65993,
    "lng": 120.89231
  },
  {
    "name": "Ligao",
    "country": "PH",
    "lat": 13.21697,
    "lng": 123.51924
  },
  {
    "name": "Lidlidda",
    "country": "PH",
    "lat": 17.2693,
    "lng": 120.5213
  },
  {
    "name": "Licuan",
    "country": "PH",
    "lat": 17.6089,
    "lng": 120.9059
  },
  {
    "name": "Liciada",
    "country": "PH",
    "lat": 14.91484,
    "lng": 120.93182
  },
  {
    "name": "Licab",
    "country": "PH",
    "lat": 15.5439,
    "lng": 120.7634
  },
  {
    "name": "Libungan",
    "country": "PH",
    "lat": 7.24083,
    "lng": 124.52
  },
  {
    "name": "Libuganon",
    "country": "PH",
    "lat": 7.3488,
    "lng": 125.7782
  },
  {
    "name": "Liboro",
    "country": "PH",
    "lat": 13.8245,
    "lng": 122.7295
  },
  {
    "name": "Liboran",
    "country": "PH",
    "lat": 8.35472,
    "lng": 124.64889
  },
  {
    "name": "Libona",
    "country": "PH",
    "lat": 8.33889,
    "lng": 124.73528
  },
  {
    "name": "Libon",
    "country": "PH",
    "lat": 13.2997,
    "lng": 123.4386
  },
  {
    "name": "Libog",
    "country": "PH",
    "lat": 13.2349,
    "lng": 123.7778
  },
  {
    "name": "Libmanan",
    "country": "PH",
    "lat": 13.6928,
    "lng": 123.0596
  },
  {
    "name": "Libjo",
    "country": "PH",
    "lat": 10.19778,
    "lng": 125.53528
  },
  {
    "name": "Liberty",
    "country": "PH",
    "lat": 10.87417,
    "lng": 125.0025
  },
  {
    "name": "Liberty",
    "country": "PH",
    "lat": 6.51989,
    "lng": 124.63194
  },
  {
    "name": "Liberty",
    "country": "PH",
    "lat": 6.45521,
    "lng": 124.98217
  },
  {
    "name": "Libertad",
    "country": "PH",
    "lat": 12.45412,
    "lng": 122.00828
  },
  {
    "name": "Libertad",
    "country": "PH",
    "lat": 11.7694,
    "lng": 121.919
  },
  {
    "name": "Libertad",
    "country": "PH",
    "lat": 11.03639,
    "lng": 124.56833
  },
  {
    "name": "Libertad",
    "country": "PH",
    "lat": 11.03528,
    "lng": 122.76944
  },
  {
    "name": "Libertad",
    "country": "PH",
    "lat": 11.0304,
    "lng": 124.0215
  },
  {
    "name": "Libertad",
    "country": "PH",
    "lat": 10.91667,
    "lng": 124.45
  },
  {
    "name": "Libertad",
    "country": "PH",
    "lat": 10.83333,
    "lng": 123.56667
  },
  {
    "name": "Libertad",
    "country": "PH",
    "lat": 8.94417,
    "lng": 125.50194
  },
  {
    "name": "Libertad",
    "country": "PH",
    "lat": 8.56111,
    "lng": 124.35139
  },
  {
    "name": "Libertad",
    "country": "PH",
    "lat": 8.2755,
    "lng": 123.8382
  },
  {
    "name": "Libertad",
    "country": "PH",
    "lat": 8.25,
    "lng": 124.23333
  },
  {
    "name": "Libertad",
    "country": "PH",
    "lat": 8.1075,
    "lng": 126.02639
  },
  {
    "name": "Libato",
    "country": "PH",
    "lat": 13.81514,
    "lng": 121.33463
  },
  {
    "name": "Libas",
    "country": "PH",
    "lat": 15.87789,
    "lng": 120.31633
  },
  {
    "name": "Libas",
    "country": "PH",
    "lat": 13.24167,
    "lng": 121.95555
  },
  {
    "name": "Libas",
    "country": "PH",
    "lat": 10.9388,
    "lng": 124.545
  },
  {
    "name": "Libas",
    "country": "PH",
    "lat": 9.88333,
    "lng": 125.98333
  },
  {
    "name": "Libas",
    "country": "PH",
    "lat": 6.52014,
    "lng": 124.78234
  },
  {
    "name": "Libagon",
    "country": "PH",
    "lat": 10.30083,
    "lng": 125.05583
  },
  {
    "name": "Libacao",
    "country": "PH",
    "lat": 11.4802,
    "lng": 122.30421
  },
  {
    "name": "Libacao",
    "country": "PH",
    "lat": 10.18,
    "lng": 122.9137
  },
  {
    "name": "Lianga",
    "country": "PH",
    "lat": 8.63361,
    "lng": 126.09472
  },
  {
    "name": "Lian",
    "country": "PH",
    "lat": 14.03364,
    "lng": 120.64928
  },
  {
    "name": "Lim-oo",
    "country": "PH",
    "lat": 11.15083,
    "lng": 124.63083
  },
  {
    "name": "Liliani",
    "country": "PK",
    "lat": 32.20393,
    "lng": 72.9512
  },
  {
    "name": "Liw",
    "country": "PL",
    "lat": 52.37515,
    "lng": 21.96768
  },
  {
    "name": "Lisia Góra",
    "country": "PL",
    "lat": 50.08039,
    "lng": 21.04397
  },
  {
    "name": "Lipsko",
    "country": "PL",
    "lat": 51.15954,
    "lng": 21.64933
  },
  {
    "name": "Lipsk",
    "country": "PL",
    "lat": 53.73312,
    "lng": 23.40225
  },
  {
    "name": "Lipowiec Kościelny",
    "country": "PL",
    "lat": 53.10459,
    "lng": 20.17639
  },
  {
    "name": "Lipinki",
    "country": "PL",
    "lat": 49.67296,
    "lng": 21.29288
  },
  {
    "name": "Lipnik",
    "country": "PL",
    "lat": 50.72977,
    "lng": 21.49389
  },
  {
    "name": "Lipnik",
    "country": "PL",
    "lat": 49.78902,
    "lng": 20.08455
  },
  {
    "name": "Lipnica Wielka",
    "country": "PL",
    "lat": 49.70489,
    "lng": 20.86844
  },
  {
    "name": "Lipnica",
    "country": "PL",
    "lat": 50.28939,
    "lng": 21.88811
  },
  {
    "name": "Limanowa",
    "country": "PL",
    "lat": 49.70594,
    "lng": 20.42204
  },
  {
    "name": "Lidzbark Warmiński",
    "country": "PL",
    "lat": 54.12588,
    "lng": 20.57954
  },
  {
    "name": "Liszki",
    "country": "PL",
    "lat": 50.03884,
    "lng": 19.76835
  },
  {
    "name": "Lisków",
    "country": "PL",
    "lat": 51.83313,
    "lng": 18.39789
  },
  {
    "name": "Lisewo Malborskie",
    "country": "PL",
    "lat": 54.09665,
    "lng": 18.82928
  },
  {
    "name": "Lisewo",
    "country": "PL",
    "lat": 53.2958,
    "lng": 18.68714
  },
  {
    "name": "Lipusz",
    "country": "PL",
    "lat": 54.09806,
    "lng": 17.78455
  },
  {
    "name": "Lipowa",
    "country": "PL",
    "lat": 49.67574,
    "lng": 19.09398
  },
  {
    "name": "Lipno",
    "country": "PL",
    "lat": 52.84436,
    "lng": 19.17852
  },
  {
    "name": "Lipno",
    "country": "PL",
    "lat": 51.91722,
    "lng": 16.56708
  },
  {
    "name": "Lipnica Wielka",
    "country": "PL",
    "lat": 49.47404,
    "lng": 19.63883
  },
  {
    "name": "Lipnica Mała",
    "country": "PL",
    "lat": 49.51507,
    "lng": 19.63497
  },
  {
    "name": "Lipnica",
    "country": "PL",
    "lat": 53.99623,
    "lng": 17.40702
  },
  {
    "name": "Lipka",
    "country": "PL",
    "lat": 53.49601,
    "lng": 17.25085
  },
  {
    "name": "Lipinki Łużyckie",
    "country": "PL",
    "lat": 51.63954,
    "lng": 14.99874
  },
  {
    "name": "Lipie",
    "country": "PL",
    "lat": 51.01257,
    "lng": 18.79658
  },
  {
    "name": "Lipiany",
    "country": "PL",
    "lat": 53.00336,
    "lng": 14.96919
  },
  {
    "name": "Lipce Reymontowskie",
    "country": "PL",
    "lat": 51.89863,
    "lng": 19.94173
  },
  {
    "name": "Liniewo",
    "country": "PL",
    "lat": 54.07661,
    "lng": 18.22675
  },
  {
    "name": "Linia",
    "country": "PL",
    "lat": 54.45143,
    "lng": 17.93454
  },
  {
    "name": "Ligota",
    "country": "PL",
    "lat": 49.89856,
    "lng": 18.9509
  },
  {
    "name": "Lidzbark",
    "country": "PL",
    "lat": 53.26283,
    "lng": 19.82663
  },
  {
    "name": "Licheń Stary",
    "country": "PL",
    "lat": 52.31226,
    "lng": 18.35515
  },
  {
    "name": "Libiąż",
    "country": "PL",
    "lat": 50.10396,
    "lng": 19.31568
  },
  {
    "name": "Libertów",
    "country": "PL",
    "lat": 49.97242,
    "lng": 19.89461
  },
  {
    "name": "Lipkowo",
    "country": "PL",
    "lat": 54.00075,
    "lng": 22.56191
  },
  {
    "name": "Liborio Negron Torres",
    "country": "PR",
    "lat": 18.04302,
    "lng": -66.9424
  },
  {
    "name": "Lisbon",
    "country": "PT",
    "lat": 38.72509,
    "lng": -9.1498
  },
  {
    "name": "Linhó",
    "country": "PT",
    "lat": 38.76603,
    "lng": -9.38289
  },
  {
    "name": "Linda-a-Velha",
    "country": "PT",
    "lat": 38.71446,
    "lng": -9.2422
  },
  {
    "name": "Limpio",
    "country": "PY",
    "lat": -25.16611,
    "lng": -57.48562
  },
  {
    "name": "Lima",
    "country": "PY",
    "lat": -23.88496,
    "lng": -56.47891
  },
  {
    "name": "Livezi-Vale",
    "country": "RO",
    "lat": 46.41667,
    "lng": 26.73333
  },
  {
    "name": "Livezile",
    "country": "RO",
    "lat": 47.18333,
    "lng": 24.56667
  },
  {
    "name": "Livezile",
    "country": "RO",
    "lat": 46.35,
    "lng": 23.63333
  },
  {
    "name": "Livezile",
    "country": "RO",
    "lat": 45.39026,
    "lng": 21.05794
  },
  {
    "name": "Livezile",
    "country": "RO",
    "lat": 44.51222,
    "lng": 22.86333
  },
  {
    "name": "Livezi",
    "country": "RO",
    "lat": 46.40639,
    "lng": 26.73613
  },
  {
    "name": "Livezi",
    "country": "RO",
    "lat": 44.84029,
    "lng": 23.82505
  },
  {
    "name": "Livezeni",
    "country": "RO",
    "lat": 46.55,
    "lng": 24.63333
  },
  {
    "name": "Livezeni",
    "country": "RO",
    "lat": 45.03838,
    "lng": 24.97676
  },
  {
    "name": "Livadia",
    "country": "RO",
    "lat": 45.20546,
    "lng": 24.24192
  },
  {
    "name": "Livadea",
    "country": "RO",
    "lat": 45.18663,
    "lng": 25.92805
  },
  {
    "name": "Livada de Bihor",
    "country": "RO",
    "lat": 47.01039,
    "lng": 21.80836
  },
  {
    "name": "Livada",
    "country": "RO",
    "lat": 47.86667,
    "lng": 23.13333
  },
  {
    "name": "Livada",
    "country": "RO",
    "lat": 46.22284,
    "lng": 21.38403
  },
  {
    "name": "Liubcova",
    "country": "RO",
    "lat": 44.65885,
    "lng": 21.89559
  },
  {
    "name": "Liteni",
    "country": "RO",
    "lat": 47.56667,
    "lng": 26.2
  },
  {
    "name": "Liteni",
    "country": "RO",
    "lat": 47.52049,
    "lng": 26.5283
  },
  {
    "name": "Liteni",
    "country": "RO",
    "lat": 47.30169,
    "lng": 27.03837
  },
  {
    "name": "Liţa",
    "country": "RO",
    "lat": 43.8,
    "lng": 24.81667
  },
  {
    "name": "Lișteava",
    "country": "RO",
    "lat": 43.83418,
    "lng": 23.92022
  },
  {
    "name": "Lisa",
    "country": "RO",
    "lat": 45.71667,
    "lng": 24.85
  },
  {
    "name": "Lisa",
    "country": "RO",
    "lat": 43.8,
    "lng": 25.13333
  },
  {
    "name": "Lipovu",
    "country": "RO",
    "lat": 44.1,
    "lng": 23.63333
  },
  {
    "name": "Lipovăţ",
    "country": "RO",
    "lat": 46.56667,
    "lng": 27.7
  },
  {
    "name": "Lipova",
    "country": "RO",
    "lat": 46.71667,
    "lng": 27.23333
  },
  {
    "name": "Lipova",
    "country": "RO",
    "lat": 46.09085,
    "lng": 21.69628
  },
  {
    "name": "Lipniţa",
    "country": "RO",
    "lat": 44.1,
    "lng": 27.6
  },
  {
    "name": "Lipia",
    "country": "RO",
    "lat": 45.1397,
    "lng": 26.73505
  },
  {
    "name": "Lipia",
    "country": "RO",
    "lat": 44.71003,
    "lng": 26.26445
  },
  {
    "name": "Lipăneşti",
    "country": "RO",
    "lat": 45.05,
    "lng": 26.01667
  },
  {
    "name": "Limpeziș",
    "country": "RO",
    "lat": 44.95357,
    "lng": 26.7049
  },
  {
    "name": "Limanu",
    "country": "RO",
    "lat": 43.8,
    "lng": 28.53333
  },
  {
    "name": "Liliești",
    "country": "RO",
    "lat": 45.03458,
    "lng": 25.88554
  },
  {
    "name": "Lilieci",
    "country": "RO",
    "lat": 46.62861,
    "lng": 26.87176
  },
  {
    "name": "Lieşti",
    "country": "RO",
    "lat": 45.61667,
    "lng": 27.51667
  },
  {
    "name": "Liebling",
    "country": "RO",
    "lat": 45.5775,
    "lng": 21.32167
  },
  {
    "name": "Licurici",
    "country": "RO",
    "lat": 44.91667,
    "lng": 23.61667
  },
  {
    "name": "Libotin",
    "country": "RO",
    "lat": 47.50541,
    "lng": 23.96833
  },
  {
    "name": "Lipolist",
    "country": "RS",
    "lat": 44.69783,
    "lng": 19.50101
  },
  {
    "name": "Lipnički Šor",
    "country": "RS",
    "lat": 44.58058,
    "lng": 19.26572
  },
  {
    "name": "Livny",
    "country": "RU",
    "lat": 52.42431,
    "lng": 37.59956
  },
  {
    "name": "Livenka",
    "country": "RU",
    "lat": 50.449,
    "lng": 38.2959
  },
  {
    "name": "Liski",
    "country": "RU",
    "lat": 50.98241,
    "lng": 39.50412
  },
  {
    "name": "Lisiy Nos",
    "country": "RU",
    "lat": 60.01686,
    "lng": 30.02008
  },
  {
    "name": "Lipki",
    "country": "RU",
    "lat": 54.32622,
    "lng": 37.52006
  },