[
  {
    "name": "Mirdif",
    "country": "AE",
    "lat": 25.22443,
    "lng": 55.41412
  },
  {
    "name": "Mingajik",
    "country": "AF",
    "lat": 37.0279,
    "lng": 66.12817
  },
  {
    "name": "Miras",
    "country": "AL",
    "lat": 40.50917,
    "lng": 20.92833
  },
  {
    "name": "Milot",
    "country": "AL",
    "lat": 41.68389,
    "lng": 19.71556
  },
  {
    "name": "Miramar",
    "country": "AR",
    "lat": -38.27161,
    "lng": -57.8389
  },
  {
    "name": "Miramar",
    "country": "AR",
    "lat": -30.91508,
    "lng": -62.67504
  },
  {
    "name": "Mina Clavero",
    "country": "AR",
    "lat": -31.72945,
    "lng": -65.00501
  },
  {
    "name": "Milagro",
    "country": "AR",
    "lat": -31.00831,
    "lng": -65.99103
  },
  {
    "name": "Miguel Riglos",
    "country": "AR",
    "lat": -36.8537,
    "lng": -63.68857
  },
  {
    "name": "Millstatt",
    "country": "AT",
    "lat": 46.80417,
    "lng": 13.58056
  },
  {
    "name": "Mittertreffling",
    "country": "AT",
    "lat": 48.33868,
    "lng": 14.36505
  },
  {
    "name": "Mittersill",
    "country": "AT",
    "lat": 47.28333,
    "lng": 12.48333
  },
  {
    "name": "Mitterpullendorf",
    "country": "AT",
    "lat": 47.49325,
    "lng": 16.52129
  },
  {
    "name": "Mitterndorf im Steirischen Salzkammergut",
    "country": "AT",
    "lat": 47.55556,
    "lng": 13.93187
  },
  {
    "name": "Mitterndorf an der Fischa",
    "country": "AT",
    "lat": 47.99739,
    "lng": 16.47357
  },
  {
    "name": "Mitterlabill",
    "country": "AT",
    "lat": 46.88917,
    "lng": 15.63556
  },
  {
    "name": "Mitterkirchen im Machland",
    "country": "AT",
    "lat": 48.18795,
    "lng": 14.69593
  },
  {
    "name": "Mitterhofen",
    "country": "AT",
    "lat": 47.38333,
    "lng": 12.8
  },
  {
    "name": "Mitterdorf im Mürztal",
    "country": "AT",
    "lat": 47.53333,
    "lng": 15.51667
  },
  {
    "name": "Mitterdorf an der Raab",
    "country": "AT",
    "lat": 47.16667,
    "lng": 15.6
  },
  {
    "name": "Mitterberghütten",
    "country": "AT",
    "lat": 47.4,
    "lng": 13.21667
  },
  {
    "name": "Mitterbach am Erlaufsee",
    "country": "AT",
    "lat": 47.81396,
    "lng": 15.29537
  },
  {
    "name": "Mittelberg",
    "country": "AT",
    "lat": 47.35127,
    "lng": 10.17197
  },
  {
    "name": "Mistelbach",
    "country": "AT",
    "lat": 48.57,
    "lng": 16.57667
  },
  {
    "name": "Mischendorf",
    "country": "AT",
    "lat": 47.19277,
    "lng": 16.31444
  },
  {
    "name": "Mils bei Solbad Hall",
    "country": "AT",
    "lat": 47.28333,
    "lng": 11.53333
  },
  {
    "name": "Mils bei Imst",
    "country": "AT",
    "lat": 47.20616,
    "lng": 10.67485
  },
  {
    "name": "Miesenbach",
    "country": "AT",
    "lat": 47.84035,
    "lng": 15.98236
  },
  {
    "name": "Miesenbach bei Birkfeld",
    "country": "AT",
    "lat": 47.36961,
    "lng": 15.76025
  },
  {
    "name": "Mieming",
    "country": "AT",
    "lat": 47.3,
    "lng": 10.98333
  },
  {
    "name": "Mieders",
    "country": "AT",
    "lat": 47.16667,
    "lng": 11.38333
  },
  {
    "name": "Michelhausen",
    "country": "AT",
    "lat": 48.29085,
    "lng": 15.93893
  },
  {
    "name": "Micheldorf in Oberösterreich",
    "country": "AT",
    "lat": 47.87764,
    "lng": 14.13357
  },
  {
    "name": "Micheldorf",
    "country": "AT",
    "lat": 46.914,
    "lng": 14.43061
  },
  {
    "name": "Michaelnbach",
    "country": "AT",
    "lat": 48.28788,
    "lng": 13.83144
  },
  {
    "name": "Michaelerberg",
    "country": "AT",
    "lat": 47.41083,
    "lng": 13.89333
  },
  {
    "name": "Micheldorf in Kärnten",
    "country": "AT",
    "lat": 46.91465,
    "lng": 14.42733
  },
  {
    "name": "Mitterndorf",
    "country": "AT",
    "lat": 47.57728,
    "lng": 12.16968
  },
  {
    "name": "Mitcham",
    "country": "AU",
    "lat": -34.97892,
    "lng": 138.62184
  },
  {
    "name": "Minlaton",
    "country": "AU",
    "lat": -34.77101,
    "lng": 137.59576
  },
  {
    "name": "Midland",
    "country": "AU",
    "lat": -31.88909,
    "lng": 116.0107
  },
  {
    "name": "Middleton",
    "country": "AU",
    "lat": -35.51047,
    "lng": 138.70377
  },
  {
    "name": "Middle Swan",
    "country": "AU",
    "lat": -31.85,
    "lng": 116.01667
  },
  {
    "name": "Mittagong",
    "country": "AU",
    "lat": -34.45002,
    "lng": 150.44572
  },
  {
    "name": "Mitchelton",
    "country": "AU",
    "lat": -27.41667,
    "lng": 152.96667
  },
  {
    "name": "Mitchell",
    "country": "AU",
    "lat": -26.4849,
    "lng": 147.9742
  },
  {
    "name": "Mitcham",
    "country": "AU",
    "lat": -37.81667,
    "lng": 145.2
  },
  {
    "name": "Mirboo North",
    "country": "AU",
    "lat": -38.40101,
    "lng": 146.16135
  },
  {
    "name": "Mirani",
    "country": "AU",
    "lat": -21.15729,
    "lng": 148.86217
  },
  {
    "name": "Miranda",
    "country": "AU",
    "lat": -34.03857,
    "lng": 151.10005
  },
  {
    "name": "Minto",
    "country": "AU",
    "lat": -34.03333,
    "lng": 150.85
  },
  {
    "name": "Miners Rest",
    "country": "AU",
    "lat": -37.4808,
    "lng": 143.80107
  },
  {
    "name": "Minden",
    "country": "AU",
    "lat": -27.55965,
    "lng": 152.54493
  },
  {
    "name": "Milton",
    "country": "AU",
    "lat": -35.31644,
    "lng": 150.4361
  },
  {
    "name": "Millthorpe",
    "country": "AU",
    "lat": -33.44601,
    "lng": 149.18539
  },
  {
    "name": "Mill Park",
    "country": "AU",
    "lat": -37.66667,
    "lng": 145.06667
  },
  {
    "name": "Millmerran",
    "country": "AU",
    "lat": -27.87913,
    "lng": 151.27058
  },
  {
    "name": "Millicent",
    "country": "AU",
    "lat": -37.59389,
    "lng": 140.34947
  },
  {
    "name": "Millgrove",
    "country": "AU",
    "lat": -37.75527,
    "lng": 145.65347
  },
  {
    "name": "Miles",
    "country": "AU",
    "lat": -26.65836,
    "lng": 150.18822
  },
  {
    "name": "Mildura",
    "country": "AU",
    "lat": -34.18551,
    "lng": 142.16251
  },
  {
    "name": "Middlemount",
    "country": "AU",
    "lat": -22.81226,
    "lng": 148.69926
  },
  {
    "name": "Mindarie",
    "country": "AU",
    "lat": -31.68932,
    "lng": 115.70698
  },
  {
    "name": "Milton",
    "country": "AU",
    "lat": -27.47039,
    "lng": 153.00312
  },
  {
    "name": "Miami",
    "country": "AU",
    "lat": -28.07173,
    "lng": 153.44158
  },
  {
    "name": "Milingimbi",
    "country": "AU",
    "lat": -12.10188,
    "lng": 134.91901
  },
  {
    "name": "Mitchell Park",
    "country": "AU",
    "lat": -35.01031,
    "lng": 138.56266
  },
  {
    "name": "Mickleham",
    "country": "AU",
    "lat": -37.53664,
    "lng": 144.90204
  },
  {
    "name": "Mira Mar",
    "country": "AU",
    "lat": -35.01517,
    "lng": 117.90096
  },
  {
    "name": "Mission River",
    "country": "AU",
    "lat": -12.59509,
    "lng": 141.9576
  },
  {
    "name": "Millbank",
    "country": "AU",
    "lat": -24.87536,
    "lng": 152.32217
  },
  {
    "name": "Mitchell",
    "country": "AU",
    "lat": -33.42732,
    "lng": 149.55674
  },
  {
    "name": "Millers Point",
    "country": "AU",
    "lat": -33.85957,
    "lng": 151.20406
  },
  {
    "name": "Milperra",
    "country": "AU",
    "lat": -33.93934,
    "lng": 150.98148
  },
  {
    "name": "Middle Cove",
    "country": "AU",
    "lat": -33.7928,
    "lng": 151.21248
  },
  {
    "name": "Minchinbury",
    "country": "AU",
    "lat": -33.78724,
    "lng": 150.82956
  },
  {
    "name": "Middle Park",
    "country": "AU",
    "lat": -27.55596,
    "lng": 152.92223
  },
  {
    "name": "Mile End",
    "country": "AU",
    "lat": -34.92654,
    "lng": 138.57033
  },
  {
    "name": "Minyama",
    "country": "AU",
    "lat": -26.69573,
    "lng": 153.12353
  },
  {
    "name": "Middle Park",
    "country": "AU",
    "lat": -37.85116,
    "lng": 144.96201
  },
  {
    "name": "Millars Well",
    "country": "AU",
    "lat": -20.74168,
    "lng": 116.81731
  },
  {
    "name": "Millner",
    "country": "AU",
    "lat": -12.39186,
    "lng": 130.86252
  },
  {
    "name": "Millstream",
    "country": "AU",
    "lat": -17.65318,
    "lng": 145.41401
  },
  {
    "name": "Miandetta",
    "country": "AU",
    "lat": -41.1955,
    "lng": 146.35322
  },
  {
    "name": "Middle Ridge",
    "country": "AU",
    "lat": -27.60709,
    "lng": 151.96688
  },
  {
    "name": "Millbridge",
    "country": "AU",
    "lat": -33.30617,
    "lng": 115.735
  },
  {
    "name": "Mirrabooka",
    "country": "AU",
    "lat": -31.85963,
    "lng": 115.86587
  },
  {
    "name": "Mission Beach",
    "country": "AU",
    "lat": -17.86885,
    "lng": 146.10392
  },
  {
    "name": "Milsons Point",
    "country": "AU",
    "lat": -33.846,
    "lng": 151.21192
  },
  {
    "name": "Middleton Grange",
    "country": "AU",
    "lat": -33.91704,
    "lng": 150.84186
  },
  {
    "name": "Miller",
    "country": "AU",
    "lat": -33.92089,
    "lng": 150.88469
  },
  {
    "name": "Millswood",
    "country": "AU",
    "lat": -34.95505,
    "lng": 138.58888
  },
  {
    "name": "Midvale",
    "country": "AU",
    "lat": -31.88881,
    "lng": 116.03288
  },
  {
    "name": "Midway Point",
    "country": "AU",
    "lat": -42.7948,
    "lng": 147.52883
  },
  {
    "name": "Mincivan",
    "country": "AZ",
    "lat": 39.03023,
    "lng": 46.72329
  },
  {
    "name": "Mingachevir",
    "country": "AZ",
    "lat": 40.76422,
    "lng": 47.06227
  },
  {
    "name": "Mionica",
    "country": "BA",
    "lat": 44.86646,
    "lng": 18.46603
  },
  {
    "name": "Milići",
    "country": "BA",
    "lat": 44.17016,
    "lng": 19.09195
  },
  {
    "name": "Mirzāpur",
    "country": "BD",
    "lat": 24.10287,
    "lng": 90.09841
  },
  {
    "name": "Mirpur Model Thana",
    "country": "BD",
    "lat": 23.80931,
    "lng": 90.36093
  },
  {
    "name": "Minderhout",
    "country": "BE",
    "lat": 51.41709,
    "lng": 4.76292
  },
  {
    "name": "Milmort",
    "country": "BE",
    "lat": 50.69037,
    "lng": 5.59323
  },
  {
    "name": "Millen",
    "country": "BE",
    "lat": 50.78619,
    "lng": 5.55616
  },
  {
    "name": "Mignault",
    "country": "BE",
    "lat": 50.53016,
    "lng": 4.15758
  },
  {
    "name": "Mielen-boven-Aalst",
    "country": "BE",
    "lat": 50.75644,
    "lng": 5.21421
  },
  {
    "name": "Middelkerke",
    "country": "BE",
    "lat": 51.18532,
    "lng": 2.82077
  },
  {
    "name": "Micheroux",
    "country": "BE",
    "lat": 50.62475,
    "lng": 5.71847
  },
  {
    "name": "Michelbeke",
    "country": "BE",
    "lat": 50.8355,
    "lng": 3.76249
  },
  {
    "name": "Mizia",
    "country": "BG",
    "lat": 43.68623,
    "lng": 23.85371
  },
  {
    "name": "Mirkovo",
    "country": "BG",
    "lat": 42.7,
    "lng": 23.98333
  },
  {
    "name": "Mineralni Bani",
    "country": "BG",
    "lat": 41.91667,
    "lng": 25.35
  },
  {
    "name": "Missérété",
    "country": "BJ",
    "lat": 6.55872,
    "lng": 2.59063
  },
  {
    "name": "Mizque",
    "country": "BO",
    "lat": -17.94101,
    "lng": -65.34016
  },
  {
    "name": "Mineros",
    "country": "BO",
    "lat": -17.11918,
    "lng": -63.23226
  },
  {
    "name": "Milton Brandão",
    "country": "BR",
    "lat": -4.70257,
    "lng": -41.4486
  },
  {
    "name": "Missão Velha",
    "country": "BR",
    "lat": -7.24972,
    "lng": -39.14306
  },
  {
    "name": "Mirinzal",
    "country": "BR",
    "lat": -2.065,
    "lng": -44.78417
  },
  {
    "name": "Mirandiba",
    "country": "BR",
    "lat": -8.12028,
    "lng": -38.72944
  },
  {
    "name": "Miranda do Norte",
    "country": "BR",
    "lat": -3.56516,
    "lng": -44.58018
  },
  {
    "name": "Miraíma",
    "country": "BR",
    "lat": -3.56944,
    "lng": -39.97
  },
  {
    "name": "Mirador",
    "country": "BR",
    "lat": -6.37083,
    "lng": -44.36306
  },
  {
    "name": "Miracema do Tocantins",
    "country": "BR",
    "lat": -9.56722,
    "lng": -48.39167
  },
  {
    "name": "Minador do Negrão",
    "country": "BR",
    "lat": -9.30528,
    "lng": -36.86472
  },
  {
    "name": "Milhã",
    "country": "BR",
    "lat": -5.675,
    "lng": -39.19389
  },
  {
    "name": "Milagres",
    "country": "BR",
    "lat": -7.31333,
    "lng": -38.94556
  },
  {
    "name": "Miguel Leão",
    "country": "BR",
    "lat": -5.68056,
    "lng": -42.73861
  },
  {
    "name": "Miguel Alves",
    "country": "BR",
    "lat": -4.16556,
    "lng": -42.89528
  },
  {
    "name": "Miranorte",
    "country": "BR",
    "lat": -9.52944,
    "lng": -48.59
  },
  {
    "name": "Milagres",
    "country": "BR",
    "lat": -12.87,
    "lng": -39.85889
  },
  {
    "name": "Mirim Doce",
    "country": "BR",
    "lat": -27.19639,
    "lng": -50.07667
  },
  {
    "name": "Mirassolândia",
    "country": "BR",
    "lat": -20.61667,
    "lng": -49.46389
  },
  {
    "name": "Mirassol",
    "country": "BR",
    "lat": -20.81917,
    "lng": -49.52111
  },
  {
    "name": "Mirante do Paranapanema",
    "country": "BR",
    "lat": -22.29194,
    "lng": -51.90639
  },
  {
    "name": "Mirante",
    "country": "BR",
    "lat": -14.24194,
    "lng": -40.77833
  },
  {
    "name": "Mirangaba",
    "country": "BR",
    "lat": -10.95444,
    "lng": -40.57583
  },
  {
    "name": "Mirandópolis",
    "country": "BR",
    "lat": -21.13361,
    "lng": -51.10167
  },
  {
    "name": "Miranda",
    "country": "BR",
    "lat": -20.24056,
    "lng": -56.37833
  },
  {
    "name": "Miraí",
    "country": "BR",
    "lat": -21.19528,
    "lng": -42.61417
  },
  {
    "name": "Mira Estrela",
    "country": "BR",
    "lat": -19.97944,
    "lng": -50.13722
  },
  {
    "name": "Miradouro",
    "country": "BR",
    "lat": -20.89056,
    "lng": -42.3425
  },
  {
    "name": "Mirador",
    "country": "BR",
    "lat": -23.2575,
    "lng": -52.77639
  },
  {
    "name": "Miracema",
    "country": "BR",
    "lat": -21.41222,
    "lng": -42.19667
  },
  {
    "name": "Miracatu",
    "country": "BR",
    "lat": -24.28139,
    "lng": -47.45972
  },
  {
    "name": "Mirabela",
    "country": "BR",
    "lat": -16.26278,
    "lng": -44.16444
  },
  {
    "name": "Mineiros do Tietê",
    "country": "BR",
    "lat": -22.40944,
    "lng": -48.45056
  },
  {
    "name": "Mineiros",
    "country": "BR",
    "lat": -17.56944,
    "lng": -52.55111
  },
  {
    "name": "Minduri",
    "country": "BR",
    "lat": -21.68194,
    "lng": -44.60389
  },
  {
    "name": "Minas Novas",
    "country": "BR",
    "lat": -17.21861,
    "lng": -42.59028
  },
  {
    "name": "Mimoso do Sul",
    "country": "BR",
    "lat": -21.06417,
    "lng": -41.36639
  },
  {
    "name": "Mimoso de Goiás",
    "country": "BR",
    "lat": -15.0585,
    "lng": -48.1617
  },
  {
    "name": "Miguel Pereira",
    "country": "BR",
    "lat": -22.45389,
    "lng": -43.46889
  },
  {
    "name": "Miguelópolis",
    "country": "BR",
    "lat": -20.17944,
    "lng": -48.03194
  },
  {
    "name": "Miguel Calmon",
    "country": "BR",
    "lat": -11.42889,
    "lng": -40.595
  },
  {
    "name": "Minas do Leão",
    "country": "BR",
    "lat": -30.14022,
    "lng": -52.04513
  },
  {
    "name": "Miraguaí",
    "country": "BR",
    "lat": -27.49417,
    "lng": -53.68611
  },
  {
    "name": "Milagres do Maranhão",
    "country": "BR",
    "lat": -3.58139,
    "lng": -42.60944
  },
  {
    "name": "Minaçu",
    "country": "BR",
    "lat": -13.53306,
    "lng": -48.22
  },
  {
    "name": "Ministro Andreazza",
    "country": "BR",
    "lat": -11.07417,
    "lng": -61.51694
  },
  {
    "name": "Mirante da Serra",
    "country": "BR",
    "lat": -11.02972,
    "lng": -62.675
  },
  {
    "name": "Miraselva",
    "country": "BR",
    "lat": -22.96611,
    "lng": -51.48472
  },
  {
    "name": "Miravânia",
    "country": "BR",
    "lat": -14.74111,
    "lng": -44.40361
  },
  {
    "name": "Missal",
    "country": "BR",
    "lat": -25.09194,
    "lng": -54.2475
  },
  {
    "name": "Mirassol d'Oeste",
    "country": "BR",
    "lat": -15.67572,
    "lng": -58.09021
  },
  {
    "name": "Mir",
    "country": "BY",
    "lat": 53.4544,
    "lng": 26.467
  },
  {
    "name": "Miory",
    "country": "BY",
    "lat": 55.6222,
    "lng": 27.6281
  },
  {
    "name": "Minsk",
    "country": "BY",
    "lat": 53.90019,
    "lng": 27.56653
  },
  {
    "name": "Mikashevichy",
    "country": "BY",
    "lat": 52.2173,
    "lng": 27.476
  },
  {
    "name": "Michanovichi",
    "country": "BY",
    "lat": 53.73937,
    "lng": 27.69276
  },
  {
    "name": "Middleton",
    "country": "CA",
    "lat": 44.94284,
    "lng": -65.07022
  },
  {
    "name": "Middleton",
    "country": "CA",
    "lat": 45.71659,
    "lng": -63.17932
  },
  {
    "name": "Midland",
    "country": "CA",
    "lat": 44.7501,
    "lng": -79.88296
  },
  {
    "name": "Mildmay",
    "country": "CA",
    "lat": 44.043,
    "lng": -81.11889
  },
  {
    "name": "Mill Bay",
    "country": "CA",
    "lat": 48.65,
    "lng": -123.55
  },
  {
    "name": "Millbrook",
    "country": "CA",
    "lat": 44.15012,
    "lng": -78.44954
  },
  {
    "name": "Millet",
    "country": "CA",
    "lat": 53.09415,
    "lng": -113.47056
  },
  {
    "name": "Milliken",
    "country": "CA",
    "lat": 43.82499,
    "lng": -79.29872
  },
  {
    "name": "Milton",
    "country": "CA",
    "lat": 43.51681,
    "lng": -79.88294
  },
  {
    "name": "Mimico",
    "country": "CA",
    "lat": 43.61616,
    "lng": -79.51269
  },
  {
    "name": "Minnedosa",
    "country": "CA",
    "lat": 50.24532,
    "lng": -99.84364
  },
  {
    "name": "Minto",
    "country": "CA",
    "lat": 46.08483,
    "lng": -66.06217
  },
  {
    "name": "Mirabel",
    "country": "CA",
    "lat": 45.65008,
    "lng": -74.08251
  },
  {
    "name": "Miramichi",
    "country": "CA",
    "lat": 47.02895,
    "lng": -65.50186
  },
  {
    "name": "Mission",
    "country": "CA",
    "lat": 49.13298,
    "lng": -122.30258
  },
  {
    "name": "Mississauga",
    "country": "CA",
    "lat": 43.5789,
    "lng": -79.6583
  },
  {
    "name": "Mississauga Beach",
    "country": "CA",
    "lat": 43.25876,
    "lng": -79.08625
  },
  {
    "name": "Mississippi Mills",
    "country": "CA",
    "lat": 45.23341,
    "lng": -76.19939
  },
  {
    "name": "Mistissini",
    "country": "CA",
    "lat": 50.41832,
    "lng": -73.86895
  },
  {
    "name": "Mill Woods Town Centre",
    "country": "CA",
    "lat": 53.45639,
    "lng": -113.42751
  },
  {
    "name": "Mile End",
    "country": "CA",
    "lat": 45.5237,
    "lng": -73.59631
  },
  {
    "name": "Milton-Parc",
    "country": "CA",
    "lat": 45.51004,
    "lng": -73.57455
  },
  {
    "name": "Miabi",
    "country": "CD",
    "lat": -6.22149,
    "lng": 23.39254
  },
  {
    "name": "Mindouli",
    "country": "CG",
    "lat": 3.10278,
    "lng": 18.51111
  },
  {
    "name": "Minusio",
    "country": "CH",
    "lat": 46.17769,
    "lng": 8.81473
  },
  {
    "name": "Missirikoro",
    "country": "CI",
    "lat": 8.50728,
    "lng": -6.14183
  },
  {
    "name": "Missidougou",
    "country": "CI",
    "lat": 8.56102,
    "lng": -6.07221
  },
  {
    "name": "Mignouré",
    "country": "CI",
    "lat": 7.4875,
    "lng": -6.78821
  },
  {
    "name": "Minyininba",
    "country": "CI",
    "lat": 8.80694,
    "lng": -6.81361
  },
  {
    "name": "Minabo",
    "country": "CI",
    "lat": 7.97247,
    "lng": -5.45366
  },
  {
    "name": "Mimia",
    "country": "CI",
    "lat": 6.65042,
    "lng": -6.51316
  },
  {
    "name": "Miatzin",
    "country": "CI",
    "lat": 6.04432,
    "lng": -3.9069
  },
  {
    "name": "Minignan",
    "country": "CI",
    "lat": 9.99744,
    "lng": -7.83593
  },
  {
    "name": "Mibrigué",
    "country": "CI",
    "lat": 10.28504,
    "lng": -5.795
  },
  {
    "name": "Midakro",
    "country": "CI",
    "lat": 6.88186,
    "lng": -3.78424
  },
  {
    "name": "Minfla",
    "country": "CI",
    "lat": 7.52299,
    "lng": -6.04404
  },
  {
    "name": "Mitéguékaha",
    "country": "CI",
    "lat": 9.62545,
    "lng": -5.45519
  },
  {
    "name": "Minta",
    "country": "CM",
    "lat": 4.58333,
    "lng": 12.8
  },
  {
    "name": "Mindif",
    "country": "CM",
    "lat": 10.39812,
    "lng": 14.43635
  },
  {
    "name": "Mingxi",
    "country": "CN",
    "lat": 26.35885,
    "lng": 117.19694
  },
  {
    "name": "Mingzhou",
    "country": "CN",
    "lat": 36.98013,
    "lng": 115.26199
  },
  {
    "name": "Mingxing",
    "country": "CN",
    "lat": 37.42639,
    "lng": 112.54417
  },
  {
    "name": "Miyang",
    "country": "CN",
    "lat": 24.40417,
    "lng": 103.44278
  },
  {
    "name": "Minquan Chengguanzhen",
    "country": "CN",
    "lat": 34.66449,
    "lng": 115.13299
  },
  {
    "name": "Minjian",
    "country": "CN",
    "lat": 28.84622,
    "lng": 103.54575
  },
  {
    "name": "Mingyu",
    "country": "CN",
    "lat": 29.3069,
    "lng": 107.11792
  },
  {
    "name": "Mingtong",
    "country": "CN",
    "lat": 31.77319,
    "lng": 108.54104
  },
  {
    "name": "Mingshui",
    "country": "CN",
    "lat": 36.71667,
    "lng": 117.5
  },
  {
    "name": "Mingguang",
    "country": "CN",
    "lat": 32.78017,
    "lng": 117.96378
  },
  {
    "name": "Minggang",
    "country": "CN",
    "lat": 32.45861,
    "lng": 114.04861
  },
  {
    "name": "Mingfeng",
    "country": "CN",
    "lat": 31.06167,
    "lng": 111.64278
  },
  {
    "name": "Mingcun",
    "country": "CN",
    "lat": 36.75361,
    "lng": 119.64083
  },
  {
    "name": "Min’an",
    "country": "CN",
    "lat": 29.4595,
    "lng": 109.437
  },
  {
    "name": "Min’ancun",
    "country": "CN",
    "lat": 26.05022,
    "lng": 119.50002
  },
  {
    "name": "Miluo",
    "country": "CN",
    "lat": 28.80798,
    "lng": 113.06896
  },
  {
    "name": "Micheng",
    "country": "CN",
    "lat": 25.34294,
    "lng": 100.48725
  },
  {
    "name": "Miaoyu",
    "country": "CN",
    "lat": 30.86868,
    "lng": 109.64614
  },
  {
    "name": "Mianyang",
    "country": "CN",
    "lat": 31.46784,
    "lng": 104.68168
  },
  {
    "name": "Mianyang",
    "country": "CN",
    "lat": 33.15703,
    "lng": 106.69445
  },
  {
    "name": "Mianchi",
    "country": "CN",
    "lat": 34.76727,
    "lng": 111.75871
  },
  {
    "name": "Minqing",
    "country": "CN",
    "lat": 26.22482,
    "lng": 118.85968
  },
  {
    "name": "Minzhu",
    "country": "CN",
    "lat": 22.72111,
    "lng": 113.77722
  },
  {
    "name": "Miaoba",
    "country": "CN",
    "lat": 31.93615,
    "lng": 108.51786
  },
  {
    "name": "Miaoxi",
    "country": "CN",
    "lat": 29.05016,
    "lng": 108.45902
  },
  {
    "name": "Miaoya",
    "country": "CN",
    "lat": 29.44593,
    "lng": 107.31952
  },
  {
    "name": "Mishan",
    "country": "CN",
    "lat": 45.52812,
    "lng": 131.84
  },
  {
    "name": "Ming’antu",
    "country": "CN",
    "lat": 42.30278,
    "lng": 114.99333
  },
  {
    "name": "Mishan",
    "country": "CN",
    "lat": 45.55,
    "lng": 131.88333
  },
  {
    "name": "Mingshui",
    "country": "CN",
    "lat": 47.17944,
    "lng": 125.90284
  },
  {
    "name": "Miba",
    "country": "CN",
    "lat": 33.54272,
    "lng": 105.7819
  },
  {
    "name": "Mingzhong",
    "country": "CN",
    "lat": 31.73313,
    "lng": 108.81515
  },
  {
    "name": "Mingda",
    "country": "CN",
    "lat": 30.7263,
    "lng": 107.65726
  },
  {
    "name": "Miaoquan",
    "country": "CN",
    "lat": 28.64037,
    "lng": 109.00399
  },
  {
    "name": "Mixin",
    "country": "CN",
    "lat": 30.37985,
    "lng": 105.76781
  },
  {
    "name": "Minzhu",
    "country": "CN",
    "lat": 29.36306,
    "lng": 107.16714
  },
  {
    "name": "Miaozi",
    "country": "CN",
    "lat": 36.6386,
    "lng": 118.23138
  },
  {
    "name": "Mihe",
    "country": "CN",
    "lat": 36.62096,
    "lng": 118.52872
  },
  {
    "name": "Minning",
    "country": "CN",
    "lat": 38.2487,
    "lng": 105.97068
  },
  {
    "name": "Mingguang",
    "country": "CN",
    "lat": 25.49314,
    "lng": 98.54153
  },
  {
    "name": "Miaojie",
    "country": "CN",
    "lat": 25.31232,
    "lng": 100.27983
  },
  {
    "name": "Mixia",
    "country": "CN",
    "lat": 38.45396,
    "lng": 77.24918
  },
  {
    "name": "Mingshan",
    "country": "CN",
    "lat": 29.87832,
    "lng": 107.69921
  },
  {
    "name": "Mianzhu, Deyang, Sichuan",
    "country": "CN",
    "lat": 31.33786,
    "lng": 104.22057
  },
  {
    "name": "Minzhucun",
    "country": "CN",
    "lat": 22.72679,
    "lng": 113.78212
  },
  {
    "name": "Mitú",
    "country": "CO",
    "lat": 1.25744,
    "lng": -70.23551
  },
  {
    "name": "Mistrató",
    "country": "CO",
    "lat": 5.29622,
    "lng": -75.8839
  },
  {
    "name": "Miranda",
    "country": "CO",
    "lat": 3.25283,
    "lng": -76.22924
  },
  {
    "name": "Miraflores",
    "country": "CO",
    "lat": 5.19608,
    "lng": -73.14504
  },
  {
    "name": "Miraflores",
    "country": "CO",
    "lat": 1.33667,
    "lng": -71.95111
  },
  {
    "name": "Milán",
    "country": "CO",
    "lat": 1.29034,
    "lng": -75.50757
  },
  {
    "name": "Miramar",
    "country": "CR",
    "lat": 10.0925,
    "lng": -84.72978
  },
  {
    "name": "Minas de Matahambre",
    "country": "CU",
    "lat": 22.58691,
    "lng": -83.94551
  },
  {
    "name": "Minas",
    "country": "CU",
    "lat": 21.48802,
    "lng": -77.61033
  },
  {
    "name": "Mindelo",
    "country": "CV",
    "lat": 16.89014,
    "lng": -24.98042
  },
  {
    "name": "Mistřice",
    "country": "CZ",
    "lat": 49.08668,
    "lng": 17.53597
  },
  {
    "name": "Mirovice",
    "country": "CZ",
    "lat": 49.51555,
    "lng": 14.03582
  },
  {
    "name": "Mirotice",
    "country": "CZ",
    "lat": 49.42908,
    "lng": 14.03697
  },
  {
    "name": "Mirošov",
    "country": "CZ",
    "lat": 49.68782,
    "lng": 13.65807
  },
  {
    "name": "Miroslav",
    "country": "CZ",
    "lat": 48.94767,
    "lng": 16.31252
  },
  {
    "name": "Miřetice",
    "country": "CZ",
    "lat": 49.84126,
    "lng": 15.88472
  },
  {
    "name": "Mimoň",
    "country": "CZ",
    "lat": 50.65869,
    "lng": 14.72474
  },
  {
    "name": "Milovice",
    "country": "CZ",
    "lat": 50.22596,
    "lng": 14.88863
  },
  {
    "name": "Milotice",
    "country": "CZ",
    "lat": 48.95528,
    "lng": 17.14241
  },
  {
    "name": "Milín",
    "country": "CZ",
    "lat": 49.63192,
    "lng": 14.046
  },
  {
    "name": "Milíkov",
    "country": "CZ",
    "lat": 49.58565,
    "lng": 18.71943
  },
  {
    "name": "Milevsko",
    "country": "CZ",
    "lat": 49.45089,
    "lng": 14.36
  },
  {
    "name": "Mikulovice",
    "country": "CZ",
    "lat": 50.29854,
    "lng": 17.32155
  },
  {
    "name": "Mikulov",
    "country": "CZ",
    "lat": 48.80556,
    "lng": 16.6378
  },
  {
    "name": "Mikulčice",
    "country": "CZ",
    "lat": 48.81643,
    "lng": 17.05107
  },
  {
    "name": "Mikulášovice",
    "country": "CZ",
    "lat": 50.96507,
    "lng": 14.36368
  },
  {
    "name": "Michle",
    "country": "CZ",
    "lat": 50.04795,
    "lng": 14.46217
  },
  {
    "name": "Mixdorf",
    "country": "DE",
    "lat": 52.2,
    "lng": 14.4
  },
  {
    "name": "Mitwitz",
    "country": "DE",
    "lat": 50.25111,
    "lng": 11.20818
  },
  {
    "name": "Mittweida",
    "country": "DE",
    "lat": 50.98622,
    "lng": 12.97537
  },
  {
    "name": "Mitterteich",
    "country": "DE",
    "lat": 49.95141,
    "lng": 12.24206
  },
  {
    "name": "Mitterskirchen",
    "country": "DE",
    "lat": 48.35,
    "lng": 12.73333
  },
  {
    "name": "Mitterfels",
    "country": "DE",
    "lat": 48.97633,
    "lng": 12.67848
  },
  {
    "name": "Mittenwalde",
    "country": "DE",
    "lat": 52.26007,
    "lng": 13.53945
  },
  {
    "name": "Mittenwald",
    "country": "DE",
    "lat": 47.4422,
    "lng": 11.26187
  },
  {
    "name": "Mittenaar",
    "country": "DE",
    "lat": 50.7,
    "lng": 8.38333
  },
  {
    "name": "Mittelstetten",
    "country": "DE",
    "lat": 48.25,
    "lng": 11.1
  },
  {
    "name": "Mittelschöntal",
    "country": "DE",
    "lat": 48.94615,
    "lng": 9.3952
  },
  {
    "name": "Mittelschefflenz",
    "country": "DE",
    "lat": 49.4016,
    "lng": 9.27987
  },
  {
    "name": "Mittelneufnach",
    "country": "DE",
    "lat": 48.17642,
    "lng": 10.59754
  },
  {
    "name": "Mittelhof",
    "country": "DE",
    "lat": 50.77517,
    "lng": 7.80466
  },
  {
    "name": "Mittelherwigsdorf",
    "country": "DE",
    "lat": 50.91667,
    "lng": 14.76667
  },
  {
    "name": "Mittel-Gründau",
    "country": "DE",
    "lat": 50.2292,
    "lng": 9.11041
  },
  {
    "name": "Mitteleschenbach",
    "country": "DE",
    "lat": 49.21186,
    "lng": 10.79784
  },
  {
    "name": "Mittelbiberach",
    "country": "DE",
    "lat": 48.08333,
    "lng": 9.75
  },
  {
    "name": "Mittegroßefehn",
    "country": "DE",
    "lat": 53.39049,
    "lng": 7.56052
  },
  {
    "name": "Mistelgau",
    "country": "DE",
    "lat": 49.9126,
    "lng": 11.46586
  },
  {
    "name": "Mirow",
    "country": "DE",
    "lat": 53.5051,
    "lng": 11.50294
  },
  {
    "name": "Mintraching",
    "country": "DE",
    "lat": 48.95357,
    "lng": 12.24209
  },
  {
    "name": "Minfeld",
    "country": "DE",
    "lat": 49.07167,
    "lng": 8.14528
  },
  {
    "name": "Minden",
    "country": "DE",
    "lat": 52.28953,
    "lng": 8.91455
  },
  {
    "name": "Mindelheim",
    "country": "DE",
    "lat": 48.04578,
    "lng": 10.49222
  },
  {
    "name": "Milz",
    "country": "DE",
    "lat": 50.3776,
    "lng": 10.53757
  },
  {
    "name": "Miltenberg",
    "country": "DE",
    "lat": 49.70452,
    "lng": 9.26725
  },
  {
    "name": "Miltach",
    "country": "DE",
    "lat": 49.16196,
    "lng": 12.76843
  },
  {
    "name": "Milse",
    "country": "DE",
    "lat": 52.05988,
    "lng": 8.61671
  },
  {
    "name": "Milmersdorf",
    "country": "DE",
    "lat": 53.11185,
    "lng": 13.6415
  },
  {
    "name": "Mildstedt",
    "country": "DE",
    "lat": 54.46395,
    "lng": 9.09861
  },
  {
    "name": "Mildenau",
    "country": "DE",
    "lat": 50.58689,
    "lng": 13.07263
  },
  {
    "name": "Mihla",
    "country": "DE",
    "lat": 51.07617,
    "lng": 10.33175
  },
  {
    "name": "Mietingen",
    "country": "DE",
    "lat": 48.18333,
    "lng": 9.9
  },
  {
    "name": "Mieste",
    "country": "DE",
    "lat": 52.48226,
    "lng": 11.2064
  },
  {
    "name": "Miesbach",
    "country": "DE",
    "lat": 47.78903,
    "lng": 11.83382
  },
  {
    "name": "Mielkendorf",
    "country": "DE",
    "lat": 54.28337,
    "lng": 10.04111
  },
  {
    "name": "Miehlen",
    "country": "DE",
    "lat": 50.22574,
    "lng": 7.83196
  },
  {
    "name": "Midlum",
    "country": "DE",
    "lat": 53.73135,
    "lng": 8.61695
  },
  {
    "name": "Mickten",
    "country": "DE",
    "lat": 51.08271,
    "lng": 13.70871
  },
  {
    "name": "Mickhausen",
    "country": "DE",
    "lat": 48.24171,
    "lng": 10.64026
  },
  {
    "name": "Michendorf",
    "country": "DE",
    "lat": 52.31352,
    "lng": 13.02996
  },
  {
    "name": "Michelstadt",
    "country": "DE",
    "lat": 49.67569,
    "lng": 9.00373
  },
  {
    "name": "Michelsneukirchen",
    "country": "DE",
    "lat": 49.12291,
    "lng": 12.55284
  },
  {
    "name": "Michelfeld",
    "country": "DE",
    "lat": 49.0975,
    "lng": 9.67861
  },
  {
    "name": "Michelbach an der Bilz",
    "country": "DE",
    "lat": 49.07028,
    "lng": 9.7625
  },
  {
    "name": "Michelau",
    "country": "DE",
    "lat": 50.16233,
    "lng": 11.11207
  },
  {
    "name": "Michelau",
    "country": "DE",
    "lat": 49.90556,
    "lng": 10.43064
  },
  {
    "name": "Missen-Wilhams",
    "country": "DE",
    "lat": 47.6,
    "lng": 10.11667
  },
  {
    "name": "Mitte",
    "country": "DE",
    "lat": 52.52003,
    "lng": 13.40489
  },
  {
    "name": "Middelfart",
    "country": "DK",
    "lat": 55.50591,
    "lng": 9.73054
  },
  {
    "name": "Miches",
    "country": "DO",
    "lat": 18.98364,
    "lng": -69.0476
  },
  {
    "name": "Miliana",
    "country": "DZ",
    "lat": 36.30554,
    "lng": 2.2248
  },
  {
    "name": "Mila",
    "country": "DZ",
    "lat": 36.45028,
    "lng": 6.26444
  },
  {
    "name": "Mira",
    "country": "EC",
    "lat": 0.55069,
    "lng": -78.04034
  },
  {
    "name": "Mindo",
    "country": "EC",
    "lat": -0.05201,
    "lng": -78.77633
  },
  {
    "name": "Milagro",
    "country": "EC",
    "lat": -2.13396,
    "lng": -79.59337
  },
  {
    "name": "Milagro",
    "country": "EC",
    "lat": -3.628,
    "lng": -79.66126
  },
  {
    "name": "Minyat an Naşr",
    "country": "EG",
    "lat": 31.12624,
    "lng": 31.64313
  },
  {
    "name": "Minyā al Qamḩ",
    "country": "EG",
    "lat": 30.51552,
    "lng": 31.34629
  },
  {
    "name": "Minya",
    "country": "EG",
    "lat": 28.09193,
    "lng": 30.75813
  },
  {
    "name": "Mislata",
    "country": "ES",
    "lat": 39.47523,
    "lng": -0.41825
  },
  {
    "name": "Mirandilla",
    "country": "ES",
    "lat": 39.002,
    "lng": -6.28893
  },
  {
    "name": "Miramar",
    "country": "ES",
    "lat": 38.95036,
    "lng": -0.14007
  },
  {
    "name": "Mirabel",
    "country": "ES",
    "lat": 39.8623,
    "lng": -6.23274
  },
  {
    "name": "Mira",
    "country": "ES",
    "lat": 39.71667,
    "lng": -1.43333
  },
  {
    "name": "Minglanilla",
    "country": "ES",
    "lat": 39.53333,
    "lng": -1.6
  },
  {
    "name": "Minaya",
    "country": "ES",
    "lat": 39.27052,
    "lng": -2.32176
  },
  {
    "name": "Millena",
    "country": "ES",
    "lat": 38.73082,
    "lng": -0.36274
  },
  {
    "name": "Millares",
    "country": "ES",
    "lat": 39.25,
    "lng": -0.76667
  },
  {
    "name": "Millanes",
    "country": "ES",
    "lat": 39.84917,
    "lng": -5.58079
  },
  {
    "name": "Mijas",
    "country": "ES",
    "lat": 36.59575,
    "lng": -4.63728
  },
  {
    "name": "Miguelturra",
    "country": "ES",
    "lat": 38.96442,
    "lng": -3.89047
  },
  {
    "name": "Miguel Esteban",
    "country": "ES",
    "lat": 39.52448,
    "lng": -3.07618
  },
  {
    "name": "Miajadas",
    "country": "ES",
    "lat": 39.15127,
    "lng": -5.90841
  },
  {
    "name": "Mironcillo",
    "country": "ES",
    "lat": 40.55435,
    "lng": -4.82449
  },
  {
    "name": "Miravet",
    "country": "ES",
    "lat": 41.0393,
    "lng": 0.59665
  },
  {
    "name": "Miraveche",
    "country": "ES",
    "lat": 42.67396,
    "lng": -3.19947
  },
  {
    "name": "Miranda del Castañar",
    "country": "ES",
    "lat": 40.48448,
    "lng": -5.99581
  },
  {
    "name": "Miranda de Ebro",
    "country": "ES",
    "lat": 42.6865,
    "lng": -2.94695
  },
  {
    "name": "Miranda de Azán",
    "country": "ES",
    "lat": 40.88752,
    "lng": -5.68182
  },
  {
    "name": "Miranda de Arga",
    "country": "ES",
    "lat": 42.48337,
    "lng": -1.82759
  },
  {
    "name": "Mirambel",
    "country": "ES",
    "lat": 40.58733,
    "lng": -0.34266
  },
  {
    "name": "Miralrío",
    "country": "ES",
    "lat": 40.88901,
    "lng": -2.9434
  },
  {
    "name": "Miralcamp",
    "country": "ES",
    "lat": 41.60516,
    "lng": 0.87987
  },
  {
    "name": "Mirafuentes",
    "country": "ES",
    "lat": 42.62297,
    "lng": -2.27966
  },
  {
    "name": "Miraflores de la Sierra",
    "country": "ES",
    "lat": 40.8155,
    "lng": -3.76213
  },
  {
    "name": "Mirabueno",
    "country": "ES",
    "lat": 40.94479,
    "lng": -2.72438
  },
  {
    "name": "Miño de San Esteban",
    "country": "ES",
    "lat": 41.53584,
    "lng": -3.34579
  },
  {
    "name": "Miño",
    "country": "ES",
    "lat": 43.35,
    "lng": -8.2
  },
  {
    "name": "Mingorría",
    "country": "ES",
    "lat": 40.75192,
    "lng": -4.66583
  },
  {
    "name": "Milmarcos",
    "country": "ES",
    "lat": 41.08622,
    "lng": -1.87652
  },
  {
    "name": "Milles de la Polvorosa",
    "country": "ES",
    "lat": 41.92339,
    "lng": -5.73309
  },
  {
    "name": "Millana",
    "country": "ES",
    "lat": 40.50717,
    "lng": -2.57116
  },
  {
    "name": "Milagros",
    "country": "ES",
    "lat": 41.575,
    "lng": -3.69907
  },
  {
    "name": "Milagro",
    "country": "ES",
    "lat": 42.2416,
    "lng": -1.76588
  },
  {
    "name": "Mijares",
    "country": "ES",
    "lat": 40.29655,
    "lng": -4.83651
  },
  {
    "name": "Migueláñez",
    "country": "ES",
    "lat": 41.12155,
    "lng": -4.3641
  },
  {
    "name": "Mieza",
    "country": "ES",
    "lat": 41.16424,
    "lng": -6.69137
  },
  {
    "name": "Mieres",
    "country": "ES",
    "lat": 43.25,
    "lng": -5.76667
  },
  {
    "name": "Mieres",
    "country": "ES",
    "lat": 42.12247,
    "lng": 2.6385
  },
  {
    "name": "Miengo",
    "country": "ES",
    "lat": 43.42861,
    "lng": -3.99866
  },
  {
    "name": "Miedes de Atienza",
    "country": "ES",
    "lat": 41.26672,
    "lng": -2.96375
  },
  {
    "name": "Micieces de Ojeda",
    "country": "ES",
    "lat": 42.69078,
    "lng": -4.46166
  },
  {
    "name": "Micereces de Tera",
    "country": "ES",
    "lat": 41.98886,
    "lng": -5.87133
  },
  {
    "name": "Mianos",
    "country": "ES",
    "lat": 42.58544,
    "lng": -0.95478
  },
  {
    "name": "Mirasierra",
    "country": "ES",
    "lat": 40.49631,
    "lng": -3.71957
  },
  {
    "name": "Mikkeli",
    "country": "FI",
    "lat": 61.68857,
    "lng": 27.27227
  },
  {
    "name": "Mietoinen",
    "country": "FI",
    "lat": 60.63333,
    "lng": 21.93333
  },
  {
    "name": "Miehikkälä",
    "country": "FI",
    "lat": 60.66667,
    "lng": 27.7
  },
  {
    "name": "Mikkola",
    "country": "FI",
    "lat": 60.34075,
    "lng": 25.09981
  },
  {
    "name": "Miðvágur",
    "country": "FO",
    "lat": 62.05111,
    "lng": -7.19389
  },
  {
    "name": "Mittelhausbergen",
    "country": "FR",
    "lat": 48.61436,
    "lng": 7.69009
  },
  {
    "name": "Mitry-Mory",
    "country": "FR",
    "lat": 48.98333,
    "lng": 2.61667
  },
  {
    "name": "Missillac",
    "country": "FR",
    "lat": 47.48217,
    "lng": -2.15926
  },
  {
    "name": "Misérieux",
    "country": "FR",
    "lat": 45.97433,
    "lng": 4.8134
  },
  {
    "name": "Miserey-Salines",
    "country": "FR",
    "lat": 47.28638,
    "lng": 5.97387
  },
  {
    "name": "Miribel-les-Échelles",
    "country": "FR",
    "lat": 45.43155,
    "lng": 5.7081
  },
  {
    "name": "Miribel",
    "country": "FR",
    "lat": 45.8258,
    "lng": 4.9544
  },
  {
    "name": "Mireval",
    "country": "FR",
    "lat": 43.5086,
    "lng": 3.8017
  },
  {
    "name": "Mirepoix",
    "country": "FR",
    "lat": 43.0884,
    "lng": 1.87367
  },
  {
    "name": "Mirepeix",
    "country": "FR",
    "lat": 43.18949,
    "lng": -0.25067
  },
  {
    "name": "Miremont",
    "country": "FR",
    "lat": 43.37042,
    "lng": 1.41697
  },
  {
    "name": "Mirefleurs",
    "country": "FR",
    "lat": 45.69319,
    "lng": 3.2237
  },
  {
    "name": "Mirecourt",
    "country": "FR",
    "lat": 48.30089,
    "lng": 6.13282
  },
  {
    "name": "Mirebeau-sur-Bèze",
    "country": "FR",
    "lat": 47.39828,
    "lng": 5.32093
  },
  {
    "name": "Mirebeau",
    "country": "FR",
    "lat": 46.78541,
    "lng": 0.18184
  },
  {
    "name": "Miré",
    "country": "FR",
    "lat": 47.75752,
    "lng": -0.49177
  },
  {
    "name": "Mirandol-Bourgnounac",
    "country": "FR",
    "lat": 44.14193,
    "lng": 2.16676
  },
  {
    "name": "Mirande",
    "country": "FR",
    "lat": 43.51443,
    "lng": 0.40389
  },
  {
    "name": "Miramont-de-Guyenne",
    "country": "FR",
    "lat": 44.60182,
    "lng": 0.36078
  },
  {
    "name": "Mirambeau",
    "country": "FR",
    "lat": 45.37332,
    "lng": -0.57078
  },
  {
    "name": "Miramas",
    "country": "FR",
    "lat": 43.58508,
    "lng": 5.00268
  },
  {
    "name": "Mirabel-aux-Baronnies",
    "country": "FR",
    "lat": 44.31002,
    "lng": 5.09962
  },
  {
    "name": "Mios",
    "country": "FR",
    "lat": 44.6056,
    "lng": -0.93721
  },
  {
    "name": "Mions",
    "country": "FR",
    "lat": 45.66302,
    "lng": 4.95292
  },
  {
    "name": "Mionnay",
    "country": "FR",
    "lat": 45.89824,
    "lng": 4.92808
  },
  {
    "name": "Minihy-Tréguier",
    "country": "FR",
    "lat": 48.77543,
    "lng": -3.22877
  },
  {
    "name": "Miniac-Morvan",
    "country": "FR",
    "lat": 48.51425,
    "lng": -1.89976
  },
  {
    "name": "Mimizan",
    "country": "FR",
    "lat": 44.20135,
    "lng": -1.22873
  },
  {
    "name": "Mimet",
    "country": "FR",
    "lat": 43.41427,
    "lng": 5.50579
  },
  {
    "name": "Mimbaste",
    "country": "FR",
    "lat": 43.64887,
    "lng": -0.97383
  },
  {
    "name": "Milly-sur-Thérain",
    "country": "FR",
    "lat": 49.5024,
    "lng": 1.99605
  },
  {
    "name": "Milly-la-Forêt",
    "country": "FR",
    "lat": 48.404,
    "lng": 2.47015
  },
  {
    "name": "Millery",
    "country": "FR",
    "lat": 45.63232,
    "lng": 4.78207
  },
  {
    "name": "Millau",
    "country": "FR",
    "lat": 44.09973,
    "lng": 3.07848
  },
  {
    "name": "Millas",
    "country": "FR",
    "lat": 42.69203,
    "lng": 2.69508
  },
  {
    "name": "Milizac",
    "country": "FR",
    "lat": 48.46698,
    "lng": -4.56675
  },
  {
    "name": "Milhaud",
    "country": "FR",
    "lat": 43.78986,
    "lng": 4.30737
  },
  {
    "name": "Migné",
    "country": "FR",
    "lat": 46.62756,
    "lng": 0.31483
  },
  {
    "name": "Mignaloux-Beauvoir",
    "country": "FR",
    "lat": 46.54311,
    "lng": 0.4145
  },
  {
    "name": "Migennes",
    "country": "FR",
    "lat": 47.96548,
    "lng": 3.51787
  },
  {
    "name": "Mieussy",
    "country": "FR",
    "lat": 46.13369,
    "lng": 6.52416
  },
  {
    "name": "Miélan",
    "country": "FR",
    "lat": 43.42942,
    "lng": 0.30785
  },
  {
    "name": "Mitzic",
    "country": "GA",
    "lat": 0.78205,
    "lng": 11.54904
  },
  {
    "name": "Minvoul",
    "country": "GA",
    "lat": 2.15161,
    "lng": 12.132
  },
  {
    "name": "Mimongo",
    "country": "GA",
    "lat": -1.61952,
    "lng": 11.60675
  },
  {
    "name": "Mitchel Troy",
    "country": "GB",
    "lat": 51.78728,
    "lng": -2.73731
  },
  {
    "name": "Mitcheldean",
    "country": "GB",
    "lat": 51.8644,
    "lng": -2.4895
  },
  {
    "name": "Mitcham",
    "country": "GB",
    "lat": 51.40322,
    "lng": -0.16831
  },
  {
    "name": "Mistley",
    "country": "GB",
    "lat": 51.94331,
    "lng": 1.08254
  },
  {
    "name": "Misterton",
    "country": "GB",
    "lat": 53.44492,
    "lng": -0.85032
  },
  {
    "name": "Mirfield",
    "country": "GB",
    "lat": 53.67343,
    "lng": -1.69636
  },
  {
    "name": "Mintlaw",
    "country": "GB",
    "lat": 57.52414,
    "lng": -2.00099
  },
  {
    "name": "Minster Lovell",
    "country": "GB",
    "lat": 51.79274,
    "lng": -1.5483
  },
  {
    "name": "Minsterley",
    "country": "GB",
    "lat": 52.63989,
    "lng": -2.92807
  },
  {
    "name": "Minety",
    "country": "GB",
    "lat": 51.61667,
    "lng": -1.95
  },
  {
    "name": "Minehead",
    "country": "GB",
    "lat": 51.20452,
    "lng": -3.48284
  },
  {
    "name": "Minchinhampton",
    "country": "GB",
    "lat": 51.70675,
    "lng": -2.18502
  },
  {
    "name": "Milverton",
    "country": "GB",
    "lat": 51.02333,
    "lng": -3.25222
  },
  {
    "name": "Milton Keynes",
    "country": "GB",
    "lat": 52.04172,
    "lng": -0.75583
  },
  {
    "name": "Milton Bryan",
    "country": "GB",
    "lat": 51.95,
    "lng": -0.58333
  },
  {
    "name": "Milston",
    "country": "GB",
    "lat": 51.20621,
    "lng": -1.76901
  },
  {
    "name": "Milnthorpe",
    "country": "GB",
    "lat": 54.22785,
    "lng": -2.76939
  },
  {
    "name": "Milnrow",
    "country": "GB",
    "lat": 53.61115,
    "lng": -2.11266
  },
  {
    "name": "Milngavie",
    "country": "GB",
    "lat": 55.94071,
    "lng": -4.32311
  },
  {
    "name": "Milnathort",
    "country": "GB",
    "lat": 56.22688,
    "lng": -3.4193
  },
  {
    "name": "Milltimber",
    "country": "GB",
    "lat": 57.10424,
    "lng": -2.24099
  },
  {
    "name": "Millport",
    "country": "GB",
    "lat": 55.75348,
    "lng": -4.92559
  },
  {
    "name": "Millom",
    "country": "GB",
    "lat": 54.21072,
    "lng": -3.272
  },
  {
    "name": "Millisle",
    "country": "GB",
    "lat": 54.60638,
    "lng": -5.52973
  },
  {
    "name": "Millington",
    "country": "GB",
    "lat": 53.95,
    "lng": -0.73333
  },
  {
    "name": "Millbrook",
    "country": "GB",
    "lat": 52.03882,
    "lng": -0.52438
  },
  {
    "name": "Millbrook",
    "country": "GB",
    "lat": 50.34925,
    "lng": -4.21506
  },
  {
    "name": "Milford on Sea",
    "country": "GB",
    "lat": 50.72561,
    "lng": -1.59004
  },
  {
    "name": "Milford Haven",
    "country": "GB",
    "lat": 51.71278,
    "lng": -5.0341
  },
  {
    "name": "Milford",
    "country": "GB",
    "lat": 51.17272,
    "lng": -0.65042
  },
  {
    "name": "Mildenhall",
    "country": "GB",
    "lat": 52.34446,
    "lng": 0.51086
  },
  {
    "name": "Mildenhall",
    "country": "GB",
    "lat": 51.4256,
    "lng": -1.69988
  },
  {
    "name": "Milborne St Andrew",
    "country": "GB",
    "lat": 50.77829,
    "lng": -2.28114
  },
  {
    "name": "Milborne Port",
    "country": "GB",
    "lat": 50.96605,
    "lng": -2.46248
  },
  {
    "name": "Midsomer Norton",
    "country": "GB",
    "lat": 51.28567,
    "lng": -2.48591
  },
  {
    "name": "Midhurst",
    "country": "GB",
    "lat": 50.98559,
    "lng": -0.74003
  },
  {
    "name": "Middle Winterslow",
    "country": "GB",
    "lat": 51.09346,
    "lng": -1.65453
  },
  {
    "name": "Middlewich",
    "country": "GB",
    "lat": 53.19296,
    "lng": -2.44402
  },
  {
    "name": "Middleton",
    "country": "GB",
    "lat": 53.55,
    "lng": -2.2
  },
  {
    "name": "Middlestown",
    "country": "GB",
    "lat": 53.65079,
    "lng": -1.59762
  },
  {
    "name": "Middlesbrough",
    "country": "GB",
    "lat": 54.57623,
    "lng": -1.23483
  },
  {
    "name": "Middle Rasen",
    "country": "GB",
    "lat": 53.38722,
    "lng": -0.36202
  },
  {
    "name": "Mid Calder",
    "country": "GB",
    "lat": 55.89261,
    "lng": -3.48002
  },
  {
    "name": "Mickle Trafford",
    "country": "GB",
    "lat": 53.22146,
    "lng": -2.83225
  },
  {
    "name": "Mickleton",
    "country": "GB",
    "lat": 54.60807,
    "lng": -2.04998
  },
  {
    "name": "Mickleton",
    "country": "GB",
    "lat": 52.09152,
    "lng": -1.76623
  },
  {
    "name": "Milton of Campsie",
    "country": "GB",
    "lat": 55.9612,
    "lng": -4.16508
  },
  {
    "name": "Milton of Leys",
    "country": "GB",
    "lat": 57.45125,
    "lng": -4.17592
  },
  {
    "name": "Millhouse Green",
    "country": "GB",
    "lat": 53.5249,
    "lng": -1.67163
  },
  {
    "name": "Mill End",
    "country": "GB",
    "lat": 51.63877,
    "lng": -0.50094
  },
  {
    "name": "Mim",
    "country": "GH",
    "lat": 6.90412,
    "lng": -2.56114
  },
  {
    "name": "Mignada",
    "country": "GN",
    "lat": 11.63353,
    "lng": -9.63254
  },
  {
    "name": "Mikomeseng",
    "country": "GQ",
    "lat": 2.13609,
    "lng": 10.61322
  },
  {
    "name": "Mitrópoli",
    "country": "GR",
    "lat": 39.33933,
    "lng": 21.83751
  },
  {
    "name": "Mindilóglion",
    "country": "GR",
    "lat": 38.18387,
    "lng": 21.70133
  },
  {
    "name": "Mikrópolis",
    "country": "GR",
    "lat": 41.19351,
    "lng": 23.8157
  },
  {
    "name": "Mikró Monastíri",
    "country": "GR",
    "lat": 40.7043,
    "lng": 22.54112
  },
  {
    "name": "Mitroúsi",
    "country": "GR",
    "lat": 41.07041,
    "lng": 23.46064
  },
  {
    "name": "Mixco",
    "country": "GT",
    "lat": 14.63077,
    "lng": -90.60711
  },
  {
    "name": "Mid Levels",
    "country": "HK",
    "lat": 22.28399,
    "lng": 114.14958
  },
  {
    "name": "Ming Wah Dai Ha",
    "country": "HK",
    "lat": 22.27778,
    "lng": 114.23108
  },
  {
    "name": "Minas de Oro",
    "country": "HN",
    "lat": 14.79611,
    "lng": -87.34654
  },
  {
    "name": "Mirkovci",
    "country": "HR",
    "lat": 45.26972,
    "lng": 18.85111
  },
  {
    "name": "Milna",
    "country": "HR",
    "lat": 43.32667,
    "lng": 16.45083
  },
  {
    "name": "Mikleuš",
    "country": "HR",
    "lat": 45.61861,
    "lng": 17.80389
  },
  {
    "name": "Mihovljan",
    "country": "HR",
    "lat": 46.40586,
    "lng": 16.44627
  },
  {
    "name": "Mihovljan",
    "country": "HR",
    "lat": 46.13306,
    "lng": 15.97222
  },
  {
    "name": "Mičevec",
    "country": "HR",
    "lat": 45.7521,
    "lng": 16.05831
  },
  {
    "name": "Milanovac",
    "country": "HR",
    "lat": 45.79972,
    "lng": 17.38694
  },
  {
    "name": "Mirebalais",
    "country": "HT",
    "lat": 18.83455,
    "lng": -72.1048
  },
  {
    "name": "Miragoâne",
    "country": "HT",
    "lat": 18.44599,
    "lng": -73.08957
  },
  {
    "name": "Milot",
    "country": "HT",
    "lat": 19.60837,
    "lng": -72.21319
  },
  {
    "name": "Miskolc",
    "country": "HU",
    "lat": 48.10327,
    "lng": 20.77806
  },
  {
    "name": "Mindszent",
    "country": "HU",
    "lat": 46.52362,
    "lng": 20.19038
  },
  {
    "name": "Mikepércs",
    "country": "HU",
    "lat": 47.45,
    "lng": 21.63333
  },
  {
    "name": "Mihályi",
    "country": "HU",
    "lat": 47.51384,
    "lng": 17.09507
  },
  {
    "name": "Miskolctapolca",
    "country": "HU",
    "lat": 48.06334,
    "lng": 20.74751
  },
  {
    "name": "Miklóstelep",
    "country": "HU",
    "lat": 47.44666,
    "lng": 19.19539
  },
  {
    "name": "Mindiptana",
    "country": "ID",
    "lat": -5.86386,
    "lng": 140.69253
  },
  {
    "name": "Mitchelstown",
    "country": "IE",
    "lat": 52.26583,
    "lng": -8.26806
  },
  {
    "name": "Millstreet",
    "country": "IE",
    "lat": 52.05935,
    "lng": -9.06031
  },
  {
    "name": "Midleton",
    "country": "IE",
    "lat": 51.91526,
    "lng": -8.18052
  },
  {
    "name": "Milltown",
    "country": "IE",
    "lat": 53.31301,
    "lng": -6.2453
  },
  {
    "name": "Miẕpé Yeriẖo",
    "country": "IL",
    "lat": 31.81672,
    "lng": 35.39405
  },
  {
    "name": "Mitzpe Ramon",
    "country": "IL",
    "lat": 30.60944,
    "lng": 34.80111
  },
  {
    "name": "Mishmeret",
    "country": "IL",
    "lat": 32.22818,
    "lng": 34.91835
  },
  {
    "name": "Mishmarot",
    "country": "IL",
    "lat": 32.48718,
    "lng": 34.98324
  },
  {
    "name": "Mishmar HaNegev",
    "country": "IL",
    "lat": 31.36416,
    "lng": 34.7187
  },
  {
    "name": "Mishmar Ha‘Emeq",
    "country": "IL",
    "lat": 32.61045,
    "lng": 35.14227
  },
  {
    "name": "Mikhmoret",
    "country": "IL",
    "lat": 32.40535,
    "lng": 34.87091
  },
  {
    "name": "Mi‘ilyā",
    "country": "IL",
    "lat": 33.02781,
    "lng": 35.25658
  },
  {
    "name": "Migdal Ha‘Emeq",
    "country": "IL",
    "lat": 32.67597,
    "lng": 35.23986
  },
  {
    "name": "Migdal",
    "country": "IL",
    "lat": 32.8392,
    "lng": 35.50145
  },
  {
    "name": "Midreshet Ben-Gurion",
    "country": "IL",
    "lat": 30.85154,
    "lng": 34.7834
  },
  {
    "name": "Mitspe Netofa",
    "country": "IL",
    "lat": 32.80287,
    "lng": 35.38291
  },
  {
    "name": "Mitspe Aviv",
    "country": "IL",
    "lat": 32.83907,
    "lng": 35.19921
  },
  {
    "name": "Misrikh",
    "country": "IN",
    "lat": 27.43137,
    "lng": 80.53157
  },
  {
    "name": "Mirzāpur",
    "country": "IN",
    "lat": 25.1449,
    "lng": 82.56534
  },
  {
    "name": "Mirik",
    "country": "IN",
    "lat": 26.88817,
    "lng": 88.19007
  },
  {
    "name": "Miryalaguda",
    "country": "IN",
    "lat": 16.8722,
    "lng": 79.56247
  },
  {
    "name": "Milak",
    "country": "IN",
    "lat": 28.61031,
    "lng": 79.16997
  },
  {
    "name": "Mihona",
    "country": "IN",
    "lat": 26.28373,
    "lng": 78.98048
  },
  {
    "name": "Miāo",
    "country": "IN",
    "lat": 27.49335,
    "lng": 96.18118
  },
  {
    "name": "Mitrāon",
    "country": "IN",
    "lat": 28.60623,
    "lng": 76.94598
  },
  {
    "name": "Mirganj",
    "country": "IN",
    "lat": 26.37345,
    "lng": 84.33489
  },
  {
    "name": "Minalur",
    "country": "IN",
    "lat": 10.62495,
    "lng": 76.22147
  },
  {
    "name": "Minicoy",
    "country": "IN",
    "lat": 8.28899,
    "lng": 73.0617
  },
  {
    "name": "Milattūr",
    "country": "IN",
    "lat": 10.85759,
    "lng": 79.23938
  },
  {
    "name": "Midalam",
    "country": "IN",
    "lat": 8.22162,
    "lng": 77.26168
  },
  {
    "name": "Minnampalli",
    "country": "IN",
    "lat": 11.00054,
    "lng": 78.11805
  },
  {
    "name": "Mir Pur Turk",
    "country": "IN",
    "lat": 28.70493,
    "lng": 77.26424
  },
  {
    "name": "Mirjhapar",
    "country": "IN",
    "lat": 23.21896,
    "lng": 69.63358
  },
  {
    "name": "Mithapur",
    "country": "IN",
    "lat": 22.41414,
    "lng": 69.00885
  },
  {
    "name": "Milavittan",
    "country": "IN",
    "lat": 8.81928,
    "lng": 78.09087
  },
  {
    "name": "Mistretta",
    "country": "IT",
    "lat": 37.92823,
    "lng": 14.3578
  },
  {
    "name": "Misterbianco",
    "country": "IT",
    "lat": 37.51803,
    "lng": 15.00913
  },
  {
    "name": "Misilmeri",
    "country": "IT",
    "lat": 38.03183,
    "lng": 13.44795
  },
  {
    "name": "Mirto",
    "country": "IT",
    "lat": 39.60069,
    "lng": 16.7739
  },
  {
    "name": "Mirto",
    "country": "IT",
    "lat": 38.08439,
    "lng": 14.74609
  },
  {
    "name": "Mirabella Imbaccari",
    "country": "IT",
    "lat": 37.32702,
    "lng": 14.44605
  },
  {
    "name": "Mineo",
    "country": "IT",
    "lat": 37.26494,
    "lng": 14.69381
  },
  {
    "name": "Milo",
    "country": "IT",
    "lat": 37.7245,
    "lng": 15.11554
  },
  {
    "name": "Militello Rosmarino",
    "country": "IT",
    "lat": 38.04575,
    "lng": 14.67584
  },
  {
    "name": "Militello in Val di Catania",
    "country": "IT",
    "lat": 37.27594,
    "lng": 14.79342
  },
  {
    "name": "Mileto",
    "country": "IT",
    "lat": 38.6078,
    "lng": 16.06751
  },
  {
    "name": "Milena",
    "country": "IT",
    "lat": 37.47133,
    "lng": 13.73613
  },
  {
    "name": "Milazzo",
    "country": "IT",
    "lat": 38.22008,
    "lng": 15.24023
  },
  {
    "name": "Miglierina",
    "country": "IT",
    "lat": 38.9506,
    "lng": 16.47233
  },
  {
    "name": "Miggiano",
    "country": "IT",
    "lat": 39.9618,
    "lng": 18.31119
  },
  {
    "name": "Missanello",
    "country": "IT",
    "lat": 40.28311,
    "lng": 16.1665
  },
  {
    "name": "Missaglia",
    "country": "IT",
    "lat": 45.70656,
    "lng": 9.33471
  },
  {
    "name": "Misinto",
    "country": "IT",
    "lat": 45.66142,
    "lng": 9.08129
  },
  {
    "name": "Misano di Gera d'Adda",
    "country": "IT",
    "lat": 45.46946,
    "lng": 9.62129
  },
  {
    "name": "Misano Adriatico",
    "country": "IT",
    "lat": 43.97714,
    "lng": 12.69805
  },
  {
    "name": "Mirano",
    "country": "IT",
    "lat": 45.49458,
    "lng": 12.10775
  },
  {
    "name": "Mirandola",
    "country": "IT",
    "lat": 44.88515,
    "lng": 11.06902
  },
  {
    "name": "Miranda",
    "country": "IT",
    "lat": 41.64434,
    "lng": 14.24643
  },
  {
    "name": "Miradolo Terme",
    "country": "IT",
    "lat": 45.17094,
    "lng": 9.44442
  },
  {
    "name": "Mirabello Sannitico",
    "country": "IT",
    "lat": 41.51628,
    "lng": 14.67315
  },
  {
    "name": "Mirabello Monferrato",
    "country": "IT",
    "lat": 45.03496,
    "lng": 8.52385
  },
  {
    "name": "Mirabello",
    "country": "IT",
    "lat": 44.82295,
    "lng": 11.45669
  },
  {
    "name": "Mirabella Eclano",
    "country": "IT",
    "lat": 41.04496,
    "lng": 15.00022
  },
  {
    "name": "Mira Taglio",
    "country": "IT",
    "lat": 45.4346,
    "lng": 12.12942
  },
  {
    "name": "Minucciano",
    "country": "IT",
    "lat": 44.17,
    "lng": 10.20807
  },
  {
    "name": "Minturno",
    "country": "IT",
    "lat": 41.26294,
    "lng": 13.74583
  },
  {
    "name": "Minori",
    "country": "IT",
    "lat": 40.6503,
    "lng": 14.62684
  },
  {
    "name": "Minervino Murge",
    "country": "IT",
    "lat": 41.08264,
    "lng": 16.07861
  },
  {
    "name": "Minervino di Lecce",
    "country": "IT",
    "lat": 40.09025,
    "lng": 18.42139
  },
  {
    "name": "Minerbio",
    "country": "IT",
    "lat": 44.61811,
    "lng": 11.47257
  },
  {
    "name": "Minerbe",
    "country": "IT",
    "lat": 45.23198,
    "lng": 11.35249
  },
  {
    "name": "Millesimo",
    "country": "IT",
    "lat": 44.36695,
    "lng": 8.20354
  },
  {
    "name": "Milis",
    "country": "IT",
    "lat": 40.05045,
    "lng": 8.63702
  },
  {
    "name": "Milano Marittima",
    "country": "IT",
    "lat": 44.27409,
    "lng": 12.35172
  },
  {
    "name": "Milan",
    "country": "IT",
    "lat": 45.46427,
    "lng": 9.18951
  },
  {
    "name": "Milanere",
    "country": "IT",
    "lat": 45.10436,
    "lng": 7.43373
  },
  {
    "name": "Mignano Monte Lungo",
    "country": "IT",
    "lat": 41.40592,
    "lng": 13.98552
  },
  {
    "name": "Mignanego",
    "country": "IT",
    "lat": 44.52748,
    "lng": 8.91412
  },
  {
    "name": "Miglionico",
    "country": "IT",
    "lat": 40.56763,
    "lng": 16.49964
  },
  {
    "name": "Migliaro",
    "country": "IT",
    "lat": 44.79916,
    "lng": 11.9744
  },
  {
    "name": "Migliarino",
    "country": "IT",
    "lat": 44.76993,
    "lng": 11.93304
  },
  {
    "name": "Migliarino",
    "country": "IT",
    "lat": 43.76589,
    "lng": 10.33951
  },
  {
    "name": "Migliarina",
    "country": "IT",
    "lat": 44.81042,
    "lng": 10.836
  },
  {
    "name": "Miglianico",
    "country": "IT",
    "lat": 42.35773,
    "lng": 14.29179
  },
  {
    "name": "Micigliano",
    "country": "IT",
    "lat": 42.45203,
    "lng": 13.05318
  },
  {
    "name": "Miazzina",
    "country": "IT",
    "lat": 45.97566,
    "lng": 8.52308
  },
  {
    "name": "Miano",
    "country": "IT",
    "lat": 40.88816,
    "lng": 14.25339
  },
  {
    "name": "Miane",
    "country": "IT",
    "lat": 45.94341,
    "lng": 12.09246
  },
  {
    "name": "Mignagola",
    "country": "IT",
    "lat": 45.68868,
    "lng": 12.32154
  },
  {
    "name": "Mioglia",
    "country": "IT",
    "lat": 44.49214,
    "lng": 8.41435
  },
  {
    "name": "Milzano",
    "country": "IT",
    "lat": 45.27358,
    "lng": 10.19927
  },
  {
    "name": "Miasino",
    "country": "IT",
    "lat": 45.80197,
    "lng": 8.42972
  },
  {
    "name": "Miagliano",
    "country": "IT",
    "lat": 45.61346,
    "lng": 8.04472
  },
  {
    "name": "Miola di Pinè",
    "country": "IT",
    "lat": 46.12668,
    "lng": 11.2485
  },
  {
    "name": "Millepini",
    "country": "IT",
    "lat": 45.46967,
    "lng": 9.33763
  },
  {
    "name": "Mimosa-Poggio Verde-Nuova Comunità",
    "country": "IT",
    "lat": 41.53871,
    "lng": 14.66879
  },
  {
    "name": "Mirafiori Sud",
    "country": "IT",
    "lat": 45.02125,
    "lng": 7.62314
  },
  {
    "name": "Mirafiori Nord",
    "country": "IT",
    "lat": 45.04248,
    "lng": 7.6276
  },
  {
    "name": "Minato",
    "country": "JP",
    "lat": 34.2152,
    "lng": 135.1501
  },
  {
    "name": "Mizunami",
    "country": "JP",
    "lat": 35.36667,
    "lng": 137.25
  },
  {
    "name": "Miyoshi",
    "country": "JP",
    "lat": 34.8,
    "lng": 132.85
  },
  {
    "name": "Miyazu",
    "country": "JP",
    "lat": 35.53638,
    "lng": 135.19934
  },
  {
    "name": "Miyazaki",
    "country": "JP",
    "lat": 31.91667,
    "lng": 131.41667
  },
  {
    "name": "Miyanoura",
    "country": "JP",
    "lat": 30.4269,
    "lng": 130.57151
  },
  {
    "name": "Miyashita",
    "country": "JP",
    "lat": 37.47104,
    "lng": 139.64216
  },
  {
    "name": "Miyahara",
    "country": "JP",
    "lat": 33.12266,
    "lng": 131.07011
  },
  {
    "name": "Miyakonojō",
    "country": "JP",
    "lat": 31.73333,
    "lng": 131.06667
  },
  {
    "name": "Miyajima",
    "country": "JP",
    "lat": 34.29907,
    "lng": 132.32186
  },
  {
    "name": "Miyada",
    "country": "JP",
    "lat": 35.76667,
    "lng": 137.95
  },
  {
    "name": "Miyata",
    "country": "JP",
    "lat": 33.70811,
    "lng": 130.65297
  },
  {
    "name": "Mitsushima",
    "country": "JP",
    "lat": 35.26667,
    "lng": 137.85
  },
  {
    "name": "Mitsuke",
    "country": "JP",
    "lat": 37.53333,
    "lng": 138.93333
  },
  {
    "name": "Mitsukaidō",
    "country": "JP",
    "lat": 36.01667,
    "lng": 139.98333
  },
  {
    "name": "Mitake",
    "country": "JP",
    "lat": 35.41667,
    "lng": 137.13333
  },
  {
    "name": "Mitai",
    "country": "JP",
    "lat": 32.7,
    "lng": 131.3
  },
  {
    "name": "Mishima",
    "country": "JP",
    "lat": 35.11667,
    "lng": 138.91667
  },
  {
    "name": "Minoh",
    "country": "JP",
    "lat": 34.82691,
    "lng": 135.47057
  },
  {
    "name": "Mino",
    "country": "JP",
    "lat": 35.53333,
    "lng": 136.91667
  },
  {
    "name": "Minato",
    "country": "JP",
    "lat": 34.63771,
    "lng": 138.89164
  },
  {
    "name": "Minari",
    "country": "JP",
    "lat": 35.2,
    "lng": 133.0
  },
  {
    "name": "Minano",
    "country": "JP",
    "lat": 36.07356,
    "lng": 139.09994
  },
  {
    "name": "Minamiura",
    "country": "JP",
    "lat": 33.72256,
    "lng": 131.64696
  },
  {
    "name": "Minamirinkan",
    "country": "JP",
    "lat": 35.49527,
    "lng": 139.44279
  },
  {
    "name": "Minamata",
    "country": "JP",
    "lat": 32.21667,
    "lng": 130.4
  },
  {
    "name": "Minakuchichō-matoba",
    "country": "JP",
    "lat": 34.96667,
    "lng": 136.16667
  },
  {
    "name": "Minabe",
    "country": "JP",
    "lat": 33.76857,
    "lng": 135.31845
  },
  {
    "name": "Mikuriya",
    "country": "JP",
    "lat": 35.51242,
    "lng": 133.49737
  },
  {
    "name": "Mikuni",
    "country": "JP",
    "lat": 36.21494,
    "lng": 136.14832
  },
  {
    "name": "Miki",
    "country": "JP",
    "lat": 34.8,
    "lng": 134.98333
  },
  {
    "name": "Mihara",
    "country": "JP",
    "lat": 34.4,
    "lng": 133.08333
  },
  {
    "name": "Mifune",
    "country": "JP",
    "lat": 32.71667,
    "lng": 130.8222
  },
  {
    "name": "Mie",
    "country": "JP",
    "lat": 32.96667,
    "lng": 131.58333
  },
  {
    "name": "Mibu",
    "country": "JP",
    "lat": 36.41667,
    "lng": 139.8
  },
  {
    "name": "Minawa",
    "country": "JP",
    "lat": 35.52278,
    "lng": 139.31944
  },
  {
    "name": "Miura",
    "country": "JP",
    "lat": 35.14,
    "lng": 139.61917
  },
  {
    "name": "Mishōhirajō",
    "country": "JP",
    "lat": 32.96367,
    "lng": 132.5661
  },
  {
    "name": "Minamisanriku",
    "country": "JP",
    "lat": 38.67807,
    "lng": 141.44314
  },
  {
    "name": "Mizusawa",
    "country": "JP",
    "lat": 39.13333,
    "lng": 141.13333
  },
  {
    "name": "Miyako",
    "country": "JP",
    "lat": 39.64691,
    "lng": 141.94057
  },
  {
    "name": "Miyajuku",
    "country": "JP",
    "lat": 38.30139,
    "lng": 140.14139
  },
  {
    "name": "Mito",
    "country": "JP",
    "lat": 36.35,
    "lng": 140.45
  },
  {
    "name": "Miharu",
    "country": "JP",
    "lat": 37.43333,
    "lng": 140.48333
  },
  {
    "name": "Mizusawa",
    "country": "JP",
    "lat": 38.43417,
    "lng": 140.10139
  },
  {
    "name": "Minamishibetsuchō",
    "country": "JP",
    "lat": 44.15399,
    "lng": 142.37307
  },
  {
    "name": "Misawa",
    "country": "JP",
    "lat": 40.68682,
    "lng": 141.38969
  },
  {
    "name": "Mikasa",
    "country": "JP",
    "lat": 43.25581,
    "lng": 141.88818
  },
  {
    "name": "Minamiashigara",
    "country": "JP",
    "lat": 35.31947,
    "lng": 139.1096
  },
  {
    "name": "Misato, Saitama",
    "country": "JP",
    "lat": 35.84373,
    "lng": 139.88347
  },
  {
    "name": "Minami-Sōma",
    "country": "JP",
    "lat": 37.62908,
    "lng": 140.97868
  },
  {
    "name": "Midori",
    "country": "JP",
    "lat": 36.44492,
    "lng": 139.28448
  },
  {
    "name": "Miyakojima",
    "country": "JP",
    "lat": 24.79016,
    "lng": 125.31109
  },
  {
    "name": "Minokamo",
    "country": "JP",
    "lat": 35.48199,
    "lng": 137.02166
  },
  {
    "name": "Minamiuonuma",
    "country": "JP",
    "lat": 37.08259,
    "lng": 138.87413
  },
  {
    "name": "Miyako",
    "country": "JP",
    "lat": 33.6992,
    "lng": 130.92007
  },
  {
    "name": "Minamida",
    "country": "JP",
    "lat": 40.21516,
    "lng": 141.41845
  },
  {
    "name": "Misasa",
    "country": "JP",
    "lat": 35.41,
    "lng": 133.89472
  },
  {
    "name": "Mizunashi",
    "country": "JP",
    "lat": 37.1824,
    "lng": 139.80061
  },
  {
    "name": "Minehama-menagata",
    "country": "JP",
    "lat": 40.31744,
    "lng": 140.04065
  },
  {
    "name": "Minamichita",
    "country": "JP",
    "lat": 34.67644,
    "lng": 137.00522
  },
  {
    "name": "Miyaodai",
    "country": "JP",
    "lat": 33.84661,
    "lng": 130.71276
  },
  {
    "name": "Mizue",
    "country": "JP",
    "lat": 35.69441,
    "lng": 139.89482
  },
  {
    "name": "Minaminagareyama",
    "country": "JP",
    "lat": 35.8401,
    "lng": 139.89864
  },
  {
    "name": "Miyoshidai",
    "country": "JP",
    "lat": 35.83318,
    "lng": 139.54437
  },
  {
    "name": "Minatomirai",
    "country": "JP",
    "lat": 35.45958,
    "lng": 139.6303
  },
  {
    "name": "Minami-Alps",
    "country": "JP",
    "lat": 35.616,
    "lng": 138.46344
  },
  {
    "name": "Miyota",
    "country": "JP",
    "lat": 36.33656,
    "lng": 138.51288
  },
  {
    "name": "Minamiise",
    "country": "JP",
    "lat": 34.34967,
    "lng": 136.69945
  },
  {
    "name": "Mitoyo",
    "country": "JP",
    "lat": 34.21052,
    "lng": 133.6746
  },
  {
    "name": "Mimasaka",
    "country": "JP",
    "lat": 35.04138,
    "lng": 134.22443
  },
  {
    "name": "Miyake",
    "country": "JP",
    "lat": 34.08991,
    "lng": 139.5195
  },
  {
    "name": "Mine",
    "country": "JP",
    "lat": 34.18681,
    "lng": 131.21624
  },
  {
    "name": "Miyoshi",
    "country": "JP",
    "lat": 35.08971,
    "lng": 137.08998
  },
  {
    "name": "Minamibōsō",
    "country": "JP",
    "lat": 35.03126,
    "lng": 139.92651
  },
  {
    "name": "Miyama",
    "country": "JP",
    "lat": 33.12102,
    "lng": 130.50007
  },
  {
    "name": "Miyawaka",
    "country": "JP",
    "lat": 33.71706,
    "lng": 130.64117
  },
  {
    "name": "Mizuho",
    "country": "JP",
    "lat": 35.3943,
    "lng": 136.66898
  },
  {
    "name": "Minamiawaji",
    "country": "JP",
    "lat": 34.27396,
    "lng": 134.77512
  },
  {
    "name": "Minamikyushu",
    "country": "JP",
    "lat": 31.34689,
    "lng": 130.45612
  },
  {
    "name": "Minamisatsuma",
    "country": "JP",
    "lat": 31.38999,
    "lng": 130.28343
  },
  {
    "name": "Minamishimabara",
    "country": "JP",
    "lat": 32.67334,
    "lng": 130.26747
  },
  {
    "name": "Mima",
    "country": "JP",
    "lat": 34.05493,
    "lng": 134.13963
  },
  {
    "name": "Miyoshi",
    "country": "JP",
    "lat": 33.92541,
    "lng": 133.85674
  },
  {
    "name": "Mizumotomachi",
    "country": "JP",
    "lat": 43.83764,
    "lng": 144.59606
  },
  {
    "name": "Minase",
    "country": "JP",
    "lat": 34.87724,
    "lng": 135.6651
  },
  {
    "name": "Mitaka",
    "country": "JP",
    "lat": 35.68361,
    "lng": 139.56002
  },
  {
    "name": "Minamino",
    "country": "JP",
    "lat": 35.62594,
    "lng": 139.31956
  },
  {
    "name": "Miyashiro",
    "country": "JP",
    "lat": 36.02229,
    "lng": 139.72951
  },
  {
    "name": "Minamiminowa",
    "country": "JP",
    "lat": 35.87291,
    "lng": 137.97503
  },
  {
    "name": "Minamiarupusu",
    "country": "JP",
    "lat": 35.60855,
    "lng": 138.46473
  },
  {
    "name": "Minato City",
    "country": "JP",
    "lat": 35.6581,
    "lng": 139.7515
  },
  {
    "name": "Minamidaito",
    "country": "JP",
    "lat": 25.82987,
    "lng": 131.23234
  },
  {
    "name": "Mitunguu",
    "country": "KE",
    "lat": -0.10886,
    "lng": 37.7826
  },
  {
    "name": "Migori",
    "country": "KE",
    "lat": -1.06343,
    "lng": 34.47313
  },
  {
    "name": "Mittakpheap",
    "country": "KH",
    "lat": 10.62268,
    "lng": 103.52473
  },
  {
    "name": "Mitsoudjé",
    "country": "KM",
    "lat": -11.81209,
    "lng": 43.28043
  },
  {
    "name": "Mitsamiouli",
    "country": "KM",
    "lat": -11.38472,
    "lng": 43.28444
  },
  {
    "name": "Mirontsi",
    "country": "KM",
    "lat": -12.1604,
    "lng": 44.40986
  },
  {
    "name": "Middle Island",
    "country": "KN",
    "lat": 17.3259,
    "lng": -62.81055
  },
  {
    "name": "Miryang",
    "country": "KR",
    "lat": 35.49333,
    "lng": 128.74889
  },
  {
    "name": "Mijo",
    "country": "KR",
    "lat": 34.7128,
    "lng": 128.04605
  },
  {
    "name": "Miryeok",
    "country": "KR",
    "lat": 34.80134,
    "lng": 127.08749
  },
  {
    "name": "Midland Acres",
    "country": "KY",
    "lat": 19.29862,
    "lng": -81.22061
  },
  {
    "name": "Miyaly",
    "country": "KZ",
    "lat": 48.88548,
    "lng": 53.79168
  },
  {
    "name": "Micoud",
    "country": "LC",
    "lat": 13.81667,
    "lng": -60.9
  },
  {
    "name": "Minuwangoda",
    "country": "LK",
    "lat": 7.1663,
    "lng": 79.9533
  },
  {
    "name": "Mihintale",
    "country": "LK",
    "lat": 8.3593,
    "lng": 80.5103
  },
  {
    "name": "Mirissa city",
    "country": "LK",
    "lat": 5.94655,
    "lng": 80.45831
  },
  {
    "name": "Mizdah",
    "country": "LY",
    "lat": 31.44934,
    "lng": 12.9853
  },
  {
    "name": "Misratah",
    "country": "LY",
    "lat": 32.37535,
    "lng": 15.09254
  },
  {
    "name": "Missour",
    "country": "MA",
    "lat": 33.04893,
    "lng": -3.98947
  },
  {
    "name": "Mirleft",
    "country": "MA",
    "lat": 29.57829,
    "lng": -10.03245
  },
  {
    "name": "Midelt",
    "country": "MA",
    "lat": 32.6852,
    "lng": -4.74512
  },
  {
    "name": "Midar",
    "country": "MA",
    "lat": 34.94025,
    "lng": -3.53311
  },
  {
    "name": "Miarinarivo",
    "country": "MG",
    "lat": -18.95873,
    "lng": 46.90553
  },
  {
    "name": "Miandrivazo",
    "country": "MG",
    "lat": -19.52905,
    "lng": 45.45559
  },
  {
    "name": "Miandrarivo",
    "country": "MG",
    "lat": -19.43333,
    "lng": 46.75
  },
  {
    "name": "Miadanandriana",
    "country": "MG",
    "lat": -19.03333,
    "lng": 47.78333
  },
  {
    "name": "Mili",
    "country": "MH",
    "lat": 6.0815,
    "lng": 171.73502
  },
  {
    "name": "Mislesevo",
    "country": "MK",
    "lat": 41.185,
    "lng": 20.70861
  },
  {
    "name": "Miravci",
    "country": "MK",
    "lat": 41.30925,
    "lng": 22.43641
  },
  {
    "name": "Miletino",
    "country": "MK",
    "lat": 41.90753,
    "lng": 21.01601
  },
  {
    "name": "Miladinovci",
    "country": "MK",
    "lat": 41.98029,
    "lng": 21.64982
  },
  {
    "name": "Minsin",
    "country": "MM",
    "lat": 25.52972,
    "lng": 95.37909
  },
  {
    "name": "Minbu",
    "country": "MM",
    "lat": 20.18059,
    "lng": 94.87595
  },
  {
    "name": "Mikenaungea",
    "country": "MM",
    "lat": 15.95846,
    "lng": 98.42721
  },
  {
    "name": "Midlands",
    "country": "MU",
    "lat": -20.338,
    "lng": 57.567
  },
  {
    "name": "Miahuatlán",
    "country": "MX",
    "lat": 18.54983,
    "lng": -97.43953
  },
  {
    "name": "Miahuatlán",
    "country": "MX",
    "lat": 18.29163,
    "lng": -97.28789
  },
  {
    "name": "Mixtla",
    "country": "MX",
    "lat": 18.90502,
    "lng": -97.89554
  },
  {
    "name": "Mixtla de Altamirano",
    "country": "MX",
    "lat": 18.59591,
    "lng": -96.99293
  },
  {
    "name": "Mixquiapan",
    "country": "MX",
    "lat": 19.70111,
    "lng": -97.27839
  },
  {
    "name": "Mixquiahuala de Juarez",
    "country": "MX",
    "lat": 20.23031,
    "lng": -99.21396
  },
  {
    "name": "Mixcum",
    "country": "MX",
    "lat": 15.0256,
    "lng": -92.1408
  },
  {
    "name": "Misantla",
    "country": "MX",
    "lat": 19.92992,
    "lng": -96.85194
  },
  {
    "name": "Miramar",
    "country": "MX",
    "lat": 22.36094,
    "lng": -97.89997
  },
  {
    "name": "Miquihuana",
    "country": "MX",
    "lat": 23.57618,
    "lng": -99.75313
  },
  {
    "name": "Minzapan",
    "country": "MX",
    "lat": 18.13873,
    "lng": -94.72733
  },
  {
    "name": "Mineral del Monte",
    "country": "MX",
    "lat": 20.1383,
    "lng": -98.67364
  },
  {
    "name": "Minatitlán",
    "country": "MX",
    "lat": 18.00011,
    "lng": -94.5569
  },
  {
    "name": "Milpa Alta",
    "country": "MX",
    "lat": 19.19251,
    "lng": -99.02317
  },
  {
    "name": "Mier",
    "country": "MX",
    "lat": 26.43017,
    "lng": -99.15159
  },
  {
    "name": "Michimaloya",
    "country": "MX",
    "lat": 20.09151,
    "lng": -99.39885
  },
  {
    "name": "Michac",
    "country": "MX",
    "lat": 19.85241,
    "lng": -98.05127
  },
  {
    "name": "Miahuatlán de Porfirio Díaz",
    "country": "MX",
    "lat": 16.33276,
    "lng": -96.59562
  },
  {
    "name": "Miahuatlán",
    "country": "MX",
    "lat": 19.70794,
    "lng": -96.87082
  },
  {
    "name": "Miacatlán",
    "country": "MX",
    "lat": 18.76203,
    "lng": -99.35944
  },
  {
    "name": "Miraflores",
    "country": "MX",
    "lat": 19.2221,
    "lng": -98.80741
  },
  {
    "name": "Miguel Hidalgo",
    "country": "MX",
    "lat": 18.25476,
    "lng": -93.30589
  },
  {
    "name": "Miguel Hidalgo",
    "country": "MX",
    "lat": 16.10391,
    "lng": -91.77832
  },
  {
    "name": "Miguel Hidalgo",
    "country": "MX",
    "lat": 16.3506,
    "lng": -92.62852
  },
  {
    "name": "Miravalles",
    "country": "MX",
    "lat": 19.3413,
    "lng": -97.53854
  },
  {
    "name": "Michapa",
    "country": "MX",
    "lat": 18.70241,
    "lng": -99.47907
  },
  {
    "name": "Miguel Hidalgo",
    "country": "MX",
    "lat": 19.75764,
    "lng": -97.28209
  },
  {
    "name": "Mina Vieja",
    "country": "MX",
    "lat": 19.5525,
    "lng": -99.94389
  },
  {
    "name": "Mina México",
    "country": "MX",
    "lat": 19.41014,
    "lng": -99.72771
  },
  {
    "name": "Miguel Hidalgo",
    "country": "MX",
    "lat": 19.43411,
    "lng": -99.20024
  },
  {
    "name": "Mi Patria es Primero",
    "country": "MX",
    "lat": 28.05082,
    "lng": -110.67804
  },
  {
    "name": "Miguel Alemán (La Doce)",
    "country": "MX",
    "lat": 28.84028,
    "lng": -111.4775
  },
  {
    "name": "Minas de Barroterán",
    "country": "MX",
    "lat": 27.65241,
    "lng": -101.28365
  },
  {
    "name": "Miguel Ahumada",
    "country": "MX",
    "lat": 30.61861,
    "lng": -106.51222
  },
  {
    "name": "Mixtlán",
    "country": "MX",
    "lat": 20.43974,
    "lng": -104.40864
  },
  {
    "name": "Misión de Chichimecas",
    "country": "MX",
    "lat": 21.28496,
    "lng": -100.48658
  },
  {
    "name": "Miraflores",
    "country": "MX",
    "lat": 23.36975,
    "lng": -109.77436
  },
  {
    "name": "Mineral de Angangueo",
    "country": "MX",
    "lat": 19.62056,
    "lng": -100.28436
  },
  {
    "name": "Minatitlán",
    "country": "MX",
    "lat": 19.36667,
    "lng": -104.06667
  },
  {
    "name": "Mina",
    "country": "MX",
    "lat": 26.0011,
    "lng": -100.52988
  },
  {
    "name": "Milpillas",
    "country": "MX",
    "lat": 27.20534,
    "lng": -108.64493
  },
  {
    "name": "Milpillas",
    "country": "MX",
    "lat": 20.50144,
    "lng": -102.53418
  },
  {
    "name": "Milpas Viejas",
    "country": "MX",
    "lat": 22.36478,
    "lng": -105.47549
  },
  {
    "name": "Milagros",
    "country": "MX",
    "lat": 22.50085,
    "lng": -102.18383
  },
  {
    "name": "Miguel Auza",
    "country": "MX",
    "lat": 24.29445,
    "lng": -103.45113
  },
  {
    "name": "Mier y Noriega",
    "country": "MX",
    "lat": 23.42246,
    "lng": -100.11727
  },
  {
    "name": "Mieleras",
    "country": "MX",
    "lat": 25.39932,
    "lng": -103.26706
  },
  {
    "name": "Michoacán de Ocampo",
    "country": "MX",
    "lat": 32.46576,
    "lng": -115.30849
  },
  {
    "name": "Mineral de la Luz",
    "country": "MX",
    "lat": 21.06456,
    "lng": -101.33806
  },
  {
    "name": "Miguel Hidalgo",
    "country": "MX",
    "lat": 20.55316,
    "lng": -97.502
  },
  {
    "name": "Mitras Poniente",
    "country": "MX",
    "lat": 25.77583,
    "lng": -100.42583
  },
  {
    "name": "Misión San Pablo",
    "country": "MX",
    "lat": 25.74,
    "lng": -100.14417
  },
  {
    "name": "Miguel Hidalgo",
    "country": "MX",
    "lat": 28.15361,
    "lng": -105.39389
  },
  {
    "name": "Mismaloya (Fraccionamiento Pedregal de Santa Martha)",
    "country": "MX",
    "lat": 20.60694,
    "lng": -103.17139
  },
  {
    "name": "Miguel Valdez Quintero (El Corazón)",
    "country": "MX",
    "lat": 24.49417,
    "lng": -107.31778
  },
  {
    "name": "Miguel Hidalgo 2da. Sección B (La Natividad)",
    "country": "MX",
    "lat": 18.07861,
    "lng": -93.35056
  },
  {
    "name": "Mitzitón",
    "country": "MX",
    "lat": 16.64639,
    "lng": -92.54333
  },
  {
    "name": "Mixtlalcingo",
    "country": "MX",
    "lat": 18.80333,
    "lng": -98.90028
  },
  {
    "name": "Miguel Utrilla (Los Chorros)",
    "country": "MX",
    "lat": 16.94278,
    "lng": -92.47972
  },
  {
    "name": "Misija",
    "country": "MX",
    "lat": 17.26611,
    "lng": -92.38167
  },
  {
    "name": "Miravalle",
    "country": "MX",
    "lat": 21.9725,
    "lng": -102.31139
  },
  {
    "name": "Miguel Hidalgo",
    "country": "MX",
    "lat": 17.90639,
    "lng": -93.1175
  },
  {
    "name": "Miguel Negrete",
    "country": "MX",
    "lat": 18.95222,
    "lng": -97.82917
  },
  {
    "name": "Minatitlán",
    "country": "MX",
    "lat": 19.38757,
    "lng": -104.04986
  },
  {
    "name": "Miri",
    "country": "MY",
    "lat": 4.39928,
    "lng": 113.99163
  },
  {
    "name": "Milange",
    "country": "MZ",
    "lat": -16.09861,
    "lng": 35.77
  },
  {
    "name": "Micolene",
    "country": "MZ",
    "lat": -16.73333,
    "lng": 39.23333
  },
  {
    "name": "Mirriah",
    "country": "NE",
    "lat": 13.70727,
    "lng": 9.15013
  },
  {
    "name": "Misau",
    "country": "NG",
    "lat": 11.3137,
    "lng": 10.46664
  },
  {
    "name": "Miringa",
    "country": "NG",
    "lat": 10.73115,
    "lng": 12.14626
  },
  {
    "name": "Minna",
    "country": "NG",
    "lat": 9.61524,
    "lng": 6.54776
  },
  {
    "name": "Minjibir",
    "country": "NG",
    "lat": 12.17765,
    "lng": 8.65782
  },
  {
    "name": "Miga",
    "country": "NG",
    "lat": 12.2388,
    "lng": 9.71362
  },
  {
    "name": "Michika",
    "country": "NG",
    "lat": 10.62042,
    "lng": 13.38928
  },
  {
    "name": "Minnertsga",
    "country": "NL",
    "lat": 53.25104,
    "lng": 5.59513
  },
  {
    "name": "Milsbeek",
    "country": "NL",
    "lat": 51.725,
    "lng": 5.94861
  },
  {
    "name": "Mill",
    "country": "NL",
    "lat": 51.68833,
    "lng": 5.77917
  },
  {
    "name": "Milheeze",
    "country": "NL",
    "lat": 51.50167,
    "lng": 5.77917
  },
  {
    "name": "Mijnsheerenland",
    "country": "NL",
    "lat": 51.79667,
    "lng": 4.4875
  },
  {
    "name": "Mijdrecht",
    "country": "NL",
    "lat": 52.20667,
    "lng": 4.8625
  },
  {
    "name": "Mierlo",
    "country": "NL",
    "lat": 51.44,
    "lng": 5.61944
  },
  {
    "name": "Midwoud",
    "country": "NL",
    "lat": 52.71667,
    "lng": 5.075
  },
  {
    "name": "Midwolda",
    "country": "NL",
    "lat": 53.195,
    "lng": 7.01389
  },
  {
    "name": "Middenmeer",
    "country": "NL",
    "lat": 52.80667,
    "lng": 4.99861
  },
  {
    "name": "Middenbeemster",
    "country": "NL",
    "lat": 52.54917,
    "lng": 4.9125
  },
  {
    "name": "Middelstum",
    "country": "NL",
    "lat": 53.34667,
    "lng": 6.64167
  },
  {
    "name": "Middelsluis",
    "country": "NL",
    "lat": 51.7425,
    "lng": 4.44167
  },
  {
    "name": "Middelrode",
    "country": "NL",
    "lat": 51.66417,
    "lng": 5.41944
  },
  {
    "name": "Middelharnis",
    "country": "NL",
    "lat": 51.7575,
    "lng": 4.16528
  },
  {
    "name": "Middelburg",
    "country": "NL",
    "lat": 51.5,
    "lng": 3.61389
  },
  {
    "name": "Middelbeers",
    "country": "NL",
    "lat": 51.46667,
    "lng": 5.25
  },
  {
    "name": "Midsund",
    "country": "NO",
    "lat": 62.67387,
    "lng": 6.67412
  },
  {
    "name": "Mission Bay",
    "country": "NZ",
    "lat": -36.85472,
    "lng": 174.83167
  },
  {
    "name": "Milton",
    "country": "NZ",
    "lat": -46.12083,
    "lng": 169.96944
  },
  {
    "name": "Milson",
    "country": "NZ",
    "lat": -40.32825,
    "lng": 175.61021
  },
  {
    "name": "Milford",
    "country": "NZ",
    "lat": -36.77158,
    "lng": 174.76585
  },
  {
    "name": "Miramar",
    "country": "PA",
    "lat": 9.57544,
    "lng": -79.33573
  },
  {
    "name": "Miramar",
    "country": "PA",
    "lat": 8.9975,
    "lng": -82.24344
  },
  {
    "name": "Miguel de La Borda",
    "country": "PA",
    "lat": 9.15398,
    "lng": -80.30595
  },
  {
    "name": "Mirones",
    "country": "PA",
    "lat": 8.55735,
    "lng": -81.7275
  },
  {
    "name": "Mirgas",
    "country": "PE",
    "lat": -9.07921,
    "lng": -77.09339
  },
  {
    "name": "Miraflores",
    "country": "PE",
    "lat": -9.49396,
    "lng": -76.8187
  },
  {
    "name": "Miracosta",
    "country": "PE",
    "lat": -6.40477,
    "lng": -79.28382
  },
  {
    "name": "Milpuc",
    "country": "PE",
    "lat": -6.49361,
    "lng": -77.435
  },
  {
    "name": "Miraflores",
    "country": "PE",
    "lat": -12.11331,
    "lng": -77.03274
  },
  {
    "name": "Miraflores",
    "country": "PE",
    "lat": -16.39809,
    "lng": -71.51987
  },
  {
    "name": "Miraflores",
    "country": "PE",
    "lat": -12.27417,
    "lng": -75.85024
  },
  {
    "name": "Minas de Marcona",
    "country": "PE",
    "lat": -15.21194,
    "lng": -75.11028
  },
  {
    "name": "Miramar",
    "country": "PE",
    "lat": -8.17945,
    "lng": -78.99381
  },
  {
    "name": "Minj",
    "country": "PG",
    "lat": -5.90752,
    "lng": 144.69159
  },
  {
    "name": "Miranda",
    "country": "PH",
    "lat": 10.3047,
    "lng": 122.8778
  },
  {
    "name": "Minuyan",
    "country": "PH",
    "lat": 10.51366,
    "lng": 123.1049
  },
  {
    "name": "Minuri",
    "country": "PH",
    "lat": 16.53233,
    "lng": 121.85532
  },
  {
    "name": "Minolos",
    "country": "PH",
    "lat": 10.1019,
    "lng": 123.4727
  },
  {
    "name": "Minlagas",
    "country": "PH",
    "lat": 8.87833,
    "lng": 125.03889
  },
  {
    "name": "Minien East",
    "country": "PH",
    "lat": 15.97723,
    "lng": 120.48127
  },
  {
    "name": "Minglanilla",
    "country": "PH",
    "lat": 10.24498,
    "lng": 123.7964
  },
  {
    "name": "Mindupok",
    "country": "PH",
    "lat": 6.09056,
    "lng": 124.42333
  },
  {
    "name": "Minapasoc",
    "country": "PH",
    "lat": 10.69885,
    "lng": 123.349
  },
  {
    "name": "Minapan",
    "country": "PH",
    "lat": 6.815,
    "lng": 124.85861
  },
  {
    "name": "Minante Segundo",
    "country": "PH",
    "lat": 16.9022,
    "lng": 121.76191
  },
  {
    "name": "Minanga Norte",
    "country": "PH",
    "lat": 17.45233,
    "lng": 121.78533
  },
  {
    "name": "Minanga Norte",
    "country": "PH",
    "lat": 17.7604,
    "lng": 121.72944
  },
  {
    "name": "Minallo",
    "country": "PH",
    "lat": 16.98685,
    "lng": 121.85394
  },
  {
    "name": "Minalin",
    "country": "PH",
    "lat": 14.9676,
    "lng": 120.6828
  },
  {
    "name": "Minalabac",
    "country": "PH",
    "lat": 13.5687,
    "lng": 123.1838
  },
  {
    "name": "Mina",
    "country": "PH",
    "lat": 10.9313,
    "lng": 122.5745
  },
  {
    "name": "Mileb",
    "country": "PH",
    "lat": 6.89861,
    "lng": 124.58389
  },
  {
    "name": "Milaor",
    "country": "PH",
    "lat": 13.5961,
    "lng": 123.1772
  },
  {
    "name": "Milagros",
    "country": "PH",
    "lat": 12.21814,
    "lng": 123.50951
  },
  {
    "name": "Midsayap",
    "country": "PH",
    "lat": 7.19083,
    "lng": 124.53028
  },
  {
    "name": "Midsalip",
    "country": "PH",
    "lat": 8.0,
    "lng": 123.26667
  },
  {
    "name": "Miaray",
    "country": "PH",
    "lat": 7.57472,
    "lng": 125.04444
  },
  {
    "name": "Mianay",
    "country": "PH",
    "lat": 11.4716,
    "lng": 122.7011
  },
  {
    "name": "Miagao",
    "country": "PH",
    "lat": 10.6442,
    "lng": 122.2352
  },
  {
    "name": "Miaga",
    "country": "PH",
    "lat": 12.2376,
    "lng": 123.8167
  },
  {
    "name": "Miliroc",
    "country": "PH",
    "lat": 13.3449,
    "lng": 123.702
  },
  {
    "name": "Mithi",
    "country": "PK",
    "lat": 24.73701,
    "lng": 69.79707
  },
  {
    "name": "Mitha Tiwana",
    "country": "PK",
    "lat": 32.2454,
    "lng": 72.10615
  },
  {
    "name": "Mirwah Gorchani",
    "country": "PK",
    "lat": 25.30981,
    "lng": 69.05019
  },
  {
    "name": "Mirpur Sakro",
    "country": "PK",
    "lat": 24.54692,
    "lng": 67.62797
  },
  {
    "name": "Mirpur Mathelo",
    "country": "PK",
    "lat": 28.02136,
    "lng": 69.54914
  },
  {
    "name": "Mirpur Khas",
    "country": "PK",
    "lat": 25.5276,
    "lng": 69.01255
  },
  {
    "name": "Mirpur Bhtoro",
    "country": "PK",
    "lat": 24.72852,
    "lng": 68.2601
  },
  {
    "name": "Miro Khan",
    "country": "PK",
    "lat": 27.75985,
    "lng": 68.09195
  },
  {
    "name": "Mirdad Muafi",
    "country": "PK",
    "lat": 30.67676,
    "lng": 72.92855
  },
  {
    "name": "Miran Shah",
    "country": "PK",
    "lat": 33.00059,
    "lng": 70.07117
  },
  {
    "name": "Mingora",
    "country": "PK",
    "lat": 34.7795,
    "lng": 72.36265
  },
  {
    "name": "Minchianabad",
    "country": "PK",
    "lat": 30.16356,
    "lng": 73.56858
  },
  {
    "name": "Mianwali",
    "country": "PK",
    "lat": 32.57756,
    "lng": 71.52847
  },
  {
    "name": "Mian Sahib",
    "country": "PK",
    "lat": 28.15341,
    "lng": 68.64182
  },
  {
    "name": "Mian Channun",
    "country": "PK",
    "lat": 30.44067,
    "lng": 72.35679
  },
  {
    "name": "Mirzec",
    "country": "PL",
    "lat": 51.13466,
    "lng": 21.0571
  },
  {
    "name": "Mirów",
    "country": "PL",
    "lat": 51.1972,
    "lng": 21.0329
  },
  {
    "name": "Mirocin",
    "country": "PL",
    "lat": 50.04237,
    "lng": 22.55596
  },
  {
    "name": "Mircze",
    "country": "PL",
    "lat": 50.65164,
    "lng": 23.89604
  },
  {
    "name": "Mińsk Mazowiecki",
    "country": "PL",
    "lat": 52.17935,
    "lng": 21.57251
  },
  {
    "name": "Milejów",
    "country": "PL",
    "lat": 51.23226,
    "lng": 22.92443
  },
  {
    "name": "Milejczyce",
    "country": "PL",
    "lat": 52.51967,
    "lng": 23.13206
  },
  {
    "name": "Milanówek",
    "country": "PL",
    "lat": 52.11879,
    "lng": 20.67155
  },
  {
    "name": "Milanów",
    "country": "PL",
    "lat": 51.70374,
    "lng": 22.8883
  },
  {
    "name": "Miłakowo",
    "country": "PL",
    "lat": 54.00923,
    "lng": 20.07125
  },
  {
    "name": "Mikołajki",
    "country": "PL",
    "lat": 53.80288,
    "lng": 21.57011
  },
  {
    "name": "Miętne",
    "country": "PL",
    "lat": 51.92135,
    "lng": 21.57457
  },
  {
    "name": "Mielec",
    "country": "PL",
    "lat": 50.28709,
    "lng": 21.4239
  },
  {
    "name": "Miejsce Piastowe",
    "country": "PL",
    "lat": 49.6344,
    "lng": 21.78735
  },
  {
    "name": "Międzyrzec Podlaski",
    "country": "PL",
    "lat": 51.9864,
    "lng": 22.78248
  },
  {
    "name": "Miedzna",
    "country": "PL",
    "lat": 52.46778,
    "lng": 22.08947
  },
  {
    "name": "Miedziana Góra",
    "country": "PL",
    "lat": 50.9368,
    "lng": 20.55096
  },
  {
    "name": "Miechów",
    "country": "PL",
    "lat": 50.35648,
    "lng": 20.02788
  },
  {
    "name": "Michów",
    "country": "PL",
    "lat": 51.52573,
    "lng": 22.31435
  },
  {
    "name": "Michałowo",
    "country": "PL",
    "lat": 53.03492,
    "lng": 23.60996
  },
  {
    "name": "Michałowice",
    "country": "PL",
    "lat": 52.17435,
    "lng": 20.88089
  },
  {
    "name": "Michałów-Reginów",
    "country": "PL",
    "lat": 52.41711,
    "lng": 20.96595
  },
  {
    "name": "Michałów",
    "country": "PL",
    "lat": 50.73727,
    "lng": 23.02297
  },
  {
    "name": "Michałów",
    "country": "PL",
    "lat": 50.54709,
    "lng": 23.60361
  },
  {
    "name": "Michałów",
    "country": "PL",
    "lat": 50.49541,
    "lng": 20.46178
  },
  {
    "name": "Miastków Kościelny",
    "country": "PL",
    "lat": 51.88407,
    "lng": 21.82528
  },
  {
    "name": "Miączyn",
    "country": "PL",
    "lat": 50.73825,
    "lng": 23.5013
  },
  {
    "name": "Mirsk",
    "country": "PL",
    "lat": 50.97054,
    "lng": 15.38567
  },
  {
    "name": "Mirosławiec",
    "country": "PL",
    "lat": 53.34071,
    "lng": 16.08793
  },
  {
    "name": "Milówka",
    "country": "PL",
    "lat": 49.5554,
    "lng": 19.09072
  },
  {
    "name": "Miłosław",
    "country": "PL",
    "lat": 52.20318,
    "lng": 17.48955
  },
  {
    "name": "Miłoradz",
    "country": "PL",
    "lat": 54.01392,
    "lng": 18.91846
  },
  {
    "name": "Miłomłyn",
    "country": "PL",
    "lat": 53.76449,
    "lng": 19.838
  },
  {
    "name": "Miłkowice",
    "country": "PL",
    "lat": 51.25601,
    "lng": 16.07231
  },
  {
    "name": "Milicz",
    "country": "PL",
    "lat": 51.5277,
    "lng": 17.27137
  },
  {
    "name": "Mikstat",
    "country": "PL",
    "lat": 51.53236,
    "lng": 17.97378
  },
  {
    "name": "Mikołów",
    "country": "PL",
    "lat": 50.17103,
    "lng": 18.9041
  },
  {
    "name": "Mikołajki Pomorskie",
    "country": "PL",
    "lat": 53.85131,
    "lng": 19.16574
  },
  {
    "name": "Mieszkowice",
    "country": "PL",
    "lat": 52.7873,
    "lng": 14.49346
  },
  {
    "name": "Mieścisko",
    "country": "PL",
    "lat": 52.74357,
    "lng": 17.33213
  },
  {
    "name": "Mierzęcice",
    "country": "PL",
    "lat": 50.44504,
    "lng": 19.12934
  },
  {
    "name": "Mieroszów",
    "country": "PL",
    "lat": 50.66589,
    "lng": 16.18883
  },
  {
    "name": "Mielno",
    "country": "PL",
    "lat": 54.26086,
    "lng": 16.0621
  },
  {
    "name": "Mieleszyn",
    "country": "PL",
    "lat": 52.66868,
    "lng": 17.49779
  },
  {
    "name": "Miękinia",
    "country": "PL",
    "lat": 51.18844,
    "lng": 16.73595
  },
  {
    "name": "Miękinia",
    "country": "PL",
    "lat": 50.15557,
    "lng": 19.60871
  },
  {
    "name": "Miejska Górka",
    "country": "PL",
    "lat": 51.65573,
    "lng": 16.95826
  },
  {
    "name": "Międzyzdroje",
    "country": "PL",
    "lat": 53.92921,
    "lng": 14.45097
  },
  {
    "name": "Międzyrzecze Górne",
    "country": "PL",
    "lat": 49.84405,
    "lng": 18.94157
  },
  {
    "name": "Międzyrzecze Dolne",
    "country": "PL",
    "lat": 49.85477,
    "lng": 18.95378
  },
  {
    "name": "Międzyrzecz",
    "country": "PL",
    "lat": 52.44461,
    "lng": 15.57801
  },
  {
    "name": "Międzylesie",
    "country": "PL",
    "lat": 52.14487,
    "lng": 15.38283
  },
  {
    "name": "Międzylesie",
    "country": "PL",
    "lat": 50.14778,
    "lng": 16.66712
  },
  {
    "name": "Międzychód",
    "country": "PL",
    "lat": 52.59882,
    "lng": 15.89696
  },
  {
    "name": "Międzybrodzie Bialskie",
    "country": "PL",
    "lat": 49.78747,
    "lng": 19.19741
  },
  {
    "name": "Międzybórz",
    "country": "PL",
    "lat": 51.39626,
    "lng": 17.6661
  },
  {
    "name": "Miedzno",
    "country": "PL",
    "lat": 50.96994,
    "lng": 18.98111
  },
  {
    "name": "Miedźna",
    "country": "PL",
    "lat": 49.98225,
    "lng": 19.04883
  },
  {
    "name": "Miedzichowo",
    "country": "PL",
    "lat": 52.37581,
    "lng": 15.95876
  },
  {
    "name": "Miechów Charsznica",
    "country": "PL",
    "lat": 50.39599,
    "lng": 19.95031
  },
  {
    "name": "Michałowice",
    "country": "PL",
    "lat": 50.15898,
    "lng": 19.98044
  },
  {
    "name": "Miastko",
    "country": "PL",
    "lat": 54.00283,
    "lng": 16.98263
  },
  {
    "name": "Miasteczko Śląskie",
    "country": "PL",
    "lat": 50.50262,
    "lng": 18.93949
  },
  {
    "name": "Miasteczko Krajeńskie",
    "country": "PL",
    "lat": 53.09784,
    "lng": 17.00478
  },
  {
    "name": "Mirków",
    "country": "PL",
    "lat": 51.16105,
    "lng": 17.17026
  },
  {
    "name": "Michalowo",
    "country": "PL",
    "lat": 53.72593,
    "lng": 19.37199
  },
  {
    "name": "Miquelon",
    "country": "PM",
    "lat": 47.0975,
    "lng": -56.38139
  },
  {
    "name": "Miranda",
    "country": "PR",
    "lat": 18.38662,
    "lng": -66.38378
  },
  {
    "name": "Mikhmās",
    "country": "PS",
    "lat": 31.8721,
    "lng": 35.27596
  },
  {
    "name": "Mislīyah",
    "country": "PS",
    "lat": 32.38613,
    "lng": 35.2878
  },
  {
    "name": "Mirkah",
    "country": "PS",
    "lat": 32.39583,
    "lng": 35.23807
  },
  {
    "name": "Mira",
    "country": "PT",
    "lat": 39.54315,
    "lng": -8.71505
  },
  {
    "name": "Minde",
    "country": "PT",
    "lat": 39.51631,
    "lng": -8.68799
  },
  {
    "name": "Minas de São Domingos",
    "country": "PT",
    "lat": 37.67322,
    "lng": -7.49765
  },
  {
    "name": "Milharado",
    "country": "PT",
    "lat": 38.94732,
    "lng": -9.19914
  },
  {
    "name": "Milagres",
    "country": "PT",
    "lat": 39.79002,
    "lng": -8.79351
  },
  {
    "name": "Mire de Tibães",
    "country": "PT",
    "lat": 41.55602,
    "lng": -8.47902
  },
  {
    "name": "Mirandela",
    "country": "PT",
    "lat": 41.48739,
    "lng": -7.18695
  },
  {
    "name": "Miranda do Douro",
    "country": "PT",
    "lat": 41.49692,
    "lng": -6.27308
  },
  {
    "name": "Miranda do Corvo",
    "country": "PT",
    "lat": 40.09318,
    "lng": -8.33261
  },