[
  {
    "name": "Mníšek pod Brdy",
    "country": "CZ",
    "lat": 49.8665,
    "lng": 14.26176
  },
  {
    "name": "Mníšek",
    "country": "CZ",
    "lat": 50.83163,
    "lng": 15.0563
  },
  {
    "name": "Mnichovo Hradiště",
    "country": "CZ",
    "lat": 50.5272,
    "lng": 14.97134
  },
  {
    "name": "Mnichovice",
    "country": "CZ",
    "lat": 49.93601,
    "lng": 14.70907
  },
  {
    "name": "Mnoungou",
    "country": "KM",
    "lat": -11.51778,
    "lng": 43.37389
  },
  {
    "name": "Mniszków",
    "country": "PL",
    "lat": 51.37017,
    "lng": 20.03915
  },
  {
    "name": "Mniów",
    "country": "PL",
    "lat": 51.01224,
    "lng": 20.48427
  },
  {
    "name": "Mników",
    "country": "PL",
    "lat": 50.06044,
    "lng": 19.72595
  },
  {
    "name": "Mnich",
    "country": "PL",
    "lat": 49.88944,
    "lng": 18.80722
  },
  {
    "name": "Mnogovershinnyy",
    "country": "RU",
    "lat": 53.93351,
    "lng": 139.93029
  },
  {
    "name": "Mnogoudobnoye",
    "country": "RU",
    "lat": 43.46789,
    "lng": 132.46646
  },
  {
    "name": "Mnihla",
    "country": "TN",
    "lat": 36.84774,
    "lng": 10.11083
  }
]