[
  {
    "name": "Mohammed Bin Zayed City",
    "country": "AE",
    "lat": 24.34794,
    "lng": 54.55368
  },
  {
    "name": "Mollas",
    "country": "AL",
    "lat": 40.92694,
    "lng": 20.00361
  },
  {
    "name": "Mollas",
    "country": "AL",
    "lat": 40.42556,
    "lng": 20.67444
  },
  {
    "name": "Mollaj",
    "country": "AL",
    "lat": 40.56028,
    "lng": 20.74028
  },
  {
    "name": "Moglicë",
    "country": "AL",
    "lat": 40.71806,
    "lng": 20.43806
  },
  {
    "name": "Moravë",
    "country": "AL",
    "lat": 40.75972,
    "lng": 19.90417
  },
  {
    "name": "Movses",
    "country": "AM",
    "lat": 40.90534,
    "lng": 45.48838
  },
  {
    "name": "Mossamedes",
    "country": "AO",
    "lat": -15.19611,
    "lng": 12.15222
  },
  {
    "name": "Morón",
    "country": "AR",
    "lat": -34.65118,
    "lng": -58.62205
  },
  {
    "name": "Monte Caseros",
    "country": "AR",
    "lat": -30.2518,
    "lng": -57.63537
  },
  {
    "name": "Montecarlo",
    "country": "AR",
    "lat": -26.56849,
    "lng": -54.7579
  },
  {
    "name": "Mojón Grande",
    "country": "AR",
    "lat": -27.71202,
    "lng": -55.15743
  },
  {
    "name": "Mocoretá",
    "country": "AR",
    "lat": -30.61798,
    "lng": -57.96705
  },
  {
    "name": "Morteros",
    "country": "AR",
    "lat": -30.71066,
    "lng": -62.00714
  },
  {
    "name": "Morrison",
    "country": "AR",
    "lat": -32.5948,
    "lng": -62.83455
  },
  {
    "name": "Monteros",
    "country": "AR",
    "lat": -27.16825,
    "lng": -65.49892
  },
  {
    "name": "Monte Quemado",
    "country": "AR",
    "lat": -25.80357,
    "lng": -62.83013
  },
  {
    "name": "Monte Maíz",
    "country": "AR",
    "lat": -33.20424,
    "lng": -62.60052
  },
  {
    "name": "Monte Hermoso",
    "country": "AR",
    "lat": -38.9825,
    "lng": -61.29472
  },
  {
    "name": "Montecristo",
    "country": "AR",
    "lat": -31.34136,
    "lng": -63.94535
  },
  {
    "name": "Monte Buey",
    "country": "AR",
    "lat": -32.91649,
    "lng": -62.4564
  },
  {
    "name": "Molinos",
    "country": "AR",
    "lat": -25.43935,
    "lng": -66.29412
  },
  {
    "name": "Moschendorf",
    "country": "AT",
    "lat": 47.05843,
    "lng": 16.47728
  },
  {
    "name": "Mortantsch",
    "country": "AT",
    "lat": 47.20752,
    "lng": 15.57954
  },
  {
    "name": "Mooskirchen",
    "country": "AT",
    "lat": 46.98167,
    "lng": 15.27889
  },
  {
    "name": "Moosdorf",
    "country": "AT",
    "lat": 48.04492,
    "lng": 12.98902
  },
  {
    "name": "Moosburg",
    "country": "AT",
    "lat": 46.6575,
    "lng": 14.17472
  },
  {
    "name": "Moosbrunn",
    "country": "AT",
    "lat": 48.01667,
    "lng": 16.45
  },
  {
    "name": "Mondsee",
    "country": "AT",
    "lat": 47.85648,
    "lng": 13.34908
  },
  {
    "name": "Molln",
    "country": "AT",
    "lat": 47.88723,
    "lng": 14.25819
  },
  {
    "name": "Mogersdorf",
    "country": "AT",
    "lat": 46.9481,
    "lng": 16.2321
  },
  {
    "name": "Modriach",
    "country": "AT",
    "lat": 46.95,
    "lng": 15.05
  },
  {
    "name": "Moonta Bay",
    "country": "AU",
    "lat": -34.05,
    "lng": 137.56667
  },
  {
    "name": "Mount Isa",
    "country": "AU",
    "lat": -20.72523,
    "lng": 139.49727
  },
  {
    "name": "Mount Helena",
    "country": "AU",
    "lat": -31.87606,
    "lng": 116.21025
  },
  {
    "name": "Mount Compass",
    "country": "AU",
    "lat": -35.34685,
    "lng": 138.62032
  },
  {
    "name": "Mount Barker",
    "country": "AU",
    "lat": -35.06667,
    "lng": 138.86667
  },
  {
    "name": "Mount Barker",
    "country": "AU",
    "lat": -34.63084,
    "lng": 117.66606
  },
  {
    "name": "Mosman Park",
    "country": "AU",
    "lat": -32.00538,
    "lng": 115.7638
  },
  {
    "name": "Morphett Vale",
    "country": "AU",
    "lat": -35.13333,
    "lng": 138.51667
  },
  {
    "name": "Moora",
    "country": "AU",
    "lat": -30.64003,
    "lng": 116.00365
  },
  {
    "name": "Modbury",
    "country": "AU",
    "lat": -34.83333,
    "lng": 138.68333
  },
  {
    "name": "Moana",
    "country": "AU",
    "lat": -35.19394,
    "lng": 138.47614
  },
  {
    "name": "Moura",
    "country": "AU",
    "lat": -24.5722,
    "lng": 149.96729
  },
  {
    "name": "Mount Waverley",
    "country": "AU",
    "lat": -37.87709,
    "lng": 145.12939
  },
  {
    "name": "Mount Pleasant",
    "country": "AU",
    "lat": -33.46281,
    "lng": 151.3571
  },
  {
    "name": "Mount Pleasant",
    "country": "AU",
    "lat": -37.58333,
    "lng": 143.86667
  },
  {
    "name": "Mount Morgan",
    "country": "AU",
    "lat": -23.64532,
    "lng": 150.38902
  },
  {
    "name": "Mount Martha",
    "country": "AU",
    "lat": -38.26667,
    "lng": 145.01667
  },
  {
    "name": "Mount Macedon",
    "country": "AU",
    "lat": -37.40048,
    "lng": 144.58412
  },
  {
    "name": "Mount Gravatt",
    "country": "AU",
    "lat": -27.53333,
    "lng": 153.08333
  },
  {
    "name": "Mount Gambier",
    "country": "AU",
    "lat": -37.8318,
    "lng": 140.77919
  },
  {
    "name": "Mount Evelyn",
    "country": "AU",
    "lat": -37.78333,
    "lng": 145.38333
  },
  {
    "name": "Mount Eliza",
    "country": "AU",
    "lat": -38.18333,
    "lng": 145.08333
  },
  {
    "name": "Mount Duneed",
    "country": "AU",
    "lat": -38.24089,
    "lng": 144.33748
  },
  {
    "name": "Mount Druitt",
    "country": "AU",
    "lat": -33.76667,
    "lng": 150.81667
  },
  {
    "name": "Mount Dandenong",
    "country": "AU",
    "lat": -37.83333,
    "lng": 145.36667
  },
  {
    "name": "Mount Crosby",
    "country": "AU",
    "lat": -27.53948,
    "lng": 152.80583
  },
  {
    "name": "Mount Cotton",
    "country": "AU",
    "lat": -27.63333,
    "lng": 153.23333
  },
  {
    "name": "Mount Colah",
    "country": "AU",
    "lat": -33.68333,
    "lng": 151.11667
  },
  {
    "name": "Mount Clear",
    "country": "AU",
    "lat": -37.6,
    "lng": 143.88333
  },
  {
    "name": "Moss Vale",
    "country": "AU",
    "lat": -34.55374,
    "lng": 150.37115
  },
  {
    "name": "Mossman",
    "country": "AU",
    "lat": -16.46292,
    "lng": 145.37144
  },
  {
    "name": "Mosman",
    "country": "AU",
    "lat": -33.83902,
    "lng": 151.23956
  },
  {
    "name": "Morwell",
    "country": "AU",
    "lat": -38.23476,
    "lng": 146.39499
  },
  {
    "name": "Moruya",
    "country": "AU",
    "lat": -35.9125,
    "lng": 150.08144
  },
  {
    "name": "Mortlake",
    "country": "AU",
    "lat": -38.08102,
    "lng": 142.80827
  },
  {
    "name": "Mortlake",
    "country": "AU",
    "lat": -33.84217,
    "lng": 151.10719
  },
  {
    "name": "Mortdale",
    "country": "AU",
    "lat": -33.96897,
    "lng": 151.07231
  },
  {
    "name": "Mornington",
    "country": "AU",
    "lat": -38.21792,
    "lng": 145.03876
  },
  {
    "name": "Morisset",
    "country": "AU",
    "lat": -33.10801,
    "lng": 151.48706
  },
  {
    "name": "Moree",
    "country": "AU",
    "lat": -29.46278,
    "lng": 149.84157
  },
  {
    "name": "Mordialloc",
    "country": "AU",
    "lat": -38.0,
    "lng": 145.08333
  },
  {
    "name": "Morayfield",
    "country": "AU",
    "lat": -27.10876,
    "lng": 152.94907
  },
  {
    "name": "Mooroopna",
    "country": "AU",
    "lat": -36.4,
    "lng": 145.35
  },
  {
    "name": "Mooroolbark",
    "country": "AU",
    "lat": -37.78247,
    "lng": 145.31682
  },
  {
    "name": "Moorooduc",
    "country": "AU",
    "lat": -38.21667,
    "lng": 145.11667
  },
  {
    "name": "Moorabbin",
    "country": "AU",
    "lat": -37.94146,
    "lng": 145.05779
  },
  {
    "name": "Moonee Ponds",
    "country": "AU",
    "lat": -37.76667,
    "lng": 144.91667
  },
  {
    "name": "Moonee Beach",
    "country": "AU",
    "lat": -30.20575,
    "lng": 153.15293
  },
  {
    "name": "Moonbi",
    "country": "AU",
    "lat": -31.01775,
    "lng": 151.07062
  },
  {
    "name": "Moonah",
    "country": "AU",
    "lat": -42.84617,
    "lng": 147.30228
  },
  {
    "name": "Mooloolaba",
    "country": "AU",
    "lat": -26.68164,
    "lng": 153.11925
  },
  {
    "name": "Moolap",
    "country": "AU",
    "lat": -38.18333,
    "lng": 144.43333
  },
  {
    "name": "Montville",
    "country": "AU",
    "lat": -26.68333,
    "lng": 152.88333
  },
  {
    "name": "Montrose",
    "country": "AU",
    "lat": -37.81667,
    "lng": 145.35
  },
  {
    "name": "Monto",
    "country": "AU",
    "lat": -24.86477,
    "lng": 151.12199
  },
  {
    "name": "Montmorency",
    "country": "AU",
    "lat": -37.71667,
    "lng": 145.11667
  },
  {
    "name": "Mont Albert",
    "country": "AU",
    "lat": -37.81788,
    "lng": 145.10799
  },
  {
    "name": "Monbulk",
    "country": "AU",
    "lat": -37.87427,
    "lng": 145.42592
  },
  {
    "name": "Mona Vale",
    "country": "AU",
    "lat": -33.67757,
    "lng": 151.30307
  },
  {
    "name": "Monash",
    "country": "AU",
    "lat": -34.2384,
    "lng": 140.56131
  },
  {
    "name": "Molong",
    "country": "AU",
    "lat": -33.09233,
    "lng": 148.87002
  },
  {
    "name": "Moggill",
    "country": "AU",
    "lat": -27.58333,
    "lng": 152.86667
  },
  {
    "name": "Moe",
    "country": "AU",
    "lat": -38.17828,
    "lng": 146.26099
  },
  {
    "name": "Moama",
    "country": "AU",
    "lat": -36.10413,
    "lng": 144.7608
  },
  {
    "name": "Morpeth",
    "country": "AU",
    "lat": -32.73333,
    "lng": 151.63333
  },
  {
    "name": "Monterey",
    "country": "AU",
    "lat": -33.9725,
    "lng": 151.1481
  },
  {
    "name": "Mount Ousley",
    "country": "AU",
    "lat": -34.40213,
    "lng": 150.88786
  },
  {
    "name": "Mount Keira",
    "country": "AU",
    "lat": -34.39678,
    "lng": 150.85268
  },
  {
    "name": "Mount Saint Thomas",
    "country": "AU",
    "lat": -34.44333,
    "lng": 150.87222
  },
  {
    "name": "Moranbah",
    "country": "AU",
    "lat": -22.00163,
    "lng": 148.04661
  },
  {
    "name": "Mount Buller",
    "country": "AU",
    "lat": -37.14595,
    "lng": 146.43694
  },
  {
    "name": "Mount Lawley",
    "country": "AU",
    "lat": -31.93439,
    "lng": 115.8716
  },
  {
    "name": "Mount Ommaney",
    "country": "AU",
    "lat": -27.54609,
    "lng": 152.93219
  },
  {
    "name": "Mollymook Beach",
    "country": "AU",
    "lat": -35.32966,
    "lng": 150.47173
  },
  {
    "name": "Mount Annan",
    "country": "AU",
    "lat": -34.05287,
    "lng": 150.75984
  },
  {
    "name": "Mont Albert North",
    "country": "AU",
    "lat": -37.80043,
    "lng": 145.10828
  },
  {
    "name": "Mount Helen",
    "country": "AU",
    "lat": -37.62463,
    "lng": 143.8789
  },
  {
    "name": "Mount Coolum",
    "country": "AU",
    "lat": -26.56581,
    "lng": 153.09139
  },
  {
    "name": "Mount Low",
    "country": "AU",
    "lat": -19.23209,
    "lng": 146.66951
  },
  {
    "name": "Moorebank",
    "country": "AU",
    "lat": -33.94372,
    "lng": 150.95657
  },
  {
    "name": "Montello",
    "country": "AU",
    "lat": -41.05762,
    "lng": 145.89626
  },
  {
    "name": "Moulden",
    "country": "AU",
    "lat": -12.50559,
    "lng": 130.97313
  },
  {
    "name": "Moil",
    "country": "AU",
    "lat": -12.3885,
    "lng": 130.88088
  },
  {
    "name": "Molendinar",
    "country": "AU",
    "lat": -27.97409,
    "lng": 153.36069
  },
  {
    "name": "Mornington",
    "country": "AU",
    "lat": -20.73415,
    "lng": 139.49586
  },
  {
    "name": "Mount Pleasant",
    "country": "AU",
    "lat": -21.11814,
    "lng": 149.15965
  },
  {
    "name": "Mount Warren Park",
    "country": "AU",
    "lat": -27.73109,
    "lng": 153.20549
  },
  {
    "name": "Morphettville",
    "country": "AU",
    "lat": -34.98852,
    "lng": 138.53979
  },
  {
    "name": "Mount Tarcoola",
    "country": "AU",
    "lat": -28.79859,
    "lng": 114.6253
  },
  {
    "name": "Mount Richon",
    "country": "AU",
    "lat": -32.17349,
    "lng": 116.02137
  },
  {
    "name": "Mount Kuring-Gai",
    "country": "AU",
    "lat": -33.64197,
    "lng": 151.12865
  },
  {
    "name": "Mount Pritchard",
    "country": "AU",
    "lat": -33.90295,
    "lng": 150.90465
  },
  {
    "name": "Mount Lofty",
    "country": "AU",
    "lat": -27.54628,
    "lng": 151.97218
  },
  {
    "name": "Mount Vernon",
    "country": "AU",
    "lat": -33.86036,
    "lng": 150.81007
  },
  {
    "name": "Mount Sheridan",
    "country": "AU",
    "lat": -16.98608,
    "lng": 145.73244
  },
  {
    "name": "Mooroobool",
    "country": "AU",
    "lat": -16.93489,
    "lng": 145.73137
  },
  {
    "name": "Moorooka",
    "country": "AU",
    "lat": -27.53436,
    "lng": 153.0246
  },
  {
    "name": "Morley",
    "country": "AU",
    "lat": -31.88775,
    "lng": 115.9099
  },
  {
    "name": "Mount Hawthorn",
    "country": "AU",
    "lat": -31.92,
    "lng": 115.83509
  },
  {
    "name": "Mount Melville",
    "country": "AU",
    "lat": -35.02216,
    "lng": 117.87137
  },
  {
    "name": "Mount Nasura",
    "country": "AU",
    "lat": -32.1378,
    "lng": 116.02473
  },
  {
    "name": "Mount Hutton",
    "country": "AU",
    "lat": -32.98329,
    "lng": 151.67012
  },
  {
    "name": "Mount Austin",
    "country": "AU",
    "lat": -35.13684,
    "lng": 147.35304
  },
  {
    "name": "Mount Riverview",
    "country": "AU",
    "lat": -33.73074,
    "lng": 150.63532
  },
  {
    "name": "Mount Nelson",
    "country": "AU",
    "lat": -42.92073,
    "lng": 147.32069
  },
  {
    "name": "Mornington",
    "country": "AU",
    "lat": -42.86267,
    "lng": 147.39819
  },
  {
    "name": "Montrose",
    "country": "AU",
    "lat": -42.82895,
    "lng": 147.24735
  },
  {
    "name": "Mowbray",
    "country": "AU",
    "lat": -41.40243,
    "lng": 147.15059
  },
  {
    "name": "Monash",
    "country": "AU",
    "lat": -35.41577,
    "lng": 149.09063
  },
  {
    "name": "Mountain Creek",
    "country": "AU",
    "lat": -26.70278,
    "lng": 153.10133
  },
  {
    "name": "Mount Gravatt East",
    "country": "AU",
    "lat": -27.5405,
    "lng": 153.08221
  },
  {
    "name": "Morningside",
    "country": "AU",
    "lat": -27.46165,
    "lng": 153.07511
  },
  {
    "name": "Mount Lewis",
    "country": "AU",
    "lat": -33.9175,
    "lng": 151.04828
  },
  {
    "name": "Modbury Heights",
    "country": "AU",
    "lat": -34.80969,
    "lng": 138.68544
  },
  {
    "name": "Modbury North",
    "country": "AU",
    "lat": -34.82848,
    "lng": 138.6739
  },
  {
    "name": "Mount Pleasant",
    "country": "AU",
    "lat": -32.03974,
    "lng": 115.84993
  },
  {
    "name": "Mount Stuart",
    "country": "AU",
    "lat": -42.87157,
    "lng": 147.30164
  },
  {
    "name": "Mount Nathan",
    "country": "AU",
    "lat": -27.9643,
    "lng": 153.27198
  },
  {
    "name": "Moffat Beach",
    "country": "AU",
    "lat": -26.79048,
    "lng": 153.13997
  },
  {
    "name": "Mount Louisa",
    "country": "AU",
    "lat": -19.274,
    "lng": 146.75091
  },
  {
    "name": "Mount Warrigal",
    "country": "AU",
    "lat": -34.54804,
    "lng": 150.83752
  },
  {
    "name": "Mount Pleasant",
    "country": "AU",
    "lat": -34.39531,
    "lng": 150.86658
  },
  {
    "name": "Monkland",
    "country": "AU",
    "lat": -26.21191,
    "lng": 152.68245
  },
  {
    "name": "Mount Claremont",
    "country": "AU",
    "lat": -31.96177,
    "lng": 115.78337
  },
  {
    "name": "Moore Park Beach",
    "country": "AU",
    "lat": -24.71066,
    "lng": 152.20905
  },
  {
    "name": "Mollymook",
    "country": "AU",
    "lat": -35.34107,
    "lng": 150.46952
  },
  {
    "name": "Mount Kembla",
    "country": "AU",
    "lat": -34.42881,
    "lng": 150.82161
  },
  {
    "name": "Moorak",
    "country": "AU",
    "lat": -37.86381,
    "lng": 140.74263
  },
  {
    "name": "Moco",
    "country": "AW",
    "lat": 12.55134,
    "lng": -70.00843
  },
  {
    "name": "Mostar",
    "country": "BA",
    "lat": 43.34333,
    "lng": 17.80806
  },
  {
    "name": "Modriča",
    "country": "BA",
    "lat": 44.95781,
    "lng": 18.30202
  },
  {
    "name": "Morrelgonj",
    "country": "BD",
    "lat": 22.45566,
    "lng": 89.85584
  },
  {
    "name": "Mohāmmadpur",
    "country": "BD",
    "lat": 24.89843,
    "lng": 88.52844
  },
  {
    "name": "Moustier-sur-Sambre",
    "country": "BE",
    "lat": 50.46668,
    "lng": 4.69614
  },
  {
    "name": "Mouscron",
    "country": "BE",
    "lat": 50.74497,
    "lng": 3.20639
  },
  {
    "name": "Mourcourt",
    "country": "BE",
    "lat": 50.65322,
    "lng": 3.44468
  },
  {
    "name": "Mortsel",
    "country": "BE",
    "lat": 51.16697,
    "lng": 4.45127
  },
  {
    "name": "Mortier",
    "country": "BE",
    "lat": 50.68428,
    "lng": 5.74327
  },
  {
    "name": "Mornimont",
    "country": "BE",
    "lat": 50.45903,
    "lng": 4.70447
  },
  {
    "name": "Morlanwelz-Mariemont",
    "country": "BE",
    "lat": 50.45502,
    "lng": 4.24519
  },
  {
    "name": "Morkhoven",
    "country": "BE",
    "lat": 51.11888,
    "lng": 4.81877
  },
  {
    "name": "Morialmé",
    "country": "BE",
    "lat": 50.27557,
    "lng": 4.56576
  },
  {
    "name": "Moresnet",
    "country": "BE",
    "lat": 50.72146,
    "lng": 5.98987
  },
  {
    "name": "Mopertingen",
    "country": "BE",
    "lat": 50.86123,
    "lng": 5.5759
  },
  {
    "name": "Moortsele",
    "country": "BE",
    "lat": 50.95862,
    "lng": 3.77753
  },
  {
    "name": "Moorslede",
    "country": "BE",
    "lat": 50.8919,
    "lng": 3.06117
  },
  {
    "name": "Moorsele",
    "country": "BE",
    "lat": 50.8409,
    "lng": 3.15971
  },
  {
    "name": "Moorsel",
    "country": "BE",
    "lat": 50.94743,
    "lng": 4.09825
  },
  {
    "name": "Montzen",
    "country": "BE",
    "lat": 50.70793,
    "lng": 5.96223
  },
  {
    "name": "Mont-sur-Marchienne",
    "country": "BE",
    "lat": 50.38997,
    "lng": 4.40732
  },
  {
    "name": "Mont-Saint-Guibert",
    "country": "BE",
    "lat": 50.63427,
    "lng": 4.61061
  },
  {
    "name": "Mont-Sainte-Aldegonde",
    "country": "BE",
    "lat": 50.43006,
    "lng": 4.23263
  },
  {
    "name": "Montignies-sur-Sambre",
    "country": "BE",
    "lat": 50.41081,
    "lng": 4.49109
  },
  {
    "name": "Montigny-le-Tilleul",
    "country": "BE",
    "lat": 50.38056,
    "lng": 4.37582
  },
  {
    "name": "Montenaken",
    "country": "BE",
    "lat": 50.72092,
    "lng": 5.12941
  },
  {
    "name": "Montegnée",
    "country": "BE",
    "lat": 50.64576,
    "lng": 5.51411
  },
  {
    "name": "Mons-lez-Liège",
    "country": "BE",
    "lat": 50.62306,
    "lng": 5.45626
  },
  {
    "name": "Mons",
    "country": "BE",
    "lat": 50.45413,
    "lng": 3.95229
  },
  {
    "name": "Monceau-sur-Sambre",
    "country": "BE",
    "lat": 50.41694,
    "lng": 4.37668
  },
  {
    "name": "Momignies",
    "country": "BE",
    "lat": 50.0271,
    "lng": 4.16519
  },
  {
    "name": "Momalle",
    "country": "BE",
    "lat": 50.68585,
    "lng": 5.37592
  },
  {
    "name": "Mollem",
    "country": "BE",
    "lat": 50.93118,
    "lng": 4.22627
  },
  {
    "name": "Molenstede",
    "country": "BE",
    "lat": 51.00401,
    "lng": 5.01298
  },
  {
    "name": "Molenbeersel",
    "country": "BE",
    "lat": 51.17041,
    "lng": 5.73761
  },
  {
    "name": "Molenbeek-Wersbeek",
    "country": "BE",
    "lat": 50.91947,
    "lng": 4.9476
  },
  {
    "name": "Molenbeek-Saint-Jean",
    "country": "BE",
    "lat": 50.8499,
    "lng": 4.31248
  },
  {
    "name": "Mol",
    "country": "BE",
    "lat": 51.19188,
    "lng": 5.11662
  },
  {
    "name": "Moignelée",
    "country": "BE",
    "lat": 50.44581,
    "lng": 4.5837
  },
  {
    "name": "Moha",
    "country": "BE",
    "lat": 50.54802,
    "lng": 5.18641
  },
  {
    "name": "Moerzeke",
    "country": "BE",
    "lat": 51.06914,
    "lng": 4.16137
  },
  {
    "name": "Moerkerke",
    "country": "BE",
    "lat": 51.24547,
    "lng": 3.34251
  },
  {
    "name": "Moere",
    "country": "BE",
    "lat": 51.12263,
    "lng": 2.95582
  },
  {
    "name": "Moerbeke",
    "country": "BE",
    "lat": 51.17409,
    "lng": 3.93001
  },
  {
    "name": "Moerbeke",
    "country": "BE",
    "lat": 50.75254,
    "lng": 3.91724
  },
  {
    "name": "Moen",
    "country": "BE",
    "lat": 50.77013,
    "lng": 3.39485
  },
  {
    "name": "Modave",
    "country": "BE",
    "lat": 50.44614,
    "lng": 5.29532
  },
  {
    "name": "Mogtédo",
    "country": "BF",
    "lat": 12.28444,
    "lng": -0.83722
  },
  {
    "name": "Montana",
    "country": "BG",
    "lat": 43.41285,
    "lng": 23.22174
  },
  {
    "name": "Montero",
    "country": "BO",
    "lat": -17.33874,
    "lng": -63.25093
  },
  {
    "name": "Monteagudo",
    "country": "BO",
    "lat": -19.79998,
    "lng": -63.95617
  },
  {
    "name": "Moreilândia",
    "country": "BR",
    "lat": -7.62744,
    "lng": -39.55135
  },
  {
    "name": "Morros",
    "country": "BR",
    "lat": -9.44667,
    "lng": -46.30028
  },
  {
    "name": "Morros",
    "country": "BR",
    "lat": -2.86444,
    "lng": -44.03944
  },
  {
    "name": "Morro do Chapéu do Piauí",
    "country": "BR",
    "lat": -3.74272,
    "lng": -42.31139
  },
  {
    "name": "Morrinhos",
    "country": "BR",
    "lat": -3.22944,
    "lng": -40.125
  },
  {
    "name": "Moreno",
    "country": "BR",
    "lat": -8.11861,
    "lng": -35.09222
  },
  {
    "name": "Moraújo",
    "country": "BR",
    "lat": -3.46667,
    "lng": -40.68056
  },
  {
    "name": "Morada Nova",
    "country": "BR",
    "lat": -5.10667,
    "lng": -38.3725
  },
  {
    "name": "Monte Santo do Tocantins",
    "country": "BR",
    "lat": -10.00627,
    "lng": -48.99099
  },
  {
    "name": "Montes Altos",
    "country": "BR",
    "lat": -5.83333,
    "lng": -47.06667
  },
  {
    "name": "Monteirópolis",
    "country": "BR",
    "lat": -9.60278,
    "lng": -37.24833
  },
  {
    "name": "Monteiro",
    "country": "BR",
    "lat": -7.88944,
    "lng": -37.12
  },
  {
    "name": "Monte Horebe",
    "country": "BR",
    "lat": -7.20437,
    "lng": -38.58665
  },
  {
    "name": "Monte Alegre do Piauí",
    "country": "BR",
    "lat": -9.75389,
    "lng": -45.30389
  },
  {
    "name": "Monte Alegre",
    "country": "BR",
    "lat": -6.06778,
    "lng": -35.33222
  },
  {
    "name": "Monte Alegre",
    "country": "BR",
    "lat": -5.88972,
    "lng": -36.30139
  },
  {
    "name": "Monte Alegre",
    "country": "BR",
    "lat": -2.00082,
    "lng": -54.08102
  },
  {
    "name": "Montanhas",
    "country": "BR",
    "lat": -6.48583,
    "lng": -35.2875
  },
  {
    "name": "Monsenhor Tabosa",
    "country": "BR",
    "lat": -4.78944,
    "lng": -40.06333
  },
  {
    "name": "Monsenhor Hipólito",
    "country": "BR",
    "lat": -6.99639,
    "lng": -41.02972
  },
  {
    "name": "Monsenhor Gil",
    "country": "BR",
    "lat": -5.56417,
    "lng": -42.60778
  },
  {
    "name": "Monção",
    "country": "BR",
    "lat": -3.49167,
    "lng": -45.25111
  },
  {
    "name": "Mombaça",
    "country": "BR",
    "lat": -5.74306,
    "lng": -39.6275
  },
  {
    "name": "Moju",
    "country": "BR",
    "lat": -1.88389,
    "lng": -48.76889
  },
  {
    "name": "Mogeiro",
    "country": "BR",
    "lat": -7.29944,
    "lng": -35.47944
  },
  {
    "name": "Mossoró",
    "country": "BR",
    "lat": -5.1875,
    "lng": -37.34417
  },
  {
    "name": "Mocajuba",
    "country": "BR",
    "lat": -2.58417,
    "lng": -49.50722
  },
  {
    "name": "Morro Cabeça no Tempo",
    "country": "BR",
    "lat": -9.7263,
    "lng": -43.90865
  },
  {
    "name": "Modelo",
    "country": "BR",
    "lat": -26.77669,
    "lng": -53.05434
  },
  {
    "name": "Motuca",
    "country": "BR",
    "lat": -21.50806,
    "lng": -48.15111
  },
  {
    "name": "Mostardas",
    "country": "BR",
    "lat": -31.1068,
    "lng": -50.91723
  },
  {
    "name": "Mossâmedes",
    "country": "BR",
    "lat": -16.12667,
    "lng": -50.215
  },
  {
    "name": "Mozarlândia",
    "country": "BR",
    "lat": -14.74472,
    "lng": -50.57056
  },
  {
    "name": "Morungaba",
    "country": "BR",
    "lat": -22.87914,
    "lng": -46.79575
  },
  {
    "name": "Mortugaba",
    "country": "BR",
    "lat": -15.02333,
    "lng": -42.36806
  },
  {
    "name": "Morro Reuter",
    "country": "BR",
    "lat": -29.53806,
    "lng": -51.08083
  },
  {
    "name": "Morro do Pilar",
    "country": "BR",
    "lat": -19.21556,
    "lng": -43.37639
  },
  {
    "name": "Morro do Chapéu",
    "country": "BR",
    "lat": -11.54852,
    "lng": -41.15804
  },
  {
    "name": "Morro da Garça",
    "country": "BR",
    "lat": -18.54694,
    "lng": -44.6025
  },
  {
    "name": "Morro da Fumaça",
    "country": "BR",
    "lat": -28.65083,
    "lng": -49.21
  },
  {
    "name": "Morro Agudo",
    "country": "BR",
    "lat": -20.73139,
    "lng": -48.05778
  },
  {
    "name": "Morrinhos",
    "country": "BR",
    "lat": -17.73111,
    "lng": -49.09944
  },
  {
    "name": "Morretes",
    "country": "BR",
    "lat": -25.47694,
    "lng": -48.83444
  },
  {
    "name": "Morpará",
    "country": "BR",
    "lat": -11.55861,
    "lng": -43.28083
  },
  {
    "name": "Mormaço",
    "country": "BR",
    "lat": -28.69222,
    "lng": -52.69222
  },
  {
    "name": "Moreira Sales",
    "country": "BR",
    "lat": -24.04952,
    "lng": -53.00998
  },
  {
    "name": "Morada Nova de Minas",
    "country": "BR",
    "lat": -18.60444,
    "lng": -45.35667
  },
  {
    "name": "Montividiu",
    "country": "BR",
    "lat": -17.44417,
    "lng": -51.17472
  },
  {
    "name": "Montezuma",
    "country": "BR",
    "lat": -15.17194,
    "lng": -42.49722
  },
  {
    "name": "Monte Sião",
    "country": "BR",
    "lat": -22.4325,
    "lng": -46.5725
  },
  {
    "name": "Montes Claros",
    "country": "BR",
    "lat": -16.735,
    "lng": -43.86167
  },
  {
    "name": "Monte Santo de Minas",
    "country": "BR",
    "lat": -21.18972,
    "lng": -46.98028
  },
  {
    "name": "Monte Santo",
    "country": "BR",
    "lat": -10.43778,
    "lng": -39.33278
  },
  {
    "name": "Montenegro",
    "country": "BR",
    "lat": -29.68861,
    "lng": -51.46111
  },
  {
    "name": "Monte Mor",
    "country": "BR",
    "lat": -22.94667,
    "lng": -47.31583
  },
  {
    "name": "Monteiro Lobato",
    "country": "BR",
    "lat": -22.95667,
    "lng": -45.83972
  },
  {
    "name": "Monte do Carmo",
    "country": "BR",
    "lat": -10.76333,
    "lng": -48.10889
  },
  {
    "name": "Monte Castelo",
    "country": "BR",
    "lat": -26.46222,
    "lng": -50.23111
  },
  {
    "name": "Monte Castelo",
    "country": "BR",
    "lat": -21.29944,
    "lng": -51.56861
  },
  {
    "name": "Monte Carmelo",
    "country": "BR",
    "lat": -18.72472,
    "lng": -47.49861
  },
  {
    "name": "Monte Belo do Sul",
    "country": "BR",
    "lat": -29.16317,
    "lng": -51.63272
  },
  {
    "name": "Monte Belo",
    "country": "BR",
    "lat": -21.32639,
    "lng": -46.3675
  },
  {
    "name": "Monte Formoso",
    "country": "BR",
    "lat": -16.8675,
    "lng": -41.25463
  },
  {
    "name": "Monte Azul Paulista",
    "country": "BR",
    "lat": -20.90722,
    "lng": -48.64139
  },
  {
    "name": "Monte Azul",
    "country": "BR",
    "lat": -15.155,
    "lng": -42.87472
  },
  {
    "name": "Monte Aprazível",
    "country": "BR",
    "lat": -20.7725,
    "lng": -49.71417
  },
  {
    "name": "Monte Alto",
    "country": "BR",
    "lat": -21.26111,
    "lng": -48.49639
  },
  {
    "name": "Monte Alegre do Sul",
    "country": "BR",
    "lat": -22.68194,
    "lng": -46.68083
  },
  {
    "name": "Monte Alegre de Sergipe",
    "country": "BR",
    "lat": -10.02722,
    "lng": -37.56222
  },
  {
    "name": "Monte Alegre de Minas",
    "country": "BR",
    "lat": -18.87056,
    "lng": -48.88083
  },
  {
    "name": "Monte Alegre de Goiás",
    "country": "BR",
    "lat": -13.2597,
    "lng": -46.88844
  },
  {
    "name": "Montauri",
    "country": "BR",
    "lat": -28.65194,
    "lng": -52.07
  },
  {
    "name": "Montanha",
    "country": "BR",
    "lat": -18.12694,
    "lng": -40.36333
  },
  {
    "name": "Monsenhor Paulo",
    "country": "BR",
    "lat": -21.7575,
    "lng": -45.54111
  },
  {
    "name": "Monjolos",
    "country": "BR",
    "lat": -18.32528,
    "lng": -44.11917
  },
  {
    "name": "Mongaguá",
    "country": "BR",
    "lat": -24.09306,
    "lng": -46.62083
  },
  {
    "name": "Mondaí",
    "country": "BR",
    "lat": -27.10278,
    "lng": -53.40194
  },
  {
    "name": "Monções",
    "country": "BR",
    "lat": -20.85028,
    "lng": -50.09167
  },
  {
    "name": "Mombuca",
    "country": "BR",
    "lat": -22.92917,
    "lng": -47.56611
  },
  {
    "name": "Moita Bonita",
    "country": "BR",
    "lat": -10.5775,
    "lng": -37.34278
  },
  {
    "name": "Moiporá",
    "country": "BR",
    "lat": -16.54611,
    "lng": -50.73917
  },
  {
    "name": "Mogi Mirim",
    "country": "BR",
    "lat": -22.43194,
    "lng": -46.95778
  },
  {
    "name": "Mogi Guaçu",
    "country": "BR",
    "lat": -22.3677,
    "lng": -46.94552
  },
  {
    "name": "Mogi das Cruzes",
    "country": "BR",
    "lat": -23.52278,
    "lng": -46.18833
  },
  {
    "name": "Moema",
    "country": "BR",
    "lat": -19.84333,
    "lng": -45.41083
  },
  {
    "name": "Moeda",
    "country": "BR",
    "lat": -20.33306,
    "lng": -44.05278
  },
  {
    "name": "Mococa",
    "country": "BR",
    "lat": -21.46778,
    "lng": -47.00472
  },
  {
    "name": "Montadas",
    "country": "BR",
    "lat": -7.08871,
    "lng": -35.95648
  },
  {
    "name": "Montalvânia",
    "country": "BR",
    "lat": -14.42278,
    "lng": -44.36556
  },
  {
    "name": "Monte Alegre dos Campos",
    "country": "BR",
    "lat": -28.68306,
    "lng": -50.78278
  },
  {
    "name": "Monte Carlo",
    "country": "BR",
    "lat": -27.22278,
    "lng": -50.97972
  },
  {
    "name": "Monte das Gameleiras",
    "country": "BR",
    "lat": -6.43976,
    "lng": -35.78676
  },
  {
    "name": "Monte Negro",
    "country": "BR",
    "lat": -10.29444,
    "lng": -63.32528
  },
  {
    "name": "Monte Verde",
    "country": "BR",
    "lat": -22.86417,
    "lng": -46.035
  },
  {
    "name": "Montes Claros de Goiás",
    "country": "BR",
    "lat": -16.00778,
    "lng": -51.39667
  },
  {
    "name": "Morrinhos do Sul",
    "country": "BR",
    "lat": -29.365,
    "lng": -49.93472
  },
  {
    "name": "Morro Agudo de Goiás",
    "country": "BR",
    "lat": -15.32083,
    "lng": -50.05667
  },
  {
    "name": "Morro Grande",
    "country": "BR",
    "lat": -28.80056,
    "lng": -49.72083
  },
  {
    "name": "Morro Redondo",
    "country": "BR",
    "lat": -31.58833,
    "lng": -52.63194
  },
  {
    "name": "Mojuí dos Campos",
    "country": "BR",
    "lat": -2.68333,
    "lng": -54.64278
  },
  {
    "name": "Morro da Cruz",
    "country": "BR",
    "lat": -27.5849,
    "lng": -48.53562
  },
  {
    "name": "Montividiu do Norte",
    "country": "BR",
    "lat": -13.34922,
    "lng": -48.68817
  },
  {
    "name": "Moema",
    "country": "BR",
    "lat": -23.59521,
    "lng": -46.66449
  },
  {
    "name": "Mooca",
    "country": "BR",
    "lat": -23.56135,
    "lng": -46.59641
  },
  {
    "name": "Morumbi",
    "country": "BR",
    "lat": -23.59632,
    "lng": -46.70802
  },
  {
    "name": "Monte Negro",
    "country": "BR",
    "lat": -10.26039,
    "lng": -63.29792
  },
  {
    "name": "Mongar",
    "country": "BT",
    "lat": 27.27471,
    "lng": 91.23963
  },
  {
    "name": "Mosopa",
    "country": "BW",
    "lat": -24.7718,
    "lng": 25.42156
  },
  {
    "name": "Mosetse",
    "country": "BW",
    "lat": -20.75,
    "lng": 26.65
  },
  {
    "name": "Mopipi",
    "country": "BW",
    "lat": -21.18333,
    "lng": 24.88333
  },
  {
    "name": "Mookane",
    "country": "BW",
    "lat": -23.68805,
    "lng": 26.65948
  },
  {
    "name": "Molepolole",
    "country": "BW",
    "lat": -24.40659,
    "lng": 25.49508
  },
  {
    "name": "Mogapinyana",
    "country": "BW",
    "lat": -22.37114,
    "lng": 27.58575
  },
  {
    "name": "Moijabana",
    "country": "BW",
    "lat": -22.62716,
    "lng": 26.41135
  },
  {
    "name": "Mogoditshane",
    "country": "BW",
    "lat": -24.62694,
    "lng": 25.86556
  },
  {
    "name": "Mogapi",
    "country": "BW",
    "lat": -22.32301,
    "lng": 27.83492
  },
  {
    "name": "Mochudi",
    "country": "BW",
    "lat": -24.41667,
    "lng": 26.15
  },
  {
    "name": "Morwa",
    "country": "BW",
    "lat": -24.43694,
    "lng": 26.07278
  },
  {
    "name": "Motal’",
    "country": "BY",
    "lat": 52.3138,
    "lng": 25.6072
  },
  {
    "name": "Mosar",
    "country": "BY",
    "lat": 55.22652,
    "lng": 27.46476
  },
  {
    "name": "Mosty",
    "country": "BY",
    "lat": 53.4122,
    "lng": 24.5387
  },
  {
    "name": "Moncton",
    "country": "CA",
    "lat": 46.09454,
    "lng": -64.7965
  },
  {
    "name": "Montague",
    "country": "CA",
    "lat": 46.16681,
    "lng": -62.64866
  },
  {
    "name": "Mont-Laurier",
    "country": "CA",
    "lat": 46.55011,
    "lng": -75.4993
  },
  {
    "name": "Montréal",
    "country": "CA",
    "lat": 45.50884,
    "lng": -73.58781
  },
  {
    "name": "Montréal-Est",
    "country": "CA",
    "lat": 45.63202,
    "lng": -73.5075
  },
  {
    "name": "Montréal-Ouest",
    "country": "CA",
    "lat": 45.45286,
    "lng": -73.64918
  },
  {
    "name": "Mont-Royal",
    "country": "CA",
    "lat": 45.51675,
    "lng": -73.64918
  },
  {
    "name": "Mont-Saint-Grégoire",
    "country": "CA",
    "lat": 45.33338,
    "lng": -73.16585
  },
  {
    "name": "Mont-Saint-Hilaire",
    "country": "CA",
    "lat": 45.56515,
    "lng": -73.1868
  },
  {
    "name": "Mont-Tremblant",
    "country": "CA",
    "lat": 46.21274,
    "lng": -74.58438
  },
  {
    "name": "Moose Factory",
    "country": "CA",
    "lat": 51.26689,
    "lng": -80.61624
  },
  {
    "name": "Moose Jaw",
    "country": "CA",
    "lat": 50.40005,
    "lng": -105.53445
  },
  {
    "name": "Moose Lake",
    "country": "CA",
    "lat": 49.20559,
    "lng": -95.30629
  },
  {
    "name": "Moosomin",
    "country": "CA",
    "lat": 50.14261,
    "lng": -101.66666
  },
  {
    "name": "Moosonee",
    "country": "CA",
    "lat": 51.27931,
    "lng": -80.6345
  },
  {
    "name": "Morden",
    "country": "CA",
    "lat": 49.1919,
    "lng": -98.10136
  },
  {
    "name": "Morin-Heights",
    "country": "CA",
    "lat": 45.90009,
    "lng": -74.24922
  },
  {
    "name": "Morinville",
    "country": "CA",
    "lat": 53.80014,
    "lng": -113.65203
  },
  {
    "name": "Morris",
    "country": "CA",
    "lat": 49.35499,
    "lng": -97.36567
  },
  {
    "name": "Morrisburg",
    "country": "CA",
    "lat": 44.9001,
    "lng": -75.18261
  },
  {
    "name": "Mount Albert",
    "country": "CA",
    "lat": 44.13341,
    "lng": -79.3163
  },
  {
    "name": "Mount Brydges",
    "country": "CA",
    "lat": 42.90009,
    "lng": -81.48306
  },
  {
    "name": "Mount Currie",
    "country": "CA",
    "lat": 50.31667,
    "lng": -122.71667
  },
  {
    "name": "Mount Dennis",
    "country": "CA",
    "lat": 43.68694,
    "lng": -79.48917
  },
  {
    "name": "Mount Lehman",
    "country": "CA",
    "lat": 49.11667,
    "lng": -122.38333
  },
  {
    "name": "Mount Pearl",
    "country": "CA",
    "lat": 47.51659,
    "lng": -52.78135
  },
  {
    "name": "Mount Pleasant",
    "country": "CA",
    "lat": 49.26667,
    "lng": -123.1
  },
  {
    "name": "Montmagny",
    "country": "CA",
    "lat": 46.98043,
    "lng": -70.55493
  },
  {
    "name": "Mont-Joli",
    "country": "CA",
    "lat": 48.58388,
    "lng": -68.19214
  },
  {
    "name": "Moss Park",
    "country": "CA",
    "lat": 43.65498,
    "lng": -79.37153
  },
  {
    "name": "Morningside",
    "country": "CA",
    "lat": 43.78727,
    "lng": -79.20636
  },
  {
    "name": "Mount Pleasant West",
    "country": "CA",
    "lat": 43.70444,
    "lng": -79.39336
  },
  {
    "name": "Mount Olive-Silverstone-Jamestown",
    "country": "CA",
    "lat": 43.74687,
    "lng": -79.58726
  },
  {
    "name": "Mount Pleasant East",
    "country": "CA",
    "lat": 43.70485,
    "lng": -79.38492
  },
  {
    "name": "Mont-Carmel",
    "country": "CA",
    "lat": 47.44084,
    "lng": -69.85657
  },
  {
    "name": "Morley-Buckingham",
    "country": "CA",
    "lat": 49.22597,
    "lng": -122.9573
  },
  {
    "name": "Mountain Meadows",
    "country": "CA",
    "lat": 49.28831,
    "lng": -122.81814
  },
  {
    "name": "Mokambo",
    "country": "CD",
    "lat": -12.42765,
    "lng": 28.34684
  },
  {
    "name": "Moanda",
    "country": "CD",
    "lat": -5.92753,
    "lng": 12.37148
  },
  {
    "name": "Mobaye",
    "country": "CF",
    "lat": 4.31902,
    "lng": 21.17861
  },
  {
    "name": "Mongoumba",
    "country": "CF",
    "lat": 3.64153,
    "lng": 18.59364
  },
  {
    "name": "Mossendjo",
    "country": "CG",
    "lat": -2.94968,
    "lng": 12.70423
  },
  {
    "name": "Mossaka",
    "country": "CG",
    "lat": -1.21982,
    "lng": 16.79921
  },
  {
    "name": "Mokéko",
    "country": "CG",
    "lat": 1.56333,
    "lng": 15.94111
  },
  {
    "name": "Mouyondzi",
    "country": "CG",
    "lat": -3.99437,
    "lng": 13.92719
  },
  {
    "name": "Moutier",
    "country": "CH",
    "lat": 47.27818,
    "lng": 7.36951
  },
  {
    "name": "Moudon",
    "country": "CH",
    "lat": 46.66758,
    "lng": 6.79781
  },
  {
    "name": "Mosnang",
    "country": "CH",
    "lat": 47.36252,
    "lng": 9.04296
  },
  {
    "name": "Morges",
    "country": "CH",
    "lat": 46.51127,
    "lng": 6.49854
  },
  {
    "name": "Morbio Inferiore",
    "country": "CH",
    "lat": 45.84915,
    "lng": 9.01907
  },
  {
    "name": "Montreux",
    "country": "CH",
    "lat": 46.43301,
    "lng": 6.91143
  },
  {
    "name": "Monthey",
    "country": "CH",
    "lat": 46.25451,
    "lng": 6.95406
  },
  {
    "name": "Monte Carasso",
    "country": "CH",
    "lat": 46.18649,
    "lng": 8.99892
  },
  {
    "name": "Montana",
    "country": "CH",
    "lat": 46.31338,
    "lng": 7.48839
  },
  {
    "name": "Montagny",
    "country": "CH",
    "lat": 46.79289,
    "lng": 6.61222
  },
  {
    "name": "Montagnola",
    "country": "CH",
    "lat": 45.98323,
    "lng": 8.91786
  },
  {
    "name": "Mollis",
    "country": "CH",
    "lat": 47.08878,
    "lng": 9.07242
  },
  {
    "name": "Mollens",
    "country": "CH",
    "lat": 46.5776,
    "lng": 6.3632
  },
  {
    "name": "Mogelsberg",
    "country": "CH",
    "lat": 47.36222,
    "lng": 9.13541
  },
  {
    "name": "Moiry",
    "country": "CH",
    "lat": 46.64914,
    "lng": 6.45335
  },
  {
    "name": "Moyako",
    "country": "CI",
    "lat": 8.90153,
    "lng": -7.12526
  },
  {
    "name": "Moya",
    "country": "CI",
    "lat": 8.9169,
    "lng": -7.42012
  },
  {
    "name": "Moussouminien",
    "country": "CI",
    "lat": 7.72557,
    "lng": -3.49721
  },
  {
    "name": "Moussobadougou",
    "country": "CI",
    "lat": 7.73673,
    "lng": -4.25837
  },
  {
    "name": "Moussadougou",
    "country": "CI",
    "lat": 6.154,
    "lng": -5.69334
  },
  {
    "name": "Mouatro",
    "country": "CI",
    "lat": 7.05861,
    "lng": -8.27222
  },
  {
    "name": "Motobé",
    "country": "CI",
    "lat": 5.33033,
    "lng": -3.65235
  },
  {
    "name": "Motianbo",
    "country": "CI",
    "lat": 8.0806,
    "lng": -2.73154
  },
  {
    "name": "Montézo",
    "country": "CI",
    "lat": 5.48556,
    "lng": -3.74027
  },
  {
    "name": "Moronou",
    "country": "CI",
    "lat": 6.32043,
    "lng": -4.97121
  },
  {
    "name": "Morondo",
    "country": "CI",
    "lat": 8.95152,
    "lng": -6.78524
  },
  {
    "name": "Moromoro",
    "country": "CI",
    "lat": 9.73827,
    "lng": -4.23936
  },
  {
    "name": "Morokro",
    "country": "CI",
    "lat": 6.0776,
    "lng": -4.70306
  },
  {
    "name": "Morokinkro",
    "country": "CI",
    "lat": 6.8166,
    "lng": -4.99457
  },
  {
    "name": "Mopoyem",
    "country": "CI",
    "lat": 5.31859,
    "lng": -4.4649
  },
  {
    "name": "Mopodji",
    "country": "CI",
    "lat": 5.72739,
    "lng": -3.60589
  },
  {
    "name": "Moofoué",
    "country": "CI",
    "lat": 6.11627,
    "lng": -4.73868
  },
  {
    "name": "Monongo",
    "country": "CI",
    "lat": 9.83333,
    "lng": -6.6
  },
  {
    "name": "Monoko Zohi Deux",
    "country": "CI",
    "lat": 7.06992,
    "lng": -6.84476
  },
  {
    "name": "Mongana",
    "country": "CI",
    "lat": 9.96205,
    "lng": -6.26497
  },
  {
    "name": "Monga",
    "country": "CI",
    "lat": 5.47623,
    "lng": -3.6607
  },
  {
    "name": "Mona",
    "country": "CI",
    "lat": 6.53493,
    "lng": -7.54322
  },
  {
    "name": "Momiraso",
    "country": "CI",
    "lat": 9.70654,
    "lng": -5.16887
  },
  {
    "name": "Mokouedou",
    "country": "CI",
    "lat": 5.96809,
    "lng": -5.48906
  },
  {
    "name": "Mohi-Moussadougou",
    "country": "CI",
    "lat": 9.04306,
    "lng": -7.62722
  },
  {
    "name": "Modougou",
    "country": "CI",
    "lat": 8.20106,
    "lng": -5.70679
  },
  {
    "name": "Moapé",
    "country": "CI",
    "lat": 6.18888,
    "lng": -3.80369
  },
  {
    "name": "Moanbaso",
    "country": "CI",
    "lat": 9.01474,
    "lng": -7.76499
  },
  {
    "name": "Moamé",
    "country": "CI",
    "lat": 5.16901,
    "lng": -3.5496
  },
  {
    "name": "Mougnan",
    "country": "CI",
    "lat": 6.50788,
    "lng": -5.11929
  },
  {
    "name": "Modeste",
    "country": "CI",
    "lat": 5.22444,
    "lng": -3.8264
  },
  {
    "name": "Mondoukou",
    "country": "CI",
    "lat": 5.18902,
    "lng": -3.68248
  },
  {
    "name": "Mobiokoua",
    "country": "CI",
    "lat": 5.66404,
    "lng": -3.9266
  },
  {
    "name": "Mopé",
    "country": "CI",
    "lat": 5.89675,
    "lng": -3.98332
  },
  {
    "name": "Mouhoua Aby",
    "country": "CI",
    "lat": 5.14776,
    "lng": -3.13022
  },
  {
    "name": "Moussayo",
    "country": "CI",
    "lat": 5.98952,
    "lng": -6.43714
  },
  {
    "name": "Mouyassué",
    "country": "CI",
    "lat": 5.36851,
    "lng": -3.09192
  },
  {
    "name": "Mouassué",
    "country": "CI",
    "lat": 5.56185,
    "lng": -2.78815
  },
  {
    "name": "Moussakro",
    "country": "CI",
    "lat": 6.26237,
    "lng": -3.39208
  },
  {
    "name": "Molonou",
    "country": "CI",
    "lat": 7.15831,
    "lng": -5.36694
  },
  {
    "name": "Mougnini",
    "country": "CI",
    "lat": 10.01405,
    "lng": -6.67064
  },
  {
    "name": "Monte Patria",
    "country": "CL",
    "lat": -30.69496,
    "lng": -70.9577
  },
  {
    "name": "Molina",
    "country": "CL",
    "lat": -35.11428,
    "lng": -71.28232
  },
  {
    "name": "Mouanko",
    "country": "CM",
    "lat": 3.63972,
    "lng": 9.77694
  },
  {
    "name": "Mora",
    "country": "CM",
    "lat": 11.04611,
    "lng": 14.14011
  },
  {
    "name": "Mokolo",
    "country": "CM",
    "lat": 10.74244,
    "lng": 13.80227
  },
  {
    "name": "Motuo",
    "country": "CN",
    "lat": 29.31329,
    "lng": 95.30741
  },
  {
    "name": "Molo",
    "country": "CN",
    "lat": 30.86004,
    "lng": 98.27297
  },
  {
    "name": "Mole",
    "country": "CN",
    "lat": 37.68966,
    "lng": 100.72579
  },
  {
    "name": "Mohe",
    "country": "CN",
    "lat": 52.97103,
    "lng": 122.52626
  },
  {
    "name": "Mositai",
    "country": "CN",
    "lat": 45.53538,
    "lng": 119.66698
  },
  {
    "name": "Moba",
    "country": "CN",
    "lat": 33.22876,
    "lng": 105.01793
  },
  {
    "name": "Moluo",
    "country": "CN",
    "lat": 30.80392,
    "lng": 98.10038
  },
  {
    "name": "Mori",
    "country": "CN",
    "lat": 43.83013,
    "lng": 90.27983
  },
  {
    "name": "Mountain",
    "country": "CO",
    "lat": 13.36667,
    "lng": -81.36667
  },
  {
    "name": "Motavita",
    "country": "CO",
    "lat": 5.57655,
    "lng": -73.36696
  },
  {
    "name": "Mosquera",
    "country": "CO",
    "lat": 4.70592,
    "lng": -74.23021
  },
  {
    "name": "Mosquera",
    "country": "CO",
    "lat": 2.50861,
    "lng": -78.4511
  },
  {
    "name": "Morroa",
    "country": "CO",
    "lat": 9.33348,
    "lng": -75.30542
  },
  {
    "name": "Morelia",
    "country": "CO",
    "lat": 1.48747,
    "lng": -75.72581
  },
  {
    "name": "Morales",
    "country": "CO",
    "lat": 8.27621,
    "lng": -73.86803
  },
  {
    "name": "Montería",
    "country": "CO",
    "lat": 8.75081,
    "lng": -75.87823
  },
  {
    "name": "Montenegro",
    "country": "CO",
    "lat": 4.56639,
    "lng": -75.75111
  },
  {
    "name": "Montelíbano",
    "country": "CO",
    "lat": 7.97917,
    "lng": -75.4202
  },
  {
    "name": "Montecristo",
    "country": "CO",
    "lat": 8.2971,
    "lng": -74.4733
  },
  {
    "name": "Montebello",
    "country": "CO",
    "lat": 5.94806,
    "lng": -75.5275
  },
  {
    "name": "Moñitos",
    "country": "CO",
    "lat": 9.2455,
    "lng": -76.13017
  },
  {
    "name": "Moñitos",
    "country": "CO",
    "lat": 8.25,
    "lng": -76.05
  },
  {
    "name": "Moniquirá",
    "country": "CO",
    "lat": 5.87638,
    "lng": -73.57284
  },
  {
    "name": "Monguí",
    "country": "CO",
    "lat": 5.72151,
    "lng": -72.84908
  },
  {
    "name": "Mongua",
    "country": "CO",
    "lat": 5.75084,
    "lng": -72.80339
  },
  {
    "name": "Mompós",
    "country": "CO",
    "lat": 9.24194,
    "lng": -74.42667
  },
  {
    "name": "Momil",
    "country": "CO",
    "lat": 9.23767,
    "lng": -75.67489
  },
  {
    "name": "Molagavita",
    "country": "CO",
    "lat": 6.67315,
    "lng": -72.80875
  },
  {
    "name": "Mogotes",
    "country": "CO",
    "lat": 6.47559,
    "lng": -72.97046
  },
  {
    "name": "Mocoa",
    "country": "CO",
    "lat": 1.15284,
    "lng": -76.65208
  },
  {
    "name": "Monterrey",
    "country": "CO",
    "lat": 4.87802,
    "lng": -72.89575
  },
  {
    "name": "Morales",
    "country": "CO",
    "lat": 2.75446,
    "lng": -76.62791
  },
  {
    "name": "Monterrey",
    "country": "CR",
    "lat": 9.7573,
    "lng": -84.10956
  },
  {
    "name": "Morón",
    "country": "CU",
    "lat": 22.10774,
    "lng": -78.62667
  },
  {
    "name": "Moa",
    "country": "CU",
    "lat": 20.65776,
    "lng": -74.95075
  },
  {
    "name": "Mouttagiáka",
    "country": "CY",
    "lat": 34.72022,
    "lng": 33.10066
  },
  {
    "name": "Mosfilotí",
    "country": "CY",
    "lat": 34.95322,
    "lng": 33.42518
  },
  {
    "name": "Morkovice-Slížany",
    "country": "CZ",
    "lat": 49.24726,
    "lng": 17.21128
  },
  {
    "name": "Moutnice",
    "country": "CZ",
    "lat": 49.04924,
    "lng": 16.73741
  },
  {
    "name": "Mosty u Jablunkova",
    "country": "CZ",
    "lat": 49.52737,
    "lng": 18.75417
  },
  {
    "name": "Mostkovice",
    "country": "CZ",
    "lat": 49.47215,
    "lng": 17.05212
  },
  {
    "name": "Mostek",
    "country": "CZ",
    "lat": 50.48623,
    "lng": 15.69622
  },
  {
    "name": "Most",
    "country": "CZ",
    "lat": 50.50301,
    "lng": 13.63617
  },
  {
    "name": "Mořkov",
    "country": "CZ",
    "lat": 49.53684,
    "lng": 18.05968
  },
  {
    "name": "Moravský Žižkov",
    "country": "CZ",
    "lat": 48.83285,
    "lng": 16.9314
  },
  {
    "name": "Moravský Písek",
    "country": "CZ",
    "lat": 48.99016,
    "lng": 17.33269
  },
  {
    "name": "Moravský Krumlov",
    "country": "CZ",
    "lat": 49.04893,
    "lng": 16.31169
  },
  {
    "name": "Moravský Beroun",
    "country": "CZ",
    "lat": 49.79374,
    "lng": 17.44212
  },
  {
    "name": "Moravské Budějovice",
    "country": "CZ",
    "lat": 49.05209,
    "lng": 15.80864
  },
  {
    "name": "Moravská Třebová",
    "country": "CZ",
    "lat": 49.75793,
    "lng": 16.66426
  },
  {
    "name": "Moravská Nová Ves",
    "country": "CZ",
    "lat": 48.80304,
    "lng": 17.01371
  },
  {
    "name": "Morávka",
    "country": "CZ",
    "lat": 49.59607,
    "lng": 18.52471
  },
  {
    "name": "Moravičany",
    "country": "CZ",
    "lat": 49.75694,
    "lng": 16.96042
  },
  {
    "name": "Moravany",
    "country": "CZ",
    "lat": 50.00095,
    "lng": 15.94071
  },
  {
    "name": "Moravany",
    "country": "CZ",
    "lat": 49.1478,
    "lng": 16.58026
  },
  {
    "name": "Mokré Lazce",
    "country": "CZ",
    "lat": 49.90462,
    "lng": 18.02954
  },
  {
    "name": "Mokrá Hora",
    "country": "CZ",
    "lat": 49.26176,
    "lng": 16.59107
  },
  {
    "name": "Mohelno",
    "country": "CZ",
    "lat": 49.11412,
    "lng": 16.19022
  },
  {
    "name": "Mohelnice",
    "country": "CZ",
    "lat": 49.77698,
    "lng": 16.91946
  },
  {
    "name": "Modřice",
    "country": "CZ",
    "lat": 49.11928,
    "lng": 16.60446
  },
  {
    "name": "Modřany",
    "country": "CZ",
    "lat": 50.01116,
    "lng": 14.4096
  },
  {
    "name": "Motten",
    "country": "DE",
    "lat": 50.39561,
    "lng": 9.77251
  },
  {
    "name": "Mosbach",
    "country": "DE",
    "lat": 49.35357,
    "lng": 9.15106
  },
  {
    "name": "Morsum",
    "country": "DE",
    "lat": 54.86989,
    "lng": 8.43939
  },
  {
    "name": "Morsum",
    "country": "DE",
    "lat": 52.95347,
    "lng": 9.07962
  },
  {
    "name": "Morsbach",
    "country": "DE",
    "lat": 50.86665,
    "lng": 7.72787
  },
  {
    "name": "Moritzburg",
    "country": "DE",
    "lat": 51.15922,
    "lng": 13.68021
  },
  {
    "name": "Moringen",
    "country": "DE",
    "lat": 51.69915,
    "lng": 9.87107
  },
  {
    "name": "Morbach",
    "country": "DE",
    "lat": 49.80772,
    "lng": 7.12714
  },
  {
    "name": "Moosthenning",
    "country": "DE",
    "lat": 48.67659,
    "lng": 12.49737
  },
  {
    "name": "Moosinning",
    "country": "DE",
    "lat": 48.27708,
    "lng": 11.84446
  },
  {
    "name": "Moosburg",
    "country": "DE",
    "lat": 48.47089,
    "lng": 11.93811
  },
  {
    "name": "Moosbach",
    "country": "DE",
    "lat": 49.58909,
    "lng": 12.41036
  },
  {
    "name": "Moosach",
    "country": "DE",
    "lat": 48.03213,
    "lng": 11.8751
  },
  {
    "name": "Moos",
    "country": "DE",
    "lat": 47.72439,
    "lng": 8.93479
  },
  {
    "name": "Moorrege",
    "country": "DE",
    "lat": 53.66774,
    "lng": 9.66205
  },
  {
    "name": "Moorfleet",
    "country": "DE",
    "lat": 53.50156,
    "lng": 10.07996
  },
  {
    "name": "Moorenweis",
    "country": "DE",
    "lat": 48.15561,
    "lng": 11.07851
  },
  {
    "name": "Monzingen",
    "country": "DE",
    "lat": 49.79763,
    "lng": 7.59284
  },
  {
    "name": "Monzelfeld",
    "country": "DE",
    "lat": 49.89237,
    "lng": 7.07318
  },
  {
    "name": "Montabaur",
    "country": "DE",
    "lat": 50.43588,
    "lng": 7.8232
  },
  {
    "name": "Monsheim",
    "country": "DE",
    "lat": 49.63722,
    "lng": 8.21194
  },
  {
    "name": "Monschau",
    "country": "DE",
    "lat": 50.55462,
    "lng": 6.24001
  },
  {
    "name": "Monheim am Rhein",
    "country": "DE",
    "lat": 51.09162,
    "lng": 6.89217
  },
  {
    "name": "Monheim",
    "country": "DE",
    "lat": 48.84389,
    "lng": 10.85834
  },
  {
    "name": "Monakam",
    "country": "DE",
    "lat": 48.78947,
    "lng": 8.75026
  },
  {
    "name": "Mommenheim",
    "country": "DE",
    "lat": 49.88028,
    "lng": 8.265
  },
  {
    "name": "Molschleben",
    "country": "DE",
    "lat": 51.0,
    "lng": 10.78333
  },
  {
    "name": "Molfsee",
    "country": "DE",
    "lat": 54.26374,
    "lng": 10.06564
  },
  {
    "name": "Molbergen",
    "country": "DE",
    "lat": 52.85805,
    "lng": 7.92548
  },
  {
    "name": "Moisburg",
    "country": "DE",
    "lat": 53.4062,
    "lng": 9.6988
  },
  {
    "name": "Mohlsdorf",
    "country": "DE",
    "lat": 50.66974,
    "lng": 12.26519
  },
  {
    "name": "Mogendorf",
    "country": "DE",
    "lat": 50.49444,
    "lng": 7.75972
  },
  {
    "name": "Moers",
    "country": "DE",
    "lat": 51.45342,
    "lng": 6.6326
  },
  {
    "name": "Mockrehna",
    "country": "DE",
    "lat": 51.50757,
    "lng": 12.81418
  },
  {
    "name": "Mochau",
    "country": "DE",
    "lat": 51.13333,
    "lng": 13.18333
  },
  {
    "name": "Moabit",
    "country": "DE",
    "lat": 52.52635,
    "lng": 13.33903
  },
  {
    "name": "Mohrkirch",
    "country": "DE",
    "lat": 54.67443,
    "lng": 9.7112
  },
  {
    "name": "Monte Plata",
    "country": "DO",
    "lat": 18.80748,
    "lng": -69.78431
  },
  {
    "name": "Monte Llano",
    "country": "DO",
    "lat": 19.7346,
    "lng": -70.59915
  },
  {
    "name": "Monción",
    "country": "DO",
    "lat": 19.41083,
    "lng": -71.15257
  },
  {
    "name": "Moca",
    "country": "DO",
    "lat": 19.39289,
    "lng": -70.52347
  },
  {
    "name": "Mouzaïa",
    "country": "DZ",
    "lat": 36.46695,
    "lng": 2.68991
  },
  {
    "name": "Mostaganem",
    "country": "DZ",
    "lat": 35.93115,
    "lng": 0.08918
  },
  {
    "name": "Mohammadia",
    "country": "DZ",
    "lat": 35.58861,
    "lng": 0.06861
  },
  {
    "name": "Moraspungo",
    "country": "EC",
    "lat": -1.17409,
    "lng": -79.22341
  },
  {
    "name": "Morales",
    "country": "EC",
    "lat": -3.71873,
    "lng": -79.5432
  },
  {
    "name": "Montecristi",
    "country": "EC",
    "lat": -1.04576,
    "lng": -80.65889
  },
  {
    "name": "Montalvo",
    "country": "EC",
    "lat": -2.04934,
    "lng": -77.00856
  },
  {
    "name": "Montalvo",
    "country": "EC",
    "lat": -1.79008,
    "lng": -79.28759
  },
  {
    "name": "Montalvo",
    "country": "EC",
    "lat": 1.05012,
    "lng": -79.31189
  },
  {
    "name": "Mocha",
    "country": "EC",
    "lat": -1.4191,
    "lng": -78.66202
  },
  {
    "name": "Mocache",
    "country": "EC",
    "lat": -1.18891,
    "lng": -79.50619
  },
  {
    "name": "Moya",
    "country": "ES",
    "lat": 39.95,
    "lng": -1.36667
  },
  {
    "name": "Moya",
    "country": "ES",
    "lat": 28.11106,
    "lng": -15.58285
  },
  {
    "name": "Motril",
    "country": "ES",
    "lat": 36.75066,
    "lng": -3.5179
  },
  {
    "name": "Motilleja",
    "country": "ES",
    "lat": 39.18333,
    "lng": -1.78333
  },
  {
    "name": "Motilla del Palancar",
    "country": "ES",
    "lat": 39.56667,
    "lng": -1.88333
  },
  {
    "name": "Mota del Cuervo",
    "country": "ES",
    "lat": 39.50189,
    "lng": -2.86994
  },
  {
    "name": "Mota de Altarejos",
    "country": "ES",
    "lat": 39.88201,
    "lng": -2.30958
  },
  {
    "name": "Morón de la Frontera",
    "country": "ES",
    "lat": 37.12084,
    "lng": -5.45403
  },
  {
    "name": "Moraira",
    "country": "ES",
    "lat": 38.68866,
    "lng": 0.13484
  },
  {
    "name": "Moratalla",
    "country": "ES",
    "lat": 38.18928,
    "lng": -1.89183
  },
  {
    "name": "Moraleda de Zafayona",
    "country": "ES",
    "lat": 37.16723,
    "lng": -3.96505
  },
  {
    "name": "Moral de Calatrava",
    "country": "ES",
    "lat": 38.82989,
    "lng": -3.57813
  },
  {
    "name": "Mora",
    "country": "ES",
    "lat": 39.68492,
    "lng": -3.77394
  },
  {
    "name": "Monturque",
    "country": "ES",
    "lat": 37.47186,
    "lng": -4.58164
  },
  {
    "name": "Montuïri",
    "country": "ES",
    "lat": 39.56742,
    "lng": 2.98189
  },
  {
    "name": "Montroy",
    "country": "ES",
    "lat": 39.33333,
    "lng": -0.61667
  },
  {
    "name": "Montoro",
    "country": "ES",
    "lat": 38.02409,
    "lng": -4.3834
  },
  {
    "name": "Montizón",
    "country": "ES",
    "lat": 38.34249,
    "lng": -3.10404
  },
  {
    "name": "Montillana",
    "country": "ES",
    "lat": 37.50168,
    "lng": -3.67368
  },
  {
    "name": "Montilla",
    "country": "ES",
    "lat": 37.58627,
    "lng": -4.63805
  },
  {
    "name": "Montijo",
    "country": "ES",
    "lat": 38.90839,
    "lng": -6.61785
  },
  {
    "name": "Montiel",
    "country": "ES",
    "lat": 38.69802,
    "lng": -2.86441
  },
  {
    "name": "Montichelvo",
    "country": "ES",
    "lat": 38.89129,
    "lng": -0.34123
  },
  {
    "name": "Montesa",
    "country": "ES",
    "lat": 38.9503,
    "lng": -0.652
  },
  {
    "name": "Monterrubio de la Serena",
    "country": "ES",
    "lat": 38.58876,
    "lng": -5.44569
  },
  {
    "name": "Montemolín",
    "country": "ES",
    "lat": 38.15,
    "lng": -6.2
  },
  {
    "name": "Montemayor",
    "country": "ES",
    "lat": 37.6479,
    "lng": -4.69779
  },
  {
    "name": "Montellano",
    "country": "ES",
    "lat": 36.99531,
    "lng": -5.57145
  },
  {
    "name": "Montejicar",
    "country": "ES",
    "lat": 37.57223,
    "lng": -3.50527
  },
  {
    "name": "Montejaque",
    "country": "ES",
    "lat": 36.73684,
    "lng": -5.2499
  },
  {
    "name": "Montefrío",
    "country": "ES",
    "lat": 37.32308,
    "lng": -4.00898
  },
  {
    "name": "Montecorto",
    "country": "ES",
    "lat": 36.8158,
    "lng": -5.29803
  },
  {
    "name": "Montearagón",
    "country": "ES",
    "lat": 39.96425,
    "lng": -4.63214
  },
  {
    "name": "Montealegre del Castillo",
    "country": "ES",
    "lat": 38.78856,
    "lng": -1.32722
  },
  {
    "name": "Monteagudo de las Salinas",
    "country": "ES",
    "lat": 39.8,
    "lng": -1.9
  },
  {
    "name": "Montánchez",
    "country": "ES",
    "lat": 39.22548,
    "lng": -6.14914
  },
  {
    "name": "Montalvos",
    "country": "ES",
    "lat": 39.16667,
    "lng": -2.01667
  },
  {
    "name": "Montalbo",
    "country": "ES",
    "lat": 39.87994,
    "lng": -2.67038
  },
  {
    "name": "Montalbanejo",
    "country": "ES",
    "lat": 39.73369,
    "lng": -2.49911
  },
  {
    "name": "Montalbán de Córdoba",
    "country": "ES",
    "lat": 37.57996,
    "lng": -4.74935
  },
  {
    "name": "Montaberner",
    "country": "ES",
    "lat": 38.89021,
    "lng": -0.49582
  },
  {
    "name": "Monserrat",
    "country": "ES",
    "lat": 39.36667,
    "lng": -0.6
  },
  {
    "name": "Monreal del Llano",
    "country": "ES",
    "lat": 39.56888,
    "lng": -2.76046
  },
  {
    "name": "Monóvar",
    "country": "ES",
    "lat": 38.43809,
    "lng": -0.84062
  },
  {
    "name": "Monforte del Cid",
    "country": "ES",
    "lat": 38.38027,
    "lng": -0.7285
  },
  {
    "name": "Monesterio",
    "country": "ES",
    "lat": 38.08333,
    "lng": -6.26667
  },
  {
    "name": "Monda",
    "country": "ES",
    "lat": 36.63027,
    "lng": -4.83192
  },
  {
    "name": "Moncofa",
    "country": "ES",
    "lat": 39.80907,
    "lng": -0.14701
  },
  {
    "name": "Moncada",
    "country": "ES",
    "lat": 39.54555,
    "lng": -0.39551
  },
  {
    "name": "Monachil",
    "country": "ES",
    "lat": 37.1332,
    "lng": -3.53724
  },
  {
    "name": "Molvízar",
    "country": "ES",
    "lat": 36.78592,
    "lng": -3.60783
  },
  {
    "name": "Mollina",
    "country": "ES",
    "lat": 37.12534,
    "lng": -4.65686
  },
  {
    "name": "Molinicos",
    "country": "ES",
    "lat": 38.46717,
    "lng": -2.23939
  },
  {
    "name": "Molina de Segura",
    "country": "ES",
    "lat": 38.05456,
    "lng": -1.20763
  },
  {
    "name": "Mojacar",
    "country": "ES",
    "lat": 37.1402,
    "lng": -1.85102
  },
  {
    "name": "Mohedas de la Jara",
    "country": "ES",
    "lat": 39.60417,
    "lng": -5.14247
  },
  {
    "name": "Moguer",
    "country": "ES",
    "lat": 37.27559,
    "lng": -6.83851
  },
  {
    "name": "Mogente",
    "country": "ES",
    "lat": 38.87598,
    "lng": -0.7515
  },
  {
    "name": "Mogán",
    "country": "ES",
    "lat": 27.88385,
    "lng": -15.72538
  },
  {
    "name": "Moclinejo",
    "country": "ES",
    "lat": 36.77134,
    "lng": -4.25514
  },
  {
    "name": "Moclín",
    "country": "ES",
    "lat": 37.33959,
    "lng": -3.78651
  },
  {
    "name": "Mocejón",
    "country": "ES",
    "lat": 39.93934,
    "lng": -3.91716
  },
  {
    "name": "Mozota",
    "country": "ES",
    "lat": 41.4841,
    "lng": -1.06807
  },
  {
    "name": "Mozoncillo",
    "country": "ES",
    "lat": 41.14539,
    "lng": -4.18753
  },
  {
    "name": "Mozárbez",
    "country": "ES",
    "lat": 40.85652,
    "lng": -5.65144
  },
  {
    "name": "Moyuela",
    "country": "ES",
    "lat": 41.12792,
    "lng": -0.92225
  },
  {
    "name": "Moià",
    "country": "ES",
    "lat": 41.81112,
    "lng": 2.09839
  },
  {
    "name": "Mota del Marqués",
    "country": "ES",
    "lat": 41.63247,
    "lng": -5.17681
  },
  {
    "name": "Mosqueruela",
    "country": "ES",
    "lat": 40.36133,
    "lng": -0.4489
  },
  {
    "name": "Moscardón",
    "country": "ES",
    "lat": 40.33295,
    "lng": -1.53683
  },
  {
    "name": "Mos",
    "country": "ES",
    "lat": 43.16122,
    "lng": -7.54324
  },
  {
    "name": "Moros",
    "country": "ES",
    "lat": 41.39775,
    "lng": -1.82839
  },
  {
    "name": "Moronta",
    "country": "ES",
    "lat": 40.97688,
    "lng": -6.43103
  },
  {
    "name": "Morón de Almazán",
    "country": "ES",
    "lat": 41.41361,
    "lng": -2.41317
  },
  {
    "name": "Moriscos",
    "country": "ES",
    "lat": 41.00818,
    "lng": -5.58184
  },
  {
    "name": "Morille",
    "country": "ES",
    "lat": 40.80693,
    "lng": -5.69833
  },
  {
    "name": "Morés",
    "country": "ES",
    "lat": 41.47326,
    "lng": -1.56491
  },
  {
    "name": "Moreruela de Tábara",
    "country": "ES",
    "lat": 41.79588,
    "lng": -5.86849
  },
  {
    "name": "Moreruela de los Infanzones",
    "country": "ES",
    "lat": 41.63118,
    "lng": -5.70614
  },
  {
    "name": "Morentin",
    "country": "ES",
    "lat": 42.61286,
    "lng": -2.01393
  },
  {
    "name": "Morenilla",
    "country": "ES",
    "lat": 40.78687,
    "lng": -1.70717
  },
  {
    "name": "Morella",
    "country": "ES",
    "lat": 40.61966,
    "lng": -0.09892
  },
  {
    "name": "Moreda Araba / Moreda de Álava",
    "country": "ES",
    "lat": 42.52571,
    "lng": -2.40828
  },
  {
    "name": "Morcillo",
    "country": "ES",
    "lat": 40.01884,
    "lng": -6.39746
  },
  {
    "name": "Moratinos",
    "country": "ES",
    "lat": 42.36191,
    "lng": -4.92831
  },
  {
    "name": "Moratilla de los Meleros",
    "country": "ES",
    "lat": 40.50182,
    "lng": -2.94276
  },
  {
    "name": "Moratalaz",
    "country": "ES",
    "lat": 40.40742,
    "lng": -3.64935
  },
  {
    "name": "Morata de Tajuña",
    "country": "ES",
    "lat": 40.2268,
    "lng": -3.43269
  },
  {
    "name": "Morata de Jiloca",
    "country": "ES",
    "lat": 41.24797,
    "lng": -1.58665
  },
  {
    "name": "Morata de Jalón",
    "country": "ES",
    "lat": 41.47348,
    "lng": -1.47628
  },
  {
    "name": "Morasverdes",
    "country": "ES",
    "lat": 40.60019,
    "lng": -6.27503
  },
  {
    "name": "Moraña",
    "country": "ES",
    "lat": 42.55,
    "lng": -8.58333
  },
  {
    "name": "Moralzarzal",
    "country": "ES",
    "lat": 40.67816,
    "lng": -3.9707
  },
  {
    "name": "Moralina",
    "country": "ES",
    "lat": 41.49001,
    "lng": -6.1367
  },
  {
    "name": "Morales de Valverde",
    "country": "ES",
    "lat": 41.93643,
    "lng": -5.89255
  },
  {
    "name": "Morales de Toro",
    "country": "ES",
    "lat": 41.53737,
    "lng": -5.30642
  },
  {
    "name": "Morales del Vino",
    "country": "ES",
    "lat": 41.44736,
    "lng": -5.7307
  },
  {
    "name": "Morales de Campos",
    "country": "ES",
    "lat": 41.86068,
    "lng": -5.17252
  },
  {
    "name": "Moraleja de Sayago",
    "country": "ES",
    "lat": 41.16916,
    "lng": -6.00369
  },
  {
    "name": "Moraleja de Matacabras",
    "country": "ES",
    "lat": 41.10732,
    "lng": -4.95717
  },
  {
    "name": "Moraleja del Vino",
    "country": "ES",
    "lat": 41.46385,
    "lng": -5.65631
  },
  {
    "name": "Moraleja de las Panaderas",
    "country": "ES",
    "lat": 41.27636,
    "lng": -4.82521
  },
  {
    "name": "Moraleja de Enmedio",
    "country": "ES",
    "lat": 40.26125,
    "lng": -3.85963
  },
  {
    "name": "Moraleja",
    "country": "ES",
    "lat": 40.06682,
    "lng": -6.65983
  },
  {
    "name": "Moral de Sayago",
    "country": "ES",
    "lat": 41.47019,
    "lng": -6.1006
  },
  {
    "name": "Moral de la Reina",
    "country": "ES",
    "lat": 41.98611,
    "lng": -5.07208
  },
  {
    "name": "Moradillo de Roa",
    "country": "ES",
    "lat": 41.55164,
    "lng": -3.79118
  },
  {
    "name": "Mora de Rubielos",
    "country": "ES",
    "lat": 40.2502,
    "lng": -0.75249
  },
  {
    "name": "Monzón de Campos",
    "country": "ES",
    "lat": 42.11604,
    "lng": -4.49283
  },
  {
    "name": "Monzón",
    "country": "ES",
    "lat": 41.91084,
    "lng": 0.19406
  },
  {
    "name": "Mont-roig del Camp",
    "country": "ES",
    "lat": 41.08675,
    "lng": 0.95925
  },
  {
    "name": "Mont-ral",
    "country": "ES",
    "lat": 41.28333,
    "lng": 1.1
  },
  {
    "name": "Montornès del Vallès",
    "country": "ES",
    "lat": 41.54206,
    "lng": 2.26748
  },
  {
    "name": "Montorio",
    "country": "ES",
    "lat": 42.58469,
    "lng": -3.77724
  },
  {
    "name": "Montón",
    "country": "ES",
    "lat": 41.20667,
    "lng": -1.5155
  },
  {
    "name": "Montmeló",
    "country": "ES",
    "lat": 41.55002,
    "lng": 2.2419
  },
  {
    "name": "Montferri",
    "country": "ES",
    "lat": 41.26545,
    "lng": 1.36517
  },
  {
    "name": "Montesquiu",
    "country": "ES",
    "lat": 42.11667,
    "lng": 2.21667
  },
  {
    "name": "Montesclaros",
    "country": "ES",
    "lat": 40.10646,
    "lng": -4.93849
  },
  {
    "name": "Monterrubio de la Sierra",
    "country": "ES",
    "lat": 40.75592,
    "lng": -5.69329
  },
  {
    "name": "Monterrubio de Armuña",
    "country": "ES",
    "lat": 41.02651,
    "lng": -5.64389
  },
  {
    "name": "Monterrubio",
    "country": "ES",
    "lat": 40.84914,
    "lng": -4.35001
  },
  {
    "name": "Monterroso",
    "country": "ES",
    "lat": 42.7925,
    "lng": -7.83425
  },
  {
    "name": "Monterde de Albarracín",
    "country": "ES",
    "lat": 40.49708,
    "lng": -1.49216
  },
  {
    "name": "Monterde",
    "country": "ES",
    "lat": 41.17434,
    "lng": -1.73505
  },
  {
    "name": "Montenegro de Cameros",
    "country": "ES",
    "lat": 42.08924,
    "lng": -2.75406
  },
  {
    "name": "Montemayor de Pililla",
    "country": "ES",
    "lat": 41.50874,
    "lng": -4.45745
  },
  {
    "name": "Montemayor del Río",
    "country": "ES",
    "lat": 40.34836,
    "lng": -5.89427
  },
  {
    "name": "Montejo de Tiermes",
    "country": "ES",
    "lat": 41.36838,
    "lng": -3.20016
  },
  {
    "name": "Montejo de la Vega de la Serrezuela",
    "country": "ES",
    "lat": 41.55032,
    "lng": -3.65406
  },
  {
    "name": "Montejo de la Sierra",
    "country": "ES",
    "lat": 41.05955,
    "lng": -3.52993
  },
  {
    "name": "Montejo de Arévalo",
    "country": "ES",
    "lat": 41.14027,
    "lng": -4.66414
  },
  {
    "name": "Montejo",
    "country": "ES",
    "lat": 40.63246,
    "lng": -5.62287
  },
  {
    "name": "Montehermoso",
    "country": "ES",
    "lat": 40.08796,
    "lng": -6.34984
  },
  {
    "name": "Montederramo",
    "country": "ES",
    "lat": 42.27554,
    "lng": -7.50138
  },
  {
    "name": "Monteagudo del Castillo",
    "country": "ES",
    "lat": 40.45656,
    "lng": -0.81781
  },
  {
    "name": "Monteagudo de las Vicarías",
    "country": "ES",
    "lat": 41.36485,
    "lng": -2.1696
  },
  {
    "name": "Monteagudo",
    "country": "ES",
    "lat": 41.96667,
    "lng": -1.68333
  },
  {
    "name": "Montblanc",
    "country": "ES",
    "lat": 41.37636,
    "lng": 1.16163
  },
  {
    "name": "Montarrón",
    "country": "ES",
    "lat": 40.90675,
    "lng": -3.11495
  },
  {
    "name": "Montanejos",
    "country": "ES",
    "lat": 40.06667,
    "lng": -0.51667
  },
  {
    "name": "Montán",
    "country": "ES",
    "lat": 40.03333,
    "lng": -0.55
  },
  {
    "name": "Montamarta",
    "country": "ES",
    "lat": 41.64724,
    "lng": -5.80402
  },
  {
    "name": "Montalbán",
    "country": "ES",
    "lat": 40.83278,
    "lng": -0.80178
  },
  {
    "name": "Monsalupe",
    "country": "ES",
    "lat": 40.76953,
    "lng": -4.78131
  },
  {
    "name": "Monsagro",
    "country": "ES",
    "lat": 40.50343,
    "lng": -6.2711
  },
  {
    "name": "Monroyo",
    "country": "ES",
    "lat": 40.78775,
    "lng": -0.0355
  },
  {
    "name": "Monreal del Campo",
    "country": "ES",
    "lat": 40.788,
    "lng": -1.35541
  },
  {
    "name": "Monreal de Ariza",
    "country": "ES",
    "lat": 41.29165,
    "lng": -2.10493
  },
  {
    "name": "Monreal",
    "country": "ES",
    "lat": 42.70421,
    "lng": -1.50785
  },
  {
    "name": "Monleras",
    "country": "ES",
    "lat": 41.18704,
    "lng": -6.22622
  },
  {
    "name": "Monleón",
    "country": "ES",
    "lat": 40.58192,
    "lng": -5.84312
  },
  {
    "name": "Monistrol de Montserrat",
    "country": "ES",
    "lat": 41.61667,
    "lng": 1.85
  },
  {
    "name": "Montgat",
    "country": "ES",
    "lat": 41.46859,
    "lng": 2.28001
  },
  {
    "name": "Monforte de Moyuela",
    "country": "ES",
    "lat": 41.05512,
    "lng": -1.01411
  },
  {
    "name": "Monforte de Lemos",
    "country": "ES",
    "lat": 42.52165,
    "lng": -7.51422
  },
  {
    "name": "Monforte de la Sierra",
    "country": "ES",
    "lat": 40.48264,
    "lng": -6.05671
  },
  {
    "name": "Monfero",
    "country": "ES",
    "lat": 43.33333,
    "lng": -8.01667
  },
  {
    "name": "Monfarracinos",
    "country": "ES",
    "lat": 41.55468,
    "lng": -5.70795
  },
  {
    "name": "Moneva",
    "country": "ES",
    "lat": 41.12817,
    "lng": -0.83591
  },
  {
    "name": "Monegrillo",
    "country": "ES",
    "lat": 41.63856,
    "lng": -0.4157
  },
  {
    "name": "Mondoñedo",
    "country": "ES",
    "lat": 43.42682,
    "lng": -7.35833
  },
  {
    "name": "Mondoñedo",
    "country": "ES",
    "lat": 43.4,
    "lng": -7.4
  },
  {
    "name": "Mondéjar",
    "country": "ES",
    "lat": 40.32095,
    "lng": -3.10686
  },
  {
    "name": "Mondariz-Balneario",
    "country": "ES",
    "lat": 42.22686,
    "lng": -8.46728
  },
  {
    "name": "Mondariz",
    "country": "ES",
    "lat": 42.2311,
    "lng": -8.45839
  },
  {
    "name": "Moncalvillo",
    "country": "ES",
    "lat": 41.95413,
    "lng": -3.19886
  },
  {
    "name": "Montcada i Reixac",
    "country": "ES",
    "lat": 41.48333,
    "lng": 2.18333
  },
  {
    "name": "Monasterio de Vega",
    "country": "ES",
    "lat": 42.23015,
    "lng": -5.18095
  },
  {
    "name": "Monasterio de Rodilla",
    "country": "ES",
    "lat": 42.45775,
    "lng": -3.46965
  },
  {
    "name": "Monasterio de la Sierra",
    "country": "ES",
    "lat": 42.0518,
    "lng": -3.19314
  },
  {
    "name": "Monasterio",
    "country": "ES",
    "lat": 40.98547,
    "lng": -3.09711
  },
  {
    "name": "Mombuey",
    "country": "ES",
    "lat": 42.02283,
    "lng": -6.33027
  },
  {
    "name": "Momblona",
    "country": "ES",
    "lat": 41.4442,
    "lng": -2.3466
  },
  {
    "name": "Mombeltrán",
    "country": "ES",
    "lat": 40.25987,
    "lng": -5.01749
  },
  {
    "name": "Mollet de Peralada",
    "country": "ES",
    "lat": 42.35959,
    "lng": 3.00034
  },
  {
    "name": "Mollet del Vallès",
    "country": "ES",
    "lat": 41.54026,
    "lng": 2.21306
  },
  {
    "name": "Mollerussa",
    "country": "ES",
    "lat": 41.63333,
    "lng": 0.9
  },
  {
    "name": "Molledo",
    "country": "ES",
    "lat": 43.14974,
    "lng": -4.04239
  },
  {
    "name": "Molins de Rei",
    "country": "ES",
    "lat": 41.41667,
    "lng": 2.01667
  },
  {
    "name": "Molinos de Duero",
    "country": "ES",
    "lat": 41.88603,
    "lng": -2.78682
  },
  {
    "name": "Molinos",
    "country": "ES",
    "lat": 40.821,
    "lng": -0.45017
  },
  {
    "name": "Molinillo",
    "country": "ES",
    "lat": 40.46898,
    "lng": -5.94493
  },
  {
    "name": "Molinaseca",
    "country": "ES",
    "lat": 42.53829,
    "lng": -6.51997
  },
  {
    "name": "Molina de Aragón",
    "country": "ES",
    "lat": 40.84358,
    "lng": -1.88762
  },
  {
    "name": "Molezuelas de la Carballeda",
    "country": "ES",
    "lat": 42.08166,
    "lng": -6.18723
  },
  {
    "name": "Molacillos",
    "country": "ES",
    "lat": 41.58269,
    "lng": -5.66046
  },
  {
    "name": "Mojados",
    "country": "ES",
    "lat": 41.43237,
    "lng": -4.6649
  },
  {
    "name": "Mohernando",
    "country": "ES",
    "lat": 40.80129,
    "lng": -3.17234
  },
  {
    "name": "Mogarraz",
    "country": "ES",
    "lat": 40.49264,
    "lng": -6.05327
  },
  {
    "name": "Moeche",
    "country": "ES",
    "lat": 43.55,
    "lng": -8.01667
  },
  {
    "name": "Modúbar de la Emparedada",
    "country": "ES",
    "lat": 42.26118,
    "lng": -3.65965
  },
  {
    "name": "Mochales",
    "country": "ES",
    "lat": 41.09647,
    "lng": -2.0156
  },
  {
    "name": "Moaña",
    "country": "ES",
    "lat": 42.27807,
    "lng": -8.73921
  },
  {
    "name": "Moncloa-Aravaca",
    "country": "ES",
    "lat": 40.43547,
    "lng": -3.7317
  },
  {
    "name": "Montecanal",
    "country": "ES",
    "lat": 41.62965,
    "lng": -0.93873
  },
  {
    "name": "Moriles",
    "country": "ES",
    "lat": 37.4367,
    "lng": -4.60761
  },
  {
    "name": "Montbau",
    "country": "ES",
    "lat": 41.43529,
    "lng": 2.13781
  },
  {
    "name": "Moscardó",
    "country": "ES",
    "lat": 40.389,
    "lng": -3.70682
  },
  {
    "name": "Mot’a",
    "country": "ET",
    "lat": 11.08333,
    "lng": 37.86667
  },
  {
    "name": "Mojo",
    "country": "ET",
    "lat": 8.58679,
    "lng": 39.12111
  },
  {
    "name": "Mouhijärvi",
    "country": "FI",
    "lat": 61.5,
    "lng": 23.01667
  },
  {
    "name": "Monninkylä",
    "country": "FI",
    "lat": 60.49533,
    "lng": 25.53979
  },
  {
    "name": "Mokil",
    "country": "FM",
    "lat": 6.69281,
    "lng": 159.76283
  },
  {
    "name": "Moch",
    "country": "FM",
    "lat": 5.4918,
    "lng": 153.54
  },
  {
    "name": "Mozé-sur-Louet",
    "country": "FR",
    "lat": 47.35783,
    "lng": -0.55204
  },
  {
    "name": "Mozac",
    "country": "FR",
    "lat": 45.89393,
    "lng": 3.09512
  },
  {
    "name": "Moyrazès",
    "country": "FR",
    "lat": 44.34336,
    "lng": 2.4391
  },
  {
    "name": "Moyeuvre-Grande",
    "country": "FR",
    "lat": 49.25294,
    "lng": 6.04467
  },
  {
    "name": "Moyenmoutier",
    "country": "FR",
    "lat": 48.3773,
    "lng": 6.90047
  },
  {
    "name": "Moye",
    "country": "FR",
    "lat": 45.87566,
    "lng": 5.91289
  },
  {
    "name": "Moyaux",
    "country": "FR",
    "lat": 49.19511,
    "lng": 0.35603
  },
  {
    "name": "Mouzon",
    "country": "FR",
    "lat": 49.60706,
    "lng": 5.07569
  },
  {
    "name": "Mouzillon",
    "country": "FR",
    "lat": 47.14149,
    "lng": -1.28388
  },
  {
    "name": "Mouzeil",
    "country": "FR",
    "lat": 47.44835,
    "lng": -1.34819
  },
  {
    "name": "Mouy",
    "country": "FR",
    "lat": 49.31535,
    "lng": 2.31954
  },
  {
    "name": "Mouxy",
    "country": "FR",
    "lat": 45.68399,
    "lng": 5.93538
  },
  {
    "name": "Mouvaux",
    "country": "FR",
    "lat": 50.69944,
    "lng": 3.13429
  },
  {
    "name": "Moutiers",
    "country": "FR",
    "lat": 49.23302,
    "lng": 5.96553
  },
  {
    "name": "Moûtiers",
    "country": "FR",
    "lat": 45.48459,
    "lng": 6.53146
  },
  {
    "name": "Mouthiers-sur-Boëme",
    "country": "FR",
    "lat": 45.56018,
    "lng": 0.12382
  },
  {
    "name": "Moustoir-Ac",
    "country": "FR",
    "lat": 47.85487,
    "lng": -2.83514
  },
  {
    "name": "Moussy-le-Vieux",
    "country": "FR",
    "lat": 49.04712,
    "lng": 2.62493
  },
  {
    "name": "Moussy-le-Neuf",
    "country": "FR",
    "lat": 49.06427,
    "lng": 2.60252
  },
  {
    "name": "Moussan",
    "country": "FR",
    "lat": 43.23163,
    "lng": 2.94946
  },
  {
    "name": "Moussac",
    "country": "FR",
    "lat": 43.98244,
    "lng": 4.22863
  },
  {
    "name": "Mours-Saint-Eusèbe",
    "country": "FR",
    "lat": 45.06513,
    "lng": 5.05776
  },
  {
    "name": "Mours",
    "country": "FR",
    "lat": 49.13077,
    "lng": 2.26761
  },
  {
    "name": "Mouroux",
    "country": "FR",
    "lat": 48.82263,
    "lng": 3.03879
  },
  {
    "name": "Mourmelon-le-Grand",
    "country": "FR",
    "lat": 49.13256,
    "lng": 4.3642
  },
  {
    "name": "Mouriès",
    "country": "FR",
    "lat": 43.68997,
    "lng": 4.87089
  },
  {
    "name": "Mouret",
    "country": "FR",
    "lat": 43.36126,
    "lng": 5.43006
  },
  {
    "name": "Mourenx",
    "country": "FR",
    "lat": 43.3703,
    "lng": -0.62986
  },
  {
    "name": "Moult",
    "country": "FR",
    "lat": 49.11494,
    "lng": -0.16472
  },
  {
    "name": "Moulis-en-Médoc",
    "country": "FR",
    "lat": 45.0592,
    "lng": -0.7703
  },
  {
    "name": "Moulins-lès-Metz",
    "country": "FR",
    "lat": 49.10434,
    "lng": 6.10832
  },
  {
    "name": "Moulins-Engilbert",
    "country": "FR",
    "lat": 46.98821,
    "lng": 3.81084
  },
  {
    "name": "Moulins",
    "country": "FR",
    "lat": 46.56459,
    "lng": 3.33243
  },
  {
    "name": "Mouliets-et-Villemartin",
    "country": "FR",
    "lat": 44.83333,
    "lng": -0.01667
  },
  {
    "name": "Mouleydier",
    "country": "FR",
    "lat": 44.85537,
    "lng": 0.59513
  },
  {
    "name": "Moulay",
    "country": "FR",
    "lat": 48.27269,
    "lng": -0.6283
  },
  {
    "name": "Mouilleron-le-Captif",
    "country": "FR",
    "lat": 46.72034,
    "lng": -1.45937
  },
  {
    "name": "Mouilleron-en-Pareds",
    "country": "FR",
    "lat": 46.67617,
    "lng": -0.84915
  },
  {
    "name": "Mouguerre",
    "country": "FR",
    "lat": 43.46874,
    "lng": -1.41655
  },
  {
    "name": "Mougon",
    "country": "FR",
    "lat": 46.29527,
    "lng": -0.28708
  },
  {
    "name": "Mougins",
    "country": "FR",
    "lat": 43.60068,
    "lng": 6.99523
  },
  {
    "name": "Mouen",
    "country": "FR",
    "lat": 49.14696,
    "lng": -0.48366
  },
  {
    "name": "Mouchin",
    "country": "FR",
    "lat": 50.51639,
    "lng": 3.29627
  },
  {
    "name": "Mouchard",
    "country": "FR",
    "lat": 46.97259,
    "lng": 5.79626
  },
  {
    "name": "Mouchamps",
    "country": "FR",
    "lat": 46.7808,
    "lng": -1.06281
  },
  {
    "name": "Mouans-Sartoux",
    "country": "FR",
    "lat": 43.62101,
    "lng": 6.97139
  },
  {
    "name": "Morzine",
    "country": "FR",
    "lat": 46.18149,
    "lng": 6.70664
  },
  {
    "name": "Morvillars",
    "country": "FR",
    "lat": 47.54854,
    "lng": 6.9345
  },
  {
    "name": "Mortrée",
    "country": "FR",
    "lat": 48.63899,
    "lng": 0.07909
  },
  {
    "name": "Morteau",
    "country": "FR",
    "lat": 47.05784,
    "lng": 6.60716
  },
  {
    "name": "Mortcerf",
    "country": "FR",
    "lat": 48.78879,
    "lng": 2.91692
  },
  {
    "name": "Mortain",
    "country": "FR",
    "lat": 48.64782,
    "lng": -0.94055
  },
  {
    "name": "Mortagne-sur-Sèvre",
    "country": "FR",
    "lat": 46.99209,
    "lng": -0.95291
  },
  {
    "name": "Mortagne-sur-Gironde",
    "country": "FR",
    "lat": 45.48078,
    "lng": -0.78936
  },
  {
    "name": "Mortagne-du-Nord",
    "country": "FR",
    "lat": 50.50352,
    "lng": 3.45352
  },
  {
    "name": "Mortagne-au-Perche",
    "country": "FR",
    "lat": 48.52018,
    "lng": 0.54734
  },
  {
    "name": "Morschwiller-le-Bas",
    "country": "FR",
    "lat": 47.73615,
    "lng": 7.26954
  },
  {
    "name": "Morsbach",
    "country": "FR",
    "lat": 49.16806,
    "lng": 6.8719
  },
  {
    "name": "Morsang-sur-Orge",
    "country": "FR",
    "lat": 48.66181,
    "lng": 2.35338
  },
  {
    "name": "Morre",
    "country": "FR",
    "lat": 47.22595,
    "lng": 6.07512
  },
  {
    "name": "Morosaglia",
    "country": "FR",
    "lat": 42.43511,
    "lng": 9.30009
  },
  {
    "name": "Mornas",
    "country": "FR",
    "lat": 44.20242,
    "lng": 4.72763
  },
  {
    "name": "Mornant",
    "country": "FR",
    "lat": 45.61885,
    "lng": 4.67231
  },
  {
    "name": "Mornac",
    "country": "FR",
    "lat": 45.68016,
    "lng": 0.27198
  },
  {
    "name": "Mormoiron",
    "country": "FR",
    "lat": 44.0681,
    "lng": 5.18312
  },
  {
    "name": "Mormant",
    "country": "FR",
    "lat": 48.60901,
    "lng": 2.89025
  },
  {
    "name": "Morlaix",
    "country": "FR",
    "lat": 48.57784,
    "lng": -3.82792
  },
  {
    "name": "Morlaàs",
    "country": "FR",
    "lat": 43.34452,
    "lng": -0.26266
  },
  {
    "name": "Morigny-Champigny",
    "country": "FR",
    "lat": 48.44685,
    "lng": 2.18351
  },
  {
    "name": "Morières-lès-Avignon",
    "country": "FR",
    "lat": 43.9403,
    "lng": 4.9011
  },
  {
    "name": "Morienval",
    "country": "FR",
    "lat": 49.2977,
    "lng": 2.92078
  },
  {
    "name": "Morhange",
    "country": "FR",
    "lat": 48.92359,
    "lng": 6.64163
  },
  {
    "name": "Morez",
    "country": "FR",
    "lat": 46.5254,
    "lng": 6.02589
  },
  {
    "name": "Moreuil",
    "country": "FR",
    "lat": 49.77457,
    "lng": 2.48273
  },
  {
    "name": "Moret-sur-Loing",
    "country": "FR",
    "lat": 48.37239,
    "lng": 2.81713
  },
  {
    "name": "Morestel",
    "country": "FR",
    "lat": 45.679,
    "lng": 5.46479
  },
  {
    "name": "Morée",
    "country": "FR",
    "lat": 47.90397,
    "lng": 1.23421
  },
  {
    "name": "Moréac",
    "country": "FR",
    "lat": 47.91931,
    "lng": -2.82159
  },
  {
    "name": "Mordelles",
    "country": "FR",
    "lat": 48.07509,
    "lng": -1.84591
  },
  {
    "name": "Morcenx",
    "country": "FR",
    "lat": 44.03456,
    "lng": -0.91591
  },
  {
    "name": "Morbier",
    "country": "FR",
    "lat": 46.53693,
    "lng": 6.01532
  },
  {
    "name": "Morbecque",
    "country": "FR",
    "lat": 50.69365,
    "lng": 2.51787
  },
  {
    "name": "Morannes",
    "country": "FR",
    "lat": 47.74464,
    "lng": -0.41702
  },
  {
    "name": "Morangis",
    "country": "FR",
    "lat": 48.70383,
    "lng": 2.33908
  },
  {
    "name": "Morancez",
    "country": "FR",
    "lat": 48.40051,
    "lng": 1.49388
  },
  {
    "name": "Morancé",
    "country": "FR",
    "lat": 45.89815,
    "lng": 4.70051
  },
  {
    "name": "Morainvilliers",
    "country": "FR",
    "lat": 48.92902,
    "lng": 1.93621
  },
  {
    "name": "Moosch",
    "country": "FR",
    "lat": 47.86035,
    "lng": 7.0487
  },
  {
    "name": "Montussan",
    "country": "FR",
    "lat": 44.88213,
    "lng": -0.4281
  },
  {
    "name": "Montsûrs",
    "country": "FR",
    "lat": 48.13475,
    "lng": -0.55381
  },
  {
    "name": "Mont-sous-Vaudrey",
    "country": "FR",
    "lat": 46.97874,
    "lng": 5.60295
  },
  {
    "name": "Montsoult",
    "country": "FR",
    "lat": 49.06942,
    "lng": 2.31966
  },
  {
    "name": "Montségur-sur-Lauzon",
    "country": "FR",
    "lat": 44.36098,
    "lng": 4.85468
  },
  {
    "name": "Mont-Saxonnex",
    "country": "FR",
    "lat": 46.0508,
    "lng": 6.47429
  },
  {
    "name": "Mont-Saint-Martin",
    "country": "FR",
    "lat": 49.54363,
    "lng": 5.78337
  },
  {
    "name": "Mont-Saint-Éloi",
    "country": "FR",
    "lat": 50.35105,
    "lng": 2.69249
  },
  {
    "name": "Mont-Saint-Aignan",
    "country": "FR",
    "lat": 49.46307,
    "lng": 1.09364
  },
  {
    "name": "Monts",
    "country": "FR",
    "lat": 47.27723,
    "lng": 0.62473
  },
  {
    "name": "Montry",
    "country": "FR",
    "lat": 48.88409,
    "lng": 2.82915
  },
  {
    "name": "Montrouge",
    "country": "FR",
    "lat": 48.8162,
    "lng": 2.31393
  },
  {
    "name": "Montrottier",
    "country": "FR",
    "lat": 45.7901,
    "lng": 4.4666
  },
  {
    "name": "Montrond-les-Bains",
    "country": "FR",
    "lat": 45.64374,
    "lng": 4.23752
  },
  {
    "name": "Montrodat",
    "country": "FR",
    "lat": 44.55131,
    "lng": 3.3291
  },
  {
    "name": "Montricoux",
    "country": "FR",
    "lat": 44.07574,
    "lng": 1.61957
  },
  {
    "name": "Montrichard",
    "country": "FR",
    "lat": 47.3431,
    "lng": 1.18653
  },
  {
    "name": "Montrevel-en-Bresse",
    "country": "FR",
    "lat": 46.33527,
    "lng": 5.12269
  },
  {
    "name": "Montrevault",
    "country": "FR",
    "lat": 47.26145,
    "lng": -1.04579
  },
  {
    "name": "Montreux-Château",
    "country": "FR",
    "lat": 47.61003,
    "lng": 6.99923
  },
  {
    "name": "Montreuil",
    "country": "FR",
    "lat": 50.46374,
    "lng": 1.76348
  },
  {
    "name": "Montreuil-sur-Ille",
    "country": "FR",
    "lat": 48.30758,
    "lng": -1.66905
  },
  {
    "name": "Montreuil-sous-Pérouse",
    "country": "FR",
    "lat": 48.15159,
    "lng": -1.23743
  },
  {
    "name": "Montreuil-le-Gast",
    "country": "FR",
    "lat": 48.24685,
    "lng": -1.72682
  },
  {
    "name": "Montreuil-Bellay",
    "country": "FR",
    "lat": 47.1312,
    "lng": -0.15365
  },
  {
    "name": "Montreuil-aux-Lions",
    "country": "FR",
    "lat": 49.02124,
    "lng": 3.19543
  },
  {
    "name": "Montreuil",
    "country": "FR",
    "lat": 48.86415,
    "lng": 2.44322
  },
  {
    "name": "Montrem",
    "country": "FR",
    "lat": 45.13439,
    "lng": 0.59032
  },
  {
    "name": "Montréjeau",
    "country": "FR",
    "lat": 43.08579,
    "lng": 0.56839
  },
  {
    "name": "Montredon-Labessonnié",
    "country": "FR",
    "lat": 43.72004,
    "lng": 2.32605
  },
  {
    "name": "Montredon",
    "country": "FR",
    "lat": 43.24016,
    "lng": 5.36629
  },
  {
    "name": "Montréal-la-Cluse",
    "country": "FR",
    "lat": 46.18333,
    "lng": 5.58333
  },
  {
    "name": "Montréal",
    "country": "FR",
    "lat": 43.9502,
    "lng": 0.20217
  },
  {
    "name": "Montréal",
    "country": "FR",
    "lat": 43.1998,
    "lng": 2.14122
  },
  {
    "name": "Montrabé",
    "country": "FR",
    "lat": 43.64477,
    "lng": 1.52384
  },
  {
    "name": "Mont-près-Chambord",
    "country": "FR",
    "lat": 47.56235,
    "lng": 1.45712
  },
  {
    "name": "Montpont-en-Bresse",
    "country": "FR",
    "lat": 46.5563,
    "lng": 5.16459
  },
  {
    "name": "Montpon-Ménestérol",
    "country": "FR",
    "lat": 45.00961,
    "lng": 0.15921
  },
  {
    "name": "Montpezat-de-Quercy",
    "country": "FR",
    "lat": 44.23876,
    "lng": 1.47682
  },
  {
    "name": "Montpeyroux",
    "country": "FR",
    "lat": 43.69565,
    "lng": 3.50532
  },
  {
    "name": "Montpellier",
    "country": "FR",
    "lat": 43.61093,
    "lng": 3.87635
  },
  {
    "name": "Montournais",
    "country": "FR",
    "lat": 46.7427,
    "lng": -0.76563
  },
  {
    "name": "Montoison",
    "country": "FR",
    "lat": 44.79608,
    "lng": 4.94118
  },
  {
    "name": "Montois-la-Montagne",
    "country": "FR",
    "lat": 49.2168,
    "lng": 6.02137
  },
  {
    "name": "Montoire-sur-le-Loir",
    "country": "FR",
    "lat": 47.75316,
    "lng": 0.86525
  },
  {
    "name": "Montoir-de-Bretagne",
    "country": "FR",
    "lat": 47.32824,
    "lng": -2.14877
  },
  {
    "name": "Montmorot",
    "country": "FR",
    "lat": 46.67541,
    "lng": 5.52283
  },
  {
    "name": "Montmorillon",
    "country": "FR",
    "lat": 46.42645,
    "lng": 0.86963
  },
  {
    "name": "Montmorency",
    "country": "FR",
    "lat": 48.98826,
    "lng": 2.3434
  },
  {
    "name": "Montmoreau-Saint-Cybard",
    "country": "FR",
    "lat": 45.4,
    "lng": 0.13333
  },
  {
    "name": "Montmirail",
    "country": "FR",
    "lat": 48.87214,
    "lng": 3.53797
  },
  {
    "name": "Montmeyran",
    "country": "FR",
    "lat": 44.83389,
    "lng": 4.97181
  },
  {
    "name": "Montmerle-sur-Saône",
    "country": "FR",
    "lat": 46.08333,
    "lng": 4.76667
  },
  {
    "name": "Montmélian",
    "country": "FR",
    "lat": 45.50509,
    "lng": 6.05634
  },
  {
    "name": "Montmédy",
    "country": "FR",
    "lat": 49.52096,
    "lng": 5.36835
  },
  {
    "name": "Montmartin-sur-Mer",
    "country": "FR",
    "lat": 48.98861,
    "lng": -1.5253
  },
  {
    "name": "Montmarault",
    "country": "FR",
    "lat": 46.31738,
    "lng": 2.95472
  },
  {
    "name": "Montmain",
    "country": "FR",
    "lat": 49.40996,
    "lng": 1.23742
  },
  {
    "name": "Montmagny",
    "country": "FR",
    "lat": 48.97338,
    "lng": 2.34688
  },
  {
    "name": "Montmacq",
    "country": "FR",
    "lat": 49.48181,
    "lng": 2.90257
  },
  {
    "name": "Montluel",
    "country": "FR",
    "lat": 45.8519,
    "lng": 5.0578
  },
  {
    "name": "Montluçon",
    "country": "FR",
    "lat": 46.34015,
    "lng": 2.60254
  },
  {
    "name": "Montlouis-sur-Loire",
    "country": "FR",
    "lat": 47.38845,
    "lng": 0.83208
  },
  {
    "name": "Montlivault",
    "country": "FR",
    "lat": 47.63987,
    "lng": 1.44487
  },
  {
    "name": "Montlignon",
    "country": "FR",
    "lat": 49.00636,
    "lng": 2.28705
  },
  {
    "name": "Montlieu-la-Garde",
    "country": "FR",
    "lat": 45.25,
    "lng": -0.25
  },
  {
    "name": "Montlhéry",
    "country": "FR",
    "lat": 48.64004,
    "lng": 2.27465
  },
  {
    "name": "Montlebon",
    "country": "FR",
    "lat": 47.03778,
    "lng": 6.61111
  },
  {
    "name": "Montlaur",
    "country": "FR",
    "lat": 43.48935,
    "lng": 1.56807
  },
  {
    "name": "Montjoire",
    "country": "FR",
    "lat": 43.76899,
    "lng": 1.53362
  },
  {
    "name": "Montjoie-en-Couserans",
    "country": "FR",
    "lat": 43.0025,
    "lng": 1.16
  },
  {
    "name": "Montjean-sur-Loire",
    "country": "FR",
    "lat": 47.38842,
    "lng": -0.85873
  },
  {
    "name": "Montivilliers",
    "country": "FR",
    "lat": 49.54518,
    "lng": 0.18769
  },
  {
    "name": "Montigny-sur-Loing",
    "country": "FR",
    "lat": 48.33575,
    "lng": 2.74423
  },
  {
    "name": "Montigny-lès-Metz",
    "country": "FR",
    "lat": 49.0956,
    "lng": 6.15271
  },
  {
    "name": "Montigny-lès-Cormeilles",
    "country": "FR",
    "lat": 48.98201,
    "lng": 2.20035
  },
  {
    "name": "Montigny-Lencoup",
    "country": "FR",
    "lat": 48.45162,
    "lng": 3.06503
  },
  {
    "name": "Montigny-le-Bretonneux",
    "country": "FR",
    "lat": 48.76636,
    "lng": 2.03405
  },
  {
    "name": "Montigny-en-Ostrevent",
    "country": "FR",
    "lat": 50.36667,
    "lng": 3.18333
  },
  {
    "name": "Montigny-en-Gohelle",
    "country": "FR",
    "lat": 50.4254,
    "lng": 2.93902
  },
  {
    "name": "Montigny",
    "country": "FR",
    "lat": 49.4596,
    "lng": 1.00168
  },
  {
    "name": "Montigné-le-Brillant",
    "country": "FR",
    "lat": 48.0089,
    "lng": -0.81531
  },
  {
    "name": "Montignac",
    "country": "FR",
    "lat": 45.06598,
    "lng": 1.16081
  },
  {
    "name": "Montier-en-Der",
    "country": "FR",
    "lat": 48.47823,
    "lng": 4.77073
  },
  {
    "name": "Montierchaume",
    "country": "FR",
    "lat": 46.86362,
    "lng": 1.77181
  },
  {
    "name": "Monticello",
    "country": "FR",
    "lat": 42.61705,
    "lng": 8.95477
  },
  {
    "name": "Monthyon",
    "country": "FR",
    "lat": 49.00753,
    "lng": 2.8261
  },
  {
    "name": "Monthermé",
    "country": "FR",
    "lat": 49.88465,
    "lng": 4.73013
  },
  {
    "name": "Montguyon",
    "country": "FR",
    "lat": 45.21668,
    "lng": -0.18715
  },
  {
    "name": "Montgivray",
    "country": "FR",
    "lat": 46.60324,
    "lng": 1.98162
  },
  {
    "name": "Montgiscard",
    "country": "FR",
    "lat": 43.45801,
    "lng": 1.57295
  },
  {
    "name": "Montgeron",
    "country": "FR",
    "lat": 48.70543,
    "lng": 2.45039
  },
  {
    "name": "Montgermont",
    "country": "FR",
    "lat": 48.15566,
    "lng": -1.71662
  },
  {
    "name": "Montgaillard",
    "country": "FR",
    "lat": 42.93539,
    "lng": 1.63351
  },
  {
    "name": "Montfrin",
    "country": "FR",
    "lat": 43.87624,
    "lng": 4.59266
  },
  {
    "name": "Montfort-sur-Meu",
    "country": "FR",
    "lat": 48.13762,
    "lng": -1.95585
  },
  {
    "name": "Montfort-le-Gesnois",
    "country": "FR",
    "lat": 48.04798,
    "lng": 0.40339
  },
  {
    "name": "Montfort-en-Chalosse",
    "country": "FR",
    "lat": 43.71095,
    "lng": -0.83952
  },
  {
    "name": "Montferrier-sur-Lez",
    "country": "FR",
    "lat": 43.66806,
    "lng": 3.85686
  },
  {
    "name": "Montferrat",
    "country": "FR",
    "lat": 45.48481,
    "lng": 5.5902
  },
  {
    "name": "Montferrat",
    "country": "FR",
    "lat": 43.61196,
    "lng": 6.48093
  },
  {
    "name": "Montferrand-le-Château",
    "country": "FR",
    "lat": 47.17536,
    "lng": 5.91534
  },
  {
    "name": "Montfermeil",
    "country": "FR",
    "lat": 48.8982,
    "lng": 2.57913
  },
  {
    "name": "Montfavet",
    "country": "FR",
    "lat": 43.93335,
    "lng": 4.87342
  },
  {
    "name": "Montfaucon",
    "country": "FR",
    "lat": 47.23562,
    "lng": 6.08162
  },
  {
    "name": "Montfaucon-Montigné",
    "country": "FR",
    "lat": 47.1,
    "lng": -1.11667
  },
  {
    "name": "Montfaucon-en-Velay",
    "country": "FR",
    "lat": 45.18561,
    "lng": 4.31376
  },
  {
    "name": "Montfaucon",
    "country": "FR",
    "lat": 44.0742,
    "lng": 4.75403
  },
  {
    "name": "Montévrain",
    "country": "FR",
    "lat": 48.87415,
    "lng": 2.75114
  },
  {
    "name": "Monteux",
    "country": "FR",
    "lat": 44.03618,
    "lng": 4.9963
  },
  {
    "name": "Montesson",
    "country": "FR",
    "lat": 48.90924,
    "lng": 2.13754
  },
  {
    "name": "Montesquieu-Volvestre",
    "country": "FR",
    "lat": 43.20814,
    "lng": 1.23008
  },
  {
    "name": "Montesquiu d'Albera",
    "country": "FR",
    "lat": 42.51798,
    "lng": 2.88243
  },
  {
    "name": "Montescourt-Lizerolles",
    "country": "FR",
    "lat": 49.73828,
    "lng": 3.25736
  },
  {
    "name": "Montescot",
    "country": "FR",
    "lat": 42.60825,
    "lng": 2.93218
  },
  {
    "name": "Monterfil",
    "country": "FR",
    "lat": 48.0669,
    "lng": -1.97812
  },
  {
    "name": "Montereau-Fault-Yonne",
    "country": "FR",
    "lat": 48.38333,
    "lng": 2.95
  },
  {
    "name": "Monterblanc",
    "country": "FR",
    "lat": 47.74256,
    "lng": -2.68128
  },
  {
    "name": "Montenois",
    "country": "FR",
    "lat": 47.49222,
    "lng": 6.66561
  },