[
  {
    "name": "Mrgavan",
    "country": "AM",
    "lat": 39.97251,
    "lng": 44.53565
  },
  {
    "name": "Mrgastan",
    "country": "AM",
    "lat": 40.20007,
    "lng": 44.27789
  },
  {
    "name": "Mrgashen",
    "country": "AM",
    "lat": 40.28607,
    "lng": 44.54449
  },
  {
    "name": "Mrgashat",
    "country": "AM",
    "lat": 40.13068,
    "lng": 44.08069
  },
  {
    "name": "Mrganush",
    "country": "AM",
    "lat": 40.02642,
    "lng": 44.55953
  },
  {
    "name": "Mrgavet",
    "country": "AM",
    "lat": 40.02789,
    "lng": 44.48328
  },
  {
    "name": "Mrkonjić Grad",
    "country": "BA",
    "lat": 44.41729,
    "lng": 17.08288
  },
  {
    "name": "Mramor",
    "country": "BA",
    "lat": 44.59234,
    "lng": 18.56458
  },
  {
    "name": "Mrákov",
    "country": "CZ",
    "lat": 49.40314,
    "lng": 12.9512
  },
  {
    "name": "Mrkopalj",
    "country": "HR",
    "lat": 45.31556,
    "lng": 14.85528
  },
  {
    "name": "Mravince",
    "country": "HR",
    "lat": 43.53333,
    "lng": 16.52194
  },
  {
    "name": "Mraclin",
    "country": "HR",
    "lat": 45.66667,
    "lng": 16.09556
  },
  {
    "name": "Mrežničke Poljice",
    "country": "HR",
    "lat": 45.42756,
    "lng": 15.48858
  },
  {
    "name": "Mranggen",
    "country": "ID",
    "lat": -7.0268,
    "lng": 110.5158
  },
  {
    "name": "Mrémani",
    "country": "KM",
    "lat": -12.30833,
    "lng": 44.49861
  },
  {
    "name": "Mramani",
    "country": "KM",
    "lat": -12.34639,
    "lng": 44.52861
  },
  {
    "name": "Mrirt",
    "country": "MA",
    "lat": 33.16427,
    "lng": -5.56722
  },
  {
    "name": "Mrauk U",
    "country": "MM",
    "lat": 20.59,
    "lng": 93.19062
  },
  {
    "name": "Mrozy",
    "country": "PL",
    "lat": 52.16609,
    "lng": 21.80263
  },
  {
    "name": "Mrozy",
    "country": "PL",
    "lat": 52.01975,
    "lng": 20.36702
  },
  {
    "name": "Mrągowo",
    "country": "PL",
    "lat": 53.86437,
    "lng": 21.30507
  },
  {
    "name": "Mrzeżyno",
    "country": "PL",
    "lat": 54.14384,
    "lng": 15.29142
  },
  {
    "name": "Mrzezino",
    "country": "PL",
    "lat": 54.65378,
    "lng": 18.43025
  },
  {
    "name": "Mrozów",
    "country": "PL",
    "lat": 51.18817,
    "lng": 16.78831
  },
  {
    "name": "Mrocza",
    "country": "PL",
    "lat": 53.24313,
    "lng": 17.60405
  },
  {
    "name": "Mrakovo",
    "country": "RU",
    "lat": 52.71568,
    "lng": 56.62125
  },
  {
    "name": "Mramadoudou",
    "country": "YT",
    "lat": -12.92846,
    "lng": 45.15324
  }
]