[
  {
    "name": "Otllak",
    "country": "AL",
    "lat": 40.74389,
    "lng": 19.93528
  },
  {
    "name": "Otterthal",
    "country": "AT",
    "lat": 47.61667,
    "lng": 15.93333
  },
  {
    "name": "Ottenthal",
    "country": "AT",
    "lat": 48.761,
    "lng": 16.57914
  },
  {
    "name": "Ottensheim",
    "country": "AT",
    "lat": 48.33246,
    "lng": 14.17425
  },
  {
    "name": "Ottenschlag im Mühlkreis",
    "country": "AT",
    "lat": 48.46632,
    "lng": 14.38471
  },
  {
    "name": "Ottenschlag",
    "country": "AT",
    "lat": 48.42393,
    "lng": 15.21924
  },
  {
    "name": "Ottakring",
    "country": "AT",
    "lat": 48.21667,
    "lng": 16.3
  },
  {
    "name": "Ottnang am Hausruck",
    "country": "AT",
    "lat": 48.09568,
    "lng": 13.65841
  },
  {
    "name": "Ottoway",
    "country": "AU",
    "lat": -34.84756,
    "lng": 138.53575
  },
  {
    "name": "Otoka",
    "country": "BA",
    "lat": 44.96,
    "lng": 16.17917
  },
  {
    "name": "Ottignies",
    "country": "BE",
    "lat": 50.66535,
    "lng": 4.56679
  },
  {
    "name": "Ottenburg",
    "country": "BE",
    "lat": 50.75161,
    "lng": 4.6164
  },
  {
    "name": "Othée",
    "country": "BE",
    "lat": 50.71592,
    "lng": 5.46724
  },
  {
    "name": "Otegem",
    "country": "BE",
    "lat": 50.80693,
    "lng": 3.42043
  },
  {
    "name": "Otacílio Costa",
    "country": "BR",
    "lat": -27.48306,
    "lng": -50.12194
  },
  {
    "name": "Otse",
    "country": "BW",
    "lat": -25.01667,
    "lng": 25.73333
  },
  {
    "name": "Ottawa",
    "country": "CA",
    "lat": 45.41117,
    "lng": -75.69812
  },
  {
    "name": "Otterburn Park",
    "country": "CA",
    "lat": 45.53338,
    "lng": -73.21585
  },
  {
    "name": "Ottenbach",
    "country": "CH",
    "lat": 47.28228,
    "lng": 8.40432
  },
  {
    "name": "Othmarsingen",
    "country": "CH",
    "lat": 47.40125,
    "lng": 8.21383
  },
  {
    "name": "Otelfingen",
    "country": "CH",
    "lat": 47.46053,
    "lng": 8.39141
  },
  {
    "name": "Otéoa I",
    "country": "CI",
    "lat": 6.25681,
    "lng": -6.36127
  },
  {
    "name": "Ottawa",
    "country": "CI",
    "lat": 5.71842,
    "lng": -6.27466
  },
  {
    "name": "Ottopé",
    "country": "CI",
    "lat": 5.69789,
    "lng": -4.31711
  },
  {
    "name": "Otanche",
    "country": "CO",
    "lat": 5.65672,
    "lng": -74.18249
  },
  {
    "name": "Otrabanda",
    "country": "CW",
    "lat": 12.1089,
    "lng": -68.93826
  },
  {
    "name": "Otrokovice",
    "country": "CZ",
    "lat": 49.20934,
    "lng": 17.53944
  },
  {
    "name": "Otnice",
    "country": "CZ",
    "lat": 49.08642,
    "lng": 16.81443
  },
  {
    "name": "Otice",
    "country": "CZ",
    "lat": 49.91684,
    "lng": 17.86982
  },
  {
    "name": "Otaslavice",
    "country": "CZ",
    "lat": 49.38833,
    "lng": 17.07108
  },
  {
    "name": "Otzing",
    "country": "DE",
    "lat": 48.76134,
    "lng": 12.80877
  },
  {
    "name": "Ottweiler",
    "country": "DE",
    "lat": 49.40133,
    "lng": 7.16424
  },
  {
    "name": "Ottrau",
    "country": "DE",
    "lat": 50.80599,
    "lng": 9.38575
  },
  {
    "name": "Ottobrunn bei München",
    "country": "DE",
    "lat": 48.06489,
    "lng": 11.66327
  },
  {
    "name": "Ottobeuren",
    "country": "DE",
    "lat": 47.9413,
    "lng": 10.29971
  },
  {
    "name": "Otterwisch",
    "country": "DE",
    "lat": 51.2,
    "lng": 12.61667
  },
  {
    "name": "Ottersweier",
    "country": "DE",
    "lat": 48.67022,
    "lng": 8.11323
  },
  {
    "name": "Otterstadt",
    "country": "DE",
    "lat": 49.37222,
    "lng": 8.44778
  },
  {
    "name": "Ottersheim",
    "country": "DE",
    "lat": 49.19129,
    "lng": 8.23176
  },
  {
    "name": "Ottersberg",
    "country": "DE",
    "lat": 53.1099,
    "lng": 9.14408
  },
  {
    "name": "Otterndorf",
    "country": "DE",
    "lat": 53.81158,
    "lng": 8.90206
  },
  {
    "name": "Otterfing",
    "country": "DE",
    "lat": 47.90898,
    "lng": 11.67546
  },
  {
    "name": "Otterberg",
    "country": "DE",
    "lat": 49.50301,
    "lng": 7.76995
  },
  {
    "name": "Otterbach",
    "country": "DE",
    "lat": 49.48554,
    "lng": 7.7345
  },
  {
    "name": "Otter",
    "country": "DE",
    "lat": 53.24015,
    "lng": 9.74247
  },
  {
    "name": "Ottenstein",
    "country": "DE",
    "lat": 51.94707,
    "lng": 9.407
  },
  {
    "name": "Ottensoos",
    "country": "DE",
    "lat": 49.50949,
    "lng": 11.34158
  },
  {
    "name": "Ottensen",
    "country": "DE",
    "lat": 53.55213,
    "lng": 9.92421
  },
  {
    "name": "Ottenhofen",
    "country": "DE",
    "lat": 48.21667,
    "lng": 11.88333
  },
  {
    "name": "Ottenhofen",
    "country": "DE",
    "lat": 48.7356,
    "lng": 8.12981
  },
  {
    "name": "Ottendorf-Okrilla",
    "country": "DE",
    "lat": 51.18333,
    "lng": 13.83333
  },
  {
    "name": "Ottenbach",
    "country": "DE",
    "lat": 48.73649,
    "lng": 9.74844
  },
  {
    "name": "Othmarschen",
    "country": "DE",
    "lat": 53.55173,
    "lng": 9.88632
  },
  {
    "name": "Otterup",
    "country": "DK",
    "lat": 55.51527,
    "lng": 10.39756
  },
  {
    "name": "Otra Banda",
    "country": "DO",
    "lat": 18.65017,
    "lng": -68.66281
  },
  {
    "name": "Otavalo",
    "country": "EC",
    "lat": 0.23457,
    "lng": -78.26248
  },
  {
    "name": "Otepää",
    "country": "EE",
    "lat": 58.05833,
    "lng": 26.49667
  },
  {
    "name": "Otura",
    "country": "ES",
    "lat": 37.08846,
    "lng": -3.63321
  },
  {
    "name": "Otos",
    "country": "ES",
    "lat": 38.85427,
    "lng": -0.44399
  },
  {
    "name": "Otívar",
    "country": "ES",
    "lat": 36.81582,
    "lng": -3.67979
  },
  {
    "name": "Otero",
    "country": "ES",
    "lat": 40.00096,
    "lng": -4.51539
  },
  {
    "name": "Otero de Herreros",
    "country": "ES",
    "lat": 40.82016,
    "lng": -4.2099
  },
  {
    "name": "Otero de Bodas",
    "country": "ES",
    "lat": 41.93868,
    "lng": -6.15024
  },
  {
    "name": "Oteiza",
    "country": "ES",
    "lat": 42.61905,
    "lng": -1.95385
  },
  {
    "name": "Otxandio",
    "country": "ES",
    "lat": 43.03333,
    "lng": -2.65
  },
  {
    "name": "Otaniemi",
    "country": "FI",
    "lat": 60.18395,
    "lng": 24.82786
  },
  {
    "name": "Ottrott",
    "country": "FR",
    "lat": 48.45642,
    "lng": 7.42556
  },
  {
    "name": "Ottmarsheim",
    "country": "FR",
    "lat": 47.78802,
    "lng": 7.50777
  },
  {
    "name": "Otterswiller",
    "country": "FR",
    "lat": 48.72568,
    "lng": 7.37878
  },
  {
    "name": "Ottange",
    "country": "FR",
    "lat": 49.44307,
    "lng": 6.01988
  },
  {
    "name": "Othis",
    "country": "FR",
    "lat": 49.07387,
    "lng": 2.67502
  },
  {
    "name": "Ottringham",
    "country": "GB",
    "lat": 53.70092,
    "lng": -0.07909
  },
  {
    "name": "Ottery St Mary",
    "country": "GB",
    "lat": 50.75,
    "lng": -3.26667
  },
  {
    "name": "Ottershaw",
    "country": "GB",
    "lat": 51.36262,
    "lng": -0.52752
  },
  {
    "name": "Otterburn",
    "country": "GB",
    "lat": 55.2334,
    "lng": -2.18059
  },
  {
    "name": "Otley",
    "country": "GB",
    "lat": 53.90553,
    "lng": -1.69383
  },
  {
    "name": "Otford",
    "country": "GB",
    "lat": 51.31283,
    "lng": 0.19046
  },
  {
    "name": "Otok",
    "country": "HR",
    "lat": 45.14667,
    "lng": 18.88389
  },
  {
    "name": "Otok",
    "country": "HR",
    "lat": 43.68643,
    "lng": 16.73329
  },
  {
    "name": "Otočac",
    "country": "HR",
    "lat": 44.86944,
    "lng": 15.2375
  },
  {
    "name": "Otrić-Seoci",
    "country": "HR",
    "lat": 43.15861,
    "lng": 17.45083
  },
  {
    "name": "Ottapalam",
    "country": "IN",
    "lat": 10.7735,
    "lng": 76.37758
  },
  {
    "name": "Ottaikkālmantapam",
    "country": "IN",
    "lat": 10.88268,
    "lng": 76.99426
  },
  {
    "name": "Ottappārai",
    "country": "IN",
    "lat": 11.1783,
    "lng": 77.58119
  },
  {
    "name": "Ottakkadai",
    "country": "IN",
    "lat": 9.95795,
    "lng": 78.18863
  },
  {
    "name": "Ottappatti",
    "country": "IN",
    "lat": 9.89602,
    "lng": 78.0896
  },
  {
    "name": "Othukkungal",
    "country": "IN",
    "lat": 11.0283,
    "lng": 76.02903
  },
  {
    "name": "Ottone",
    "country": "IT",
    "lat": 44.62325,
    "lng": 9.33267
  },
  {
    "name": "Ottobiano",
    "country": "IT",
    "lat": 45.15418,
    "lng": 8.83198
  },
  {
    "name": "Ottiglio",
    "country": "IT",
    "lat": 45.05426,
    "lng": 8.3398
  },
  {
    "name": "Ottaviano",
    "country": "IT",
    "lat": 40.85193,
    "lng": 14.47826
  },
  {
    "name": "Ottati",
    "country": "IT",
    "lat": 40.46291,
    "lng": 15.31526
  },
  {
    "name": "Ottana",
    "country": "IT",
    "lat": 40.23402,
    "lng": 9.04459
  },
  {
    "name": "Otricoli",
    "country": "IT",
    "lat": 42.42079,
    "lng": 12.47737
  },
  {
    "name": "Otranto",
    "country": "IT",
    "lat": 40.14789,
    "lng": 18.48682
  },
  {
    "name": "Ottava",
    "country": "IT",
    "lat": 40.78525,
    "lng": 8.47543
  },
  {
    "name": "Otomo",
    "country": "JP",
    "lat": 36.08491,
    "lng": 138.77431
  },
  {
    "name": "Otofuke",
    "country": "JP",
    "lat": 42.99167,
    "lng": 143.20028
  },
  {
    "name": "Otobe",
    "country": "JP",
    "lat": 41.96778,
    "lng": 140.13806
  },
  {
    "name": "Otaru",
    "country": "JP",
    "lat": 43.18944,
    "lng": 141.00222
  },
  {
    "name": "Othaya",
    "country": "KE",
    "lat": -0.54655,
    "lng": 36.93178
  },
  {
    "name": "Otdam Souriya",
    "country": "KH",
    "lat": 11.06365,
    "lng": 104.70636
  },
  {
    "name": "Otegen Batyra",
    "country": "KZ",
    "lat": 43.41845,
    "lng": 77.02187
  },
  {
    "name": "Otaci",
    "country": "MD",
    "lat": 48.43285,
    "lng": 27.79912
  },
  {
    "name": "Otlja",
    "country": "MK",
    "lat": 42.14315,
    "lng": 21.58675
  },
  {
    "name": "Otatitlán",
    "country": "MX",
    "lat": 20.63509,
    "lng": -98.13965
  },
  {
    "name": "Otumba",
    "country": "MX",
    "lat": 19.69985,
    "lng": -98.75638
  },
  {
    "name": "Oteapan",
    "country": "MX",
    "lat": 18.00173,
    "lng": -94.66615
  },
  {
    "name": "Otatitlán",
    "country": "MX",
    "lat": 18.17706,
    "lng": -96.0335
  },
  {
    "name": "Otates",
    "country": "MX",
    "lat": 19.521,
    "lng": -96.71576
  },
  {
    "name": "Otaéz",
    "country": "MX",
    "lat": 24.70034,
    "lng": -105.9957
  },
  {
    "name": "Otatlán",
    "country": "MX",
    "lat": 20.44094,
    "lng": -102.80397
  },
  {
    "name": "Otates",
    "country": "MX",
    "lat": 20.40064,
    "lng": -101.48169
  },
  {
    "name": "Otzoloapan",
    "country": "MX",
    "lat": 19.11728,
    "lng": -100.29684
  },
  {
    "name": "Otilpan",
    "country": "MX",
    "lat": 19.55722,
    "lng": -96.97667
  },
  {
    "name": "Otjiwarongo",
    "country": "NA",
    "lat": -20.46369,
    "lng": 16.64772
  },
  {
    "name": "Otjinene",
    "country": "NA",
    "lat": -21.13889,
    "lng": 18.7836
  },
  {
    "name": "Otjimbingwe",
    "country": "NA",
    "lat": -22.35536,
    "lng": 16.12883
  },
  {
    "name": "Otavi",
    "country": "NA",
    "lat": -19.63805,
    "lng": 17.33986
  },
  {
    "name": "Otuocha",
    "country": "NG",
    "lat": 6.33908,
    "lng": 6.84636
  },
  {
    "name": "Otun-Ekiti",
    "country": "NG",
    "lat": 7.98858,
    "lng": 5.12291
  },
  {
    "name": "Otukpa",
    "country": "NG",
    "lat": 7.10168,
    "lng": 7.65945
  },
  {
    "name": "Otu-Jeremi",
    "country": "NG",
    "lat": 5.43818,
    "lng": 5.87829
  },
  {
    "name": "Otor-Udu",
    "country": "NG",
    "lat": 5.45341,
    "lng": 5.8693
  },
  {
    "name": "Otu",
    "country": "NG",
    "lat": 8.20639,
    "lng": 3.40786
  },
  {
    "name": "Ota",
    "country": "NG",
    "lat": 6.68867,
    "lng": 3.23202
  },
  {
    "name": "Otan Ayegbaju",
    "country": "NG",
    "lat": 7.94783,
    "lng": 4.78836
  },
  {
    "name": "Ottersum",
    "country": "NL",
    "lat": 51.70333,
    "lng": 5.98333
  },
  {
    "name": "Otterlo",
    "country": "NL",
    "lat": 52.1,
    "lng": 5.77222
  },
  {
    "name": "Othene",
    "country": "NL",
    "lat": 51.33083,
    "lng": 3.85972
  },
  {
    "name": "Otta",
    "country": "NO",
    "lat": 61.7712,
    "lng": 9.53529
  },
  {
    "name": "Otumoetai",
    "country": "NZ",
    "lat": -37.67156,
    "lng": 176.13865
  },
  {
    "name": "Otorohanga",
    "country": "NZ",
    "lat": -38.18333,
    "lng": 175.2
  },
  {
    "name": "Otatara",
    "country": "NZ",
    "lat": -46.43333,
    "lng": 168.3
  },
  {
    "name": "Otaki Beach",
    "country": "NZ",
    "lat": -40.75,
    "lng": 175.11667
  },
  {
    "name": "Otaki",
    "country": "NZ",
    "lat": -40.75833,
    "lng": 175.15
  },
  {
    "name": "Otangarei",
    "country": "NZ",
    "lat": -35.68818,
    "lng": 174.31018
  },
  {
    "name": "Otahuhu",
    "country": "NZ",
    "lat": -36.9382,
    "lng": 174.84019
  },
  {
    "name": "Otara",
    "country": "NZ",
    "lat": -36.9482,
    "lng": 174.87019
  },
  {
    "name": "Oteha Valley",
    "country": "NZ",
    "lat": -36.7201,
    "lng": 174.71824
  },
  {
    "name": "Otuzco",
    "country": "PE",
    "lat": -7.9,
    "lng": -78.58333
  },
  {
    "name": "Otoca",
    "country": "PE",
    "lat": -14.49016,
    "lng": -74.6864
  },
  {
    "name": "Otutara",
    "country": "PF",
    "lat": -17.77207,
    "lng": -149.41341
  },
  {
    "name": "Oton",
    "country": "PH",
    "lat": 10.69306,
    "lng": 122.47361
  },
  {
    "name": "Otwock",
    "country": "PL",
    "lat": 52.10577,
    "lng": 21.26129
  },
  {
    "name": "Otrębusy",
    "country": "PL",
    "lat": 52.12843,
    "lng": 20.76073
  },
  {
    "name": "Otyń",
    "country": "PL",
    "lat": 51.84766,
    "lng": 15.71105
  },
  {
    "name": "Otmuchów",
    "country": "PL",
    "lat": 50.46627,
    "lng": 17.17348
  },
  {
    "name": "Otniel",
    "country": "PS",
    "lat": 31.43932,
    "lng": 35.02859
  },
  {
    "name": "Ota",
    "country": "PT",
    "lat": 39.11199,
    "lng": -8.99105
  },
  {
    "name": "Otopeni",
    "country": "RO",
    "lat": 44.55,
    "lng": 26.06667
  },
  {
    "name": "Otetelișu",
    "country": "RO",
    "lat": 44.63839,
    "lng": 23.95917
  },
  {
    "name": "Oteşani",
    "country": "RO",
    "lat": 45.06667,
    "lng": 24.03333
  },
  {
    "name": "Otelec",
    "country": "RO",
    "lat": 45.61478,
    "lng": 20.84952
  },
  {
    "name": "Otrado-Kubanskoye",
    "country": "RU",
    "lat": 45.24417,
    "lng": 40.84083
  },
  {
    "name": "Otradnyy",
    "country": "RU",
    "lat": 53.37596,
    "lng": 51.3452
  },
  {
    "name": "Otradnoye",
    "country": "RU",
    "lat": 55.86667,
    "lng": 37.6
  },
  {
    "name": "Otradnoye",
    "country": "RU",
    "lat": 59.7775,
    "lng": 30.81806
  },
  {
    "name": "Otradnaya",
    "country": "RU",
    "lat": 44.39318,
    "lng": 41.51929
  },
  {
    "name": "Otkaznoye",
    "country": "RU",
    "lat": 44.32639,
    "lng": 43.86083
  },
  {
    "name": "Otradnoye",
    "country": "RU",
    "lat": 54.94114,
    "lng": 20.11397
  },
  {
    "name": "Otrada",
    "country": "RU",
    "lat": 44.06832,
    "lng": 145.86454
  },
  {
    "name": "Otlukbeli",
    "country": "TR",
    "lat": 39.97,
    "lng": 40.01872
  },
  {
    "name": "Otluoğlu",
    "country": "TR",
    "lat": 40.8204,
    "lng": 31.12846
  },
  {
    "name": "Otyniia",
    "country": "UA",
    "lat": 48.73792,
    "lng": 24.86115
  },
  {
    "name": "Otuke",
    "country": "UG",
    "lat": 2.50038,
    "lng": 33.50065
  },
  {
    "name": "Ottawa",
    "country": "US",
    "lat": 38.61557,
    "lng": -95.26775
  },
  {
    "name": "Ottumwa",
    "country": "US",
    "lat": 41.02001,
    "lng": -92.4113
  },
  {
    "name": "Ottawa",
    "country": "US",
    "lat": 41.34559,
    "lng": -88.84258
  },
  {
    "name": "Otis",
    "country": "US",
    "lat": 41.59921,
    "lng": -86.90586
  },
  {
    "name": "Otterbein",
    "country": "US",
    "lat": 40.49059,
    "lng": -87.0964
  },
  {
    "name": "Otis",
    "country": "US",
    "lat": 42.19315,
    "lng": -73.09177
  },
  {
    "name": "Otsego",
    "country": "US",
    "lat": 42.46059,
    "lng": -85.69641
  },
  {
    "name": "Otsego",
    "country": "US",
    "lat": 45.27413,
    "lng": -93.59135
  },
  {
    "name": "Otisville",
    "country": "US",
    "lat": 41.47343,
    "lng": -74.53849
  },
  {
    "name": "Ottawa",
    "country": "US",
    "lat": 41.01922,
    "lng": -84.04717
  },
  {
    "name": "Ottawa Hills",
    "country": "US",
    "lat": 41.66422,
    "lng": -83.64327
  },
  {
    "name": "Othello",
    "country": "US",
    "lat": 46.82597,
    "lng": -119.17529
  },
  {
    "name": "Otis Orchards-East Farms",
    "country": "US",
    "lat": 47.70988,
    "lng": -117.07975
  },
  {
    "name": "Otterbein",
    "country": "US",
    "lat": 39.28195,
    "lng": -76.61614
  },
  {
    "name": "Ottosdal",
    "country": "ZA",
    "lat": -26.80908,
    "lng": 26.00538
  }
]