[
  {
    "name": "Oud Metha",
    "country": "AE",
    "lat": 25.23685,
    "lng": 55.31419
  },
  {
    "name": "Ouyen",
    "country": "AU",
    "lat": -35.07087,
    "lng": 142.32034
  },
  {
    "name": "Ourimbah",
    "country": "AU",
    "lat": -33.31424,
    "lng": 151.33031
  },
  {
    "name": "Ouwegem",
    "country": "BE",
    "lat": 50.91231,
    "lng": 3.59978
  },
  {
    "name": "Outrijve",
    "country": "BE",
    "lat": 50.75773,
    "lng": 3.42964
  },
  {
    "name": "Outer",
    "country": "BE",
    "lat": 50.84189,
    "lng": 3.9987
  },
  {
    "name": "Oupeye",
    "country": "BE",
    "lat": 50.71184,
    "lng": 5.6468
  },
  {
    "name": "Ougrée",
    "country": "BE",
    "lat": 50.60149,
    "lng": 5.5444
  },
  {
    "name": "Ouffet",
    "country": "BE",
    "lat": 50.4387,
    "lng": 5.4657
  },
  {
    "name": "Oud-Turnhout",
    "country": "BE",
    "lat": 51.31978,
    "lng": 4.9841
  },
  {
    "name": "Oud-Heverlee",
    "country": "BE",
    "lat": 50.83522,
    "lng": 4.66421
  },
  {
    "name": "Oudenburg",
    "country": "BE",
    "lat": 51.18489,
    "lng": 3.00035
  },
  {
    "name": "Oudenaarde",
    "country": "BE",
    "lat": 50.85168,
    "lng": 3.60891
  },
  {
    "name": "Oudegem",
    "country": "BE",
    "lat": 51.01017,
    "lng": 4.06195
  },
  {
    "name": "Oursi",
    "country": "BF",
    "lat": 14.67553,
    "lng": -0.46033
  },
  {
    "name": "Ourgou-Manéga",
    "country": "BF",
    "lat": 12.77994,
    "lng": -1.5077
  },
  {
    "name": "Ouargaye",
    "country": "BF",
    "lat": 11.50202,
    "lng": 0.05886
  },
  {
    "name": "Ouahigouya",
    "country": "BF",
    "lat": 13.58278,
    "lng": -2.42158
  },
  {
    "name": "Ouagadougou",
    "country": "BF",
    "lat": 12.36566,
    "lng": -1.53388
  },
  {
    "name": "Ouinhi",
    "country": "BJ",
    "lat": 7.08411,
    "lng": 2.48343
  },
  {
    "name": "Ouidah",
    "country": "BJ",
    "lat": 6.36307,
    "lng": 2.08506
  },
  {
    "name": "Ouessé",
    "country": "BJ",
    "lat": 8.48639,
    "lng": 2.42872
  },
  {
    "name": "Ouaké",
    "country": "BJ",
    "lat": 9.66167,
    "lng": 1.38472
  },
  {
    "name": "Ouro Velho",
    "country": "BR",
    "lat": -7.62333,
    "lng": -37.14944
  },
  {
    "name": "Ouro Branco",
    "country": "BR",
    "lat": -9.16667,
    "lng": -37.35667
  },
  {
    "name": "Ouro Branco",
    "country": "BR",
    "lat": -6.70111,
    "lng": -36.94556
  },
  {
    "name": "Ouricuri",
    "country": "BR",
    "lat": -7.8825,
    "lng": -40.08167
  },
  {
    "name": "Ourém",
    "country": "BR",
    "lat": -1.55194,
    "lng": -47.11444
  },
  {
    "name": "Ouvidor",
    "country": "BR",
    "lat": -18.23361,
    "lng": -47.83889
  },
  {
    "name": "Ouro Verde de Minas",
    "country": "BR",
    "lat": -18.07056,
    "lng": -41.26972
  },
  {
    "name": "Ouro Verde",
    "country": "BR",
    "lat": -26.69444,
    "lng": -52.31194
  },
  {
    "name": "Ouro Verde do Oeste",
    "country": "BR",
    "lat": -24.77321,
    "lng": -53.90438
  },
  {
    "name": "Ouro Verde",
    "country": "BR",
    "lat": -21.48944,
    "lng": -51.70028
  },
  {
    "name": "Ouro Preto",
    "country": "BR",
    "lat": -20.39484,
    "lng": -43.50517
  },
  {
    "name": "Ouro Fino",
    "country": "BR",
    "lat": -22.28306,
    "lng": -46.36889
  },
  {
    "name": "Ouro Branco",
    "country": "BR",
    "lat": -20.52334,
    "lng": -43.69486
  },
  {
    "name": "Ourolândia",
    "country": "BR",
    "lat": -10.97141,
    "lng": -41.0796
  },
  {
    "name": "Ouro",
    "country": "BR",
    "lat": -27.34139,
    "lng": -51.61806
  },
  {
    "name": "Ourizona",
    "country": "BR",
    "lat": -23.405,
    "lng": -52.19889
  },
  {
    "name": "Ourinhos",
    "country": "BR",
    "lat": -22.97889,
    "lng": -49.87056
  },
  {
    "name": "Ouriçangas",
    "country": "BR",
    "lat": -12.01162,
    "lng": -38.62827
  },
  {
    "name": "Ouro Preto do Oeste",
    "country": "BR",
    "lat": -10.74806,
    "lng": -62.21583
  },
  {
    "name": "Ourilândia do Norte",
    "country": "BR",
    "lat": -6.75472,
    "lng": -51.08389
  },
  {
    "name": "Ouro Verde de Goiás",
    "country": "BR",
    "lat": -16.22028,
    "lng": -49.19333
  },
  {
    "name": "Ouroeste",
    "country": "BR",
    "lat": -20.00056,
    "lng": -50.37222
  },
  {
    "name": "Outlook",
    "country": "CA",
    "lat": 51.48803,
    "lng": -107.05644
  },
  {
    "name": "Outremont",
    "country": "CA",
    "lat": 45.51564,
    "lng": -73.60865
  },
  {
    "name": "Ouango",
    "country": "CF",
    "lat": 4.31325,
    "lng": 22.55524
  },
  {
    "name": "Ouanda Djallé",
    "country": "CF",
    "lat": 8.90025,
    "lng": 22.80277
  },
  {
    "name": "Ouadda",
    "country": "CF",
    "lat": 8.07771,
    "lng": 22.40075
  },
  {
    "name": "Ouesso",
    "country": "CG",
    "lat": 1.61361,
    "lng": 16.05167
  },
  {
    "name": "Ouamélhoro",
    "country": "CI",
    "lat": 10.33226,
    "lng": -5.62113
  },
  {
    "name": "Ouellé",
    "country": "CI",
    "lat": 10.35602,
    "lng": -6.80896
  },
  {
    "name": "Ouazomon",
    "country": "CI",
    "lat": 9.40777,
    "lng": -6.50159
  },
  {
    "name": "Ouahieré",
    "country": "CI",
    "lat": 8.97139,
    "lng": -6.45556
  },
  {
    "name": "Ouaninou",
    "country": "CI",
    "lat": 8.2379,
    "lng": -7.86638
  },
  {
    "name": "Ouandérama-Dioulasso",
    "country": "CI",
    "lat": 8.65,
    "lng": -4.4
  },
  {
    "name": "Ouayéré",
    "country": "CI",
    "lat": 10.11944,
    "lng": -6.91722
  },
  {
    "name": "Ouyatouo",
    "country": "CI",
    "lat": 6.88997,
    "lng": -8.12535
  },
  {
    "name": "Ouyabli",
    "country": "CI",
    "lat": 7.32723,
    "lng": -7.20838
  },
  {
    "name": "Ouassangalasso",
    "country": "CI",
    "lat": 10.17377,
    "lng": -6.62785
  },
  {
    "name": "Oussougoula",
    "country": "CI",
    "lat": 8.02683,
    "lng": -6.18166
  },
  {
    "name": "Oussou",
    "country": "CI",
    "lat": 6.26057,
    "lng": -4.93272
  },
  {
    "name": "Ouroutara",
    "country": "CI",
    "lat": 7.83529,
    "lng": -3.52037
  },
  {
    "name": "Ourouta",
    "country": "CI",
    "lat": 7.21504,
    "lng": -6.18004
  },
  {
    "name": "Ourouta",
    "country": "CI",
    "lat": 7.14219,
    "lng": -6.3143
  },
  {
    "name": "Ouroné",
    "country": "CI",
    "lat": 7.58016,
    "lng": -7.43025
  },
  {
    "name": "Ouréyo",
    "country": "CI",
    "lat": 6.01972,
    "lng": -6.59778
  },
  {
    "name": "Ouréitafla",
    "country": "CI",
    "lat": 7.51223,
    "lng": -5.82772
  },
  {
    "name": "Oupoyo",
    "country": "CI",
    "lat": 5.56054,
    "lng": -6.58997
  },
  {
    "name": "Oundjibipa",
    "country": "CI",
    "lat": 6.32575,
    "lng": -5.97034
  },
  {
    "name": "Oumé",
    "country": "CI",
    "lat": 6.38309,
    "lng": -5.41759
  },
  {
    "name": "Oulenzoué",
    "country": "CI",
    "lat": 6.14405,
    "lng": -4.26931
  },
  {
    "name": "Oulaikpabli",
    "country": "CI",
    "lat": 6.58499,
    "lng": -8.10527
  },
  {
    "name": "Oufouédiékro",
    "country": "CI",
    "lat": 6.94129,
    "lng": -5.12261
  },
  {
    "name": "Ouragahio",
    "country": "CI",
    "lat": 6.31058,
    "lng": -5.93473
  },
  {
    "name": "Oueproye",
    "country": "CI",
    "lat": 7.5025,
    "lng": -5.84694
  },
  {
    "name": "Ouénéfla",
    "country": "CI",
    "lat": 7.46586,
    "lng": -6.25143
  },
  {
    "name": "Ouellé",
    "country": "CI",
    "lat": 7.29611,
    "lng": -4.01364
  },
  {
    "name": "Ouéleu",
    "country": "CI",
    "lat": 7.06262,
    "lng": -8.08007
  },
  {
    "name": "Ouaté",
    "country": "CI",
    "lat": 7.63409,
    "lng": -3.37215
  },
  {
    "name": "Ouassadougou",
    "country": "CI",
    "lat": 7.70483,
    "lng": -4.23188
  },
  {
    "name": "Ouarhama",
    "country": "CI",
    "lat": 7.83333,
    "lng": -6.7
  },
  {
    "name": "Ouaouassi",
    "country": "CI",
    "lat": 7.71318,
    "lng": -5.55173
  },
  {
    "name": "Ouaouakro",
    "country": "CI",
    "lat": 6.51701,
    "lng": -5.06745
  },
  {
    "name": "Ouangui",
    "country": "CI",
    "lat": 7.37539,
    "lng": -3.29373
  },
  {
    "name": "Ouangolodougou",
    "country": "CI",
    "lat": 9.96837,
    "lng": -5.14882
  },
  {
    "name": "Ouandégué",
    "country": "CI",
    "lat": 9.14216,
    "lng": -6.76933
  },
  {
    "name": "Oua",
    "country": "CI",
    "lat": 7.44692,
    "lng": -8.16526
  },
  {
    "name": "Ouéguié",
    "country": "CI",
    "lat": 5.82286,
    "lng": -4.22469
  },
  {
    "name": "Ouattaradougou",
    "country": "CI",
    "lat": 6.59172,
    "lng": -7.19591
  },
  {
    "name": "Ouédjiré",
    "country": "CI",
    "lat": 4.56158,
    "lng": -7.31537
  },
  {
    "name": "Ourégbabré",
    "country": "CI",
    "lat": 5.95892,
    "lng": -6.55139
  },
  {
    "name": "Oupohio",
    "country": "CI",
    "lat": 5.84039,
    "lng": -5.97627
  },
  {
    "name": "Oulayably",
    "country": "CI",
    "lat": 7.28267,
    "lng": -7.45865
  },
  {
    "name": "Oulaï",
    "country": "CI",
    "lat": 7.21003,
    "lng": -7.78599
  },
  {
    "name": "Oulaï-Taibli",
    "country": "CI",
    "lat": 6.36017,
    "lng": -8.12373
  },
  {
    "name": "Oussou",
    "country": "CI",
    "lat": 6.96527,
    "lng": -5.79729
  },
  {
    "name": "Ouarébota",
    "country": "CI",
    "lat": 6.93295,
    "lng": -6.01172
  },
  {
    "name": "Ouatigbeu",
    "country": "CI",
    "lat": 6.66836,
    "lng": -6.89825
  },
  {
    "name": "Ouayéri-Djélisso",
    "country": "CI",
    "lat": 9.40828,
    "lng": -5.97915
  },
  {
    "name": "Ouolo",
    "country": "CI",
    "lat": 9.54831,
    "lng": -5.4246
  },
  {
    "name": "Ouréguékaha",
    "country": "CI",
    "lat": 8.44923,
    "lng": -5.1944
  },
  {
    "name": "Ouanadiékaha",
    "country": "CI",
    "lat": 8.36292,
    "lng": -5.17237
  },
  {
    "name": "Ouédallah",
    "country": "CI",
    "lat": 8.17604,
    "lng": -5.7883
  },
  {
    "name": "Ouélékéi",
    "country": "CI",
    "lat": 8.08312,
    "lng": -2.7458
  },
  {
    "name": "Oula",
    "country": "CN",
    "lat": 34.07654,
    "lng": 101.72183
  },
  {
    "name": "Ouyang",
    "country": "CN",
    "lat": 26.4191,
    "lng": 109.216
  },
  {
    "name": "Oula Xiuma",
    "country": "CN",
    "lat": 34.24256,
    "lng": 101.11973
  },
  {
    "name": "Ouzhou chengshi",
    "country": "CN",
    "lat": 22.55591,
    "lng": 113.96489
  },
  {
    "name": "Ouê‘a",
    "country": "DJ",
    "lat": 11.50306,
    "lng": 42.85528
  },
  {
    "name": "Outrup",
    "country": "DK",
    "lat": 55.71919,
    "lng": 8.34466
  },
  {
    "name": "Ouzera",
    "country": "DZ",
    "lat": 36.25417,
    "lng": 2.84722
  },
  {
    "name": "Oum el Bouaghi",
    "country": "DZ",
    "lat": 35.87541,
    "lng": 7.11353
  },
  {
    "name": "Oumache",
    "country": "DZ",
    "lat": 34.69292,
    "lng": 5.68092
  },
  {
    "name": "Ouled Slama Fouaga",
    "country": "DZ",
    "lat": 36.54828,
    "lng": 3.11006
  },
  {
    "name": "Ouled Moussa",
    "country": "DZ",
    "lat": 36.68394,
    "lng": 3.36661
  },
  {
    "name": "Ouled Mimoun",
    "country": "DZ",
    "lat": 34.90472,
    "lng": -1.03394
  },
  {
    "name": "Ouled Haddaj",
    "country": "DZ",
    "lat": 36.71461,
    "lng": 3.3422
  },
  {
    "name": "Ouled Djellal",
    "country": "DZ",
    "lat": 34.43,
    "lng": 5.06139
  },
  {
    "name": "Oulad Saïd",
    "country": "DZ",
    "lat": 29.42054,
    "lng": 0.23876
  },
  {
    "name": "Oulad Aïssa",
    "country": "DZ",
    "lat": 29.41836,
    "lng": -0.08756
  },
  {
    "name": "Ouenza",
    "country": "DZ",
    "lat": 35.95333,
    "lng": 8.12917
  },
  {
    "name": "Oued Zenati",
    "country": "DZ",
    "lat": 36.31611,
    "lng": 7.16364
  },
  {
    "name": "Oued Sly",
    "country": "DZ",
    "lat": 36.10124,
    "lng": 1.19949
  },
  {
    "name": "Oued Rhiou",
    "country": "DZ",
    "lat": 35.96124,
    "lng": 0.91896
  },
  {
    "name": "Oued Fodda",
    "country": "DZ",
    "lat": 36.18503,
    "lng": 1.53299
  },
  {
    "name": "Oued el Alleug",
    "country": "DZ",
    "lat": 36.55528,
    "lng": 2.79028
  },
  {
    "name": "Oued el Abtal",
    "country": "DZ",
    "lat": 35.45595,
    "lng": 0.68778
  },
  {
    "name": "Ouargla",
    "country": "DZ",
    "lat": 31.94932,
    "lng": 5.32502
  },
  {
    "name": "Ouled Ahmed Timmi",
    "country": "DZ",
    "lat": 27.84157,
    "lng": -0.28895
  },
  {
    "name": "Outes",
    "country": "ES",
    "lat": 42.86189,
    "lng": -8.90181
  },
  {
    "name": "Outeiro",
    "country": "ES",
    "lat": 43.14458,
    "lng": -7.29212
  },
  {
    "name": "Ourol",
    "country": "ES",
    "lat": 42.87013,
    "lng": -7.61447
  },
  {
    "name": "Outeiro de Rei",
    "country": "ES",
    "lat": 43.10198,
    "lng": -7.61497
  },
  {
    "name": "Ourense",
    "country": "ES",
    "lat": 42.33669,
    "lng": -7.86407
  },
  {
    "name": "Outokumpu",
    "country": "FI",
    "lat": 62.72685,
    "lng": 29.01592
  },
  {
    "name": "Oulunsuu",
    "country": "FI",
    "lat": 65.0086,
    "lng": 25.52759
  },
  {
    "name": "Oulunsalo",
    "country": "FI",
    "lat": 64.93456,
    "lng": 25.41121
  },
  {
    "name": "Oulunkylä",
    "country": "FI",
    "lat": 60.22924,
    "lng": 24.96403
  },
  {
    "name": "Oulu",
    "country": "FI",
    "lat": 65.01236,
    "lng": 25.46816
  },
  {
    "name": "Oulainen",
    "country": "FI",
    "lat": 64.26667,
    "lng": 24.8
  },
  {
    "name": "Ouzouer-sur-Trézée",
    "country": "FR",
    "lat": 47.67266,
    "lng": 2.808
  },
  {
    "name": "Ouzouer-sur-Loire",
    "country": "FR",
    "lat": 47.76638,
    "lng": 2.48038
  },
  {
    "name": "Ouzouer-le-Marché",
    "country": "FR",
    "lat": 47.91055,
    "lng": 1.52607
  },
  {
    "name": "Ouveillan",
    "country": "FR",
    "lat": 43.28858,
    "lng": 2.97029
  },
  {
    "name": "Outreau",
    "country": "FR",
    "lat": 50.70535,
    "lng": 1.5897
  },
  {
    "name": "Outarville",
    "country": "FR",
    "lat": 48.21393,
    "lng": 2.02198
  },
  {
    "name": "Ousse",
    "country": "FR",
    "lat": 43.28317,
    "lng": -0.26715
  },
  {
    "name": "Ourville-en-Caux",
    "country": "FR",
    "lat": 49.72854,
    "lng": 0.6046
  },
  {
    "name": "Oursbelille",
    "country": "FR",
    "lat": 43.28688,
    "lng": 0.03698
  },
  {
    "name": "Ouroux-sur-Saône",
    "country": "FR",
    "lat": 46.72147,
    "lng": 4.95262
  },
  {
    "name": "Oullins",
    "country": "FR",
    "lat": 45.71404,
    "lng": 4.80755
  },
  {
    "name": "Oulins",
    "country": "FR",
    "lat": 48.86451,
    "lng": 1.47038
  },
  {
    "name": "Ouistreham",
    "country": "FR",
    "lat": 49.27566,
    "lng": -0.2591
  },
  {
    "name": "Ouges",
    "country": "FR",
    "lat": 47.26164,
    "lng": 5.07395
  },
  {
    "name": "Oudon",
    "country": "FR",
    "lat": 47.34692,
    "lng": -1.28659
  },
  {
    "name": "Oucques",
    "country": "FR",
    "lat": 47.82252,
    "lng": 1.29383
  },
  {
    "name": "Ouches",
    "country": "FR",
    "lat": 46.01582,
    "lng": 3.98828
  },
  {
    "name": "Outwell",
    "country": "GB",
    "lat": 52.60946,
    "lng": 0.23333
  },
  {
    "name": "Oundle",
    "country": "GB",
    "lat": 52.48093,
    "lng": -0.46732
  },
  {
    "name": "Oughtibridge",
    "country": "GB",
    "lat": 53.43612,
    "lng": -1.53902
  },
  {
    "name": "Ouranoupolis",
    "country": "GR",
    "lat": 40.33333,
    "lng": 23.98333
  },
  {
    "name": "Ouanaminthe",
    "country": "HT",
    "lat": 19.54934,
    "lng": -71.72475
  },
  {
    "name": "Oughterard",
    "country": "IE",
    "lat": 53.41667,
    "lng": -9.33333
  },
  {
    "name": "Oughterard",
    "country": "IE",
    "lat": 53.2775,
    "lng": -6.56389
  },
  {
    "name": "Outabgarh",
    "country": "IN",
    "lat": 28.80103,
    "lng": 76.96163
  },
  {
    "name": "Oulx",
    "country": "IT",
    "lat": 45.03641,
    "lng": 6.83372
  },
  {
    "name": "Ou Krasar",
    "country": "KH",
    "lat": 10.55536,
    "lng": 104.2883
  },
  {
    "name": "Ou Kanthor",
    "country": "KH",
    "lat": 12.69662,
    "lng": 104.84151
  },
  {
    "name": "Ou Andoung",
    "country": "KH",
    "lat": 12.93691,
    "lng": 102.56242
  },
  {
    "name": "Ou Bei Choan",
    "country": "KH",
    "lat": 13.77363,
    "lng": 102.73731
  },
  {
    "name": "Ou Chrov",
    "country": "KH",
    "lat": 13.63885,
    "lng": 102.58356
  },
  {
    "name": "Ou Char",
    "country": "KH",
    "lat": 13.10691,
    "lng": 103.18723
  },
  {
    "name": "Ou Bak Roteh",
    "country": "KH",
    "lat": 11.1496,
    "lng": 103.98253
  },
  {
    "name": "Ou Chum",
    "country": "KH",
    "lat": 13.7978,
    "lng": 106.99378
  },
  {
    "name": "Ou Ya Dav",
    "country": "KH",
    "lat": 13.67061,
    "lng": 107.34701
  },
  {
    "name": "Ou Svay",
    "country": "KH",
    "lat": 13.87993,
    "lng": 106.00218
  },
  {
    "name": "Ou Smach",
    "country": "KH",
    "lat": 14.42479,
    "lng": 103.69571
  },
  {
    "name": "Ou Svay",
    "country": "KH",
    "lat": 14.3265,
    "lng": 104.31952
  },
  {
    "name": "Ouanani",
    "country": "KM",
    "lat": -12.3375,
    "lng": 43.7975
  },
  {
    "name": "Ouzini",
    "country": "KM",
    "lat": -12.26722,
    "lng": 44.47972
  },
  {
    "name": "Oussivo",
    "country": "KM",
    "lat": -11.585,
    "lng": 43.26722
  },
  {
    "name": "Ourovéni",
    "country": "KM",
    "lat": -11.91375,
    "lng": 43.49804
  },
  {
    "name": "Ouellah",
    "country": "KM",
    "lat": -11.39028,
    "lng": 43.33194
  },
  {
    "name": "Ouani",
    "country": "KM",
    "lat": -12.13554,
    "lng": 44.42493
  },
  {
    "name": "Ouhozi",
    "country": "KM",
    "lat": -11.405,
    "lng": 43.28222
  },
  {
    "name": "Outat Oulad Al Haj",
    "country": "MA",
    "lat": 33.34499,
    "lng": -3.70387
  },
  {
    "name": "Ourtzagh",
    "country": "MA",
    "lat": 34.53477,
    "lng": -4.96878
  },
  {
    "name": "Ounagha",
    "country": "MA",
    "lat": 31.53203,
    "lng": -9.54944
  },
  {
    "name": "Oulmes",
    "country": "MA",
    "lat": 33.42585,
    "lng": -6.00137
  },
  {
    "name": "Oulad Yaïch",
    "country": "MA",
    "lat": 32.43498,
    "lng": -6.3245
  },
  {
    "name": "Oulad Teïma",
    "country": "MA",
    "lat": 30.39467,
    "lng": -9.20897
  },
  {
    "name": "Oulad Tayeb",
    "country": "MA",
    "lat": 33.94633,
    "lng": -4.99509
  },
  {
    "name": "Oulad Saïd",
    "country": "MA",
    "lat": 32.96789,
    "lng": -7.81277
  },
  {
    "name": "Oulad Embarek",
    "country": "MA",
    "lat": 32.27162,
    "lng": -6.44967
  },
  {
    "name": "Oulad Daoud",
    "country": "MA",
    "lat": 34.40438,
    "lng": -4.69342
  },
  {
    "name": "Oulad Barhil",
    "country": "MA",
    "lat": 30.64042,
    "lng": -8.46875
  },
  {
    "name": "Oulad Ayad",
    "country": "MA",
    "lat": 32.2,
    "lng": -6.8
  },
  {
    "name": "Oukaïmedene",
    "country": "MA",
    "lat": 31.20603,
    "lng": -7.86089
  },
  {
    "name": "Oujda",
    "country": "MA",
    "lat": 34.68139,
    "lng": -1.90858
  },
  {
    "name": "Ouijjane",
    "country": "MA",
    "lat": 29.62777,
    "lng": -9.53959
  },
  {
    "name": "Oued Zem",
    "country": "MA",
    "lat": 32.8627,
    "lng": -6.57359
  },
  {
    "name": "Oued Laou",
    "country": "MA",
    "lat": 35.4484,
    "lng": -5.09627
  },
  {
    "name": "Oued el Himer",
    "country": "MA",
    "lat": 34.44897,
    "lng": -1.9006
  },
  {
    "name": "Oued Amlil",
    "country": "MA",
    "lat": 34.2,
    "lng": -4.28
  },
  {
    "name": "Ouezzane",
    "country": "MA",
    "lat": 34.79584,
    "lng": -5.57849
  },
  {
    "name": "Ouarzazate",
    "country": "MA",
    "lat": 30.91894,
    "lng": -6.89341
  },
  {
    "name": "Oualidia",
    "country": "MA",
    "lat": 32.73372,
    "lng": -9.03059
  },
  {
    "name": "Oulad Frej",
    "country": "MA",
    "lat": 32.95956,
    "lng": -8.2274
  },
  {
    "name": "Ouaoula",
    "country": "MA",
    "lat": 31.87,
    "lng": -6.75
  },
  {
    "name": "Oulad El Rhadabne",
    "country": "MA",
    "lat": 33.17521,
    "lng": -8.60592
  },
  {
    "name": "Ouaouizeght",
    "country": "MA",
    "lat": 32.15872,
    "lng": -6.35408
  },
  {
    "name": "Ouislane",
    "country": "MA",
    "lat": 33.91406,
    "lng": -5.48969
  },
  {
    "name": "Oulad Amrane",
    "country": "MA",
    "lat": 32.39313,
    "lng": -8.51993
  },
  {
    "name": "Oulad M'Rah",
    "country": "MA",
    "lat": 32.91284,
    "lng": -7.26438
  },
  {
    "name": "Ould Yenjé",
    "country": "MR",
    "lat": 15.54038,
    "lng": -11.71467
  },
  {
    "name": "Oujeft",
    "country": "MR",
    "lat": 19.96222,
    "lng": -13.05944
  },
  {
    "name": "Oualata",
    "country": "MR",
    "lat": 17.29784,
    "lng": -7.02346
  },
  {
    "name": "Ouadane",
    "country": "MR",
    "lat": 20.92767,
    "lng": -11.62138
  },
  {
    "name": "Ouâd Nâga",
    "country": "MR",
    "lat": 17.9525,
    "lng": -15.69528
  },
  {
    "name": "Ouad Naga",
    "country": "MR",
    "lat": 17.96636,
    "lng": -15.51802
  },
  {
    "name": "Outjo",
    "country": "NA",
    "lat": -20.10691,
    "lng": 16.15415
  },
  {
    "name": "Outapi",
    "country": "NA",
    "lat": -17.50375,
    "lng": 14.98383
  },
  {
    "name": "Ouégoa",
    "country": "NC",
    "lat": -20.35,
    "lng": 164.43333
  },
  {
    "name": "Ouvéa",
    "country": "NC",
    "lat": -20.65284,
    "lng": 166.53641
  },
  {
    "name": "Ouémo",
    "country": "NC",
    "lat": -22.27441,
    "lng": 166.4766
  },
  {
    "name": "Ouallam",
    "country": "NE",
    "lat": 14.31641,
    "lng": 2.08597
  },
  {
    "name": "Oud-Vossemeer",
    "country": "NL",
    "lat": 51.57083,
    "lng": 4.19861
  },
  {
    "name": "Oud-Loosdrecht",
    "country": "NL",
    "lat": 52.20667,
    "lng": 5.08056
  },
  {
    "name": "Oudkarspel",
    "country": "NL",
    "lat": 52.71583,
    "lng": 4.80556
  },
  {
    "name": "Oud Gastel",
    "country": "NL",
    "lat": 51.58667,
    "lng": 4.45972
  },
  {
    "name": "Oude Wetering",
    "country": "NL",
    "lat": 52.21417,
    "lng": 4.64444
  },
  {
    "name": "Oudewater",
    "country": "NL",
    "lat": 52.025,
    "lng": 4.86806
  },
  {
    "name": "Oudeschoot",
    "country": "NL",
    "lat": 52.93343,
    "lng": 5.95579
  },
  {
    "name": "Oudeschild",
    "country": "NL",
    "lat": 53.03917,
    "lng": 4.84722
  },
  {
    "name": "Ouderkerk aan den IJssel",
    "country": "NL",
    "lat": 51.93417,
    "lng": 4.63611
  },
  {
    "name": "Ouderkerk aan de Amstel",
    "country": "NL",
    "lat": 52.29504,
    "lng": 4.90746
  },
  {
    "name": "Oude Pekela",
    "country": "NL",
    "lat": 53.10417,
    "lng": 7.00972
  },
  {
    "name": "Oudemirdum",
    "country": "NL",
    "lat": 52.85019,
    "lng": 5.53544
  },
  {
    "name": "Oudehaske",
    "country": "NL",
    "lat": 52.95709,
    "lng": 5.87095
  },
  {
    "name": "Oudega",
    "country": "NL",
    "lat": 53.12504,
    "lng": 5.99888
  },
  {
    "name": "Ouddorp",
    "country": "NL",
    "lat": 51.81167,
    "lng": 3.93472
  },
  {
    "name": "Oud-Caberg",
    "country": "NL",
    "lat": 50.86539,
    "lng": 5.66444
  },
  {
    "name": "Oud-Beijerland",
    "country": "NL",
    "lat": 51.82417,
    "lng": 4.4125
  },
  {
    "name": "Ourique",
    "country": "PT",
    "lat": 37.6539,
    "lng": -8.22569
  },
  {
    "name": "Ourém",
    "country": "PT",
    "lat": 39.64167,
    "lng": -8.5919
  },
  {
    "name": "Ous",
    "country": "RU",
    "lat": 60.90583,
    "lng": 61.51861
  },
  {
    "name": "Outram Park",
    "country": "SG",
    "lat": 1.2825,
    "lng": 103.83806
  },
  {
    "name": "Oussouye",
    "country": "SN",
    "lat": 12.485,
    "lng": -16.54694
  },
  {
    "name": "Ouro Sogui",
    "country": "SN",
    "lat": 15.60588,
    "lng": -13.3223
  },
  {
    "name": "Oualaldé",
    "country": "SN",
    "lat": 16.50625,
    "lng": -14.20368
  },
  {
    "name": "Oued Lill",
    "country": "TN",
    "lat": 36.83408,
    "lng": 10.04057
  },
  {
    "name": "Ousseltia",
    "country": "TN",
    "lat": 35.84778,
    "lng": 9.58944
  },
  {
    "name": "Ouardenine",
    "country": "TN",
    "lat": 35.70915,
    "lng": 10.67397
  },
  {
    "name": "Ouerdanine",
    "country": "TN",
    "lat": 35.69006,
    "lng": 10.67598
  },
  {
    "name": "Ouray",
    "country": "US",
    "lat": 38.02277,
    "lng": -107.67145
  },
  {
    "name": "Ouangani",
    "country": "YT",
    "lat": -12.84639,
    "lng": 45.13611
  },
  {
    "name": "Oudtshoorn",
    "country": "ZA",
    "lat": -33.60047,
    "lng": 22.19955
  }
]