[
  {
    "name": "Oxley",
    "country": "AU",
    "lat": -27.55,
    "lng": 152.98333
  },
  {
    "name": "Oxenford",
    "country": "AU",
    "lat": -27.89033,
    "lng": 153.31309
  },
  {
    "name": "Oxley Park",
    "country": "AU",
    "lat": -33.77072,
    "lng": 150.79502
  },
  {
    "name": "Oxley Vale",
    "country": "AU",
    "lat": -31.06316,
    "lng": 150.9006
  },
  {
    "name": "Oxley",
    "country": "AU",
    "lat": -35.40952,
    "lng": 149.0786
  },
  {
    "name": "Oxbow",
    "country": "CA",
    "lat": 49.23335,
    "lng": -102.1676
  },
  {
    "name": "Oxford",
    "country": "CA",
    "lat": 45.73345,
    "lng": -63.86542
  },
  {
    "name": "Oxford Heights",
    "country": "CA",
    "lat": 49.28115,
    "lng": -122.76013
  },
  {
    "name": "Oxford House",
    "country": "CA",
    "lat": 54.94853,
    "lng": -95.26598
  },
  {
    "name": "Oxted",
    "country": "GB",
    "lat": 51.25687,
    "lng": -0.00601
  },
  {
    "name": "Oxshott",
    "country": "GB",
    "lat": 51.33217,
    "lng": -0.3562
  },
  {
    "name": "Oxford",
    "country": "GB",
    "lat": 51.75222,
    "lng": -1.25596
  },
  {
    "name": "Oxenhope",
    "country": "GB",
    "lat": 53.81233,
    "lng": -1.95196
  },
  {
    "name": "Oxílithos",
    "country": "GR",
    "lat": 38.57988,
    "lng": 24.11184
  },
  {
    "name": "Oxtotipac",
    "country": "MX",
    "lat": 19.65521,
    "lng": -98.79319
  },
  {
    "name": "Oxolotán",
    "country": "MX",
    "lat": 17.37947,
    "lng": -92.74933
  },
  {
    "name": "Oxkutzkab",
    "country": "MX",
    "lat": 20.30734,
    "lng": -89.41809
  },
  {
    "name": "Oxiacaque",
    "country": "MX",
    "lat": 18.2148,
    "lng": -92.94631
  },
  {
    "name": "Oxcum",
    "country": "MX",
    "lat": 20.94514,
    "lng": -89.76189
  },
  {
    "name": "Oxchuc",
    "country": "MX",
    "lat": 16.78661,
    "lng": -92.34439
  },
  {
    "name": "Oxtotitlán",
    "country": "MX",
    "lat": 18.19004,
    "lng": -99.93248
  },
  {
    "name": "Oxeloco",
    "country": "MX",
    "lat": 20.91889,
    "lng": -98.32556
  },
  {
    "name": "Oxinam",
    "country": "MX",
    "lat": 16.86306,
    "lng": -92.54917
  },
  {
    "name": "Oxford",
    "country": "NZ",
    "lat": -43.3,
    "lng": 172.18333
  },
  {
    "name": "Oxamarca",
    "country": "PE",
    "lat": -7.04193,
    "lng": -78.06803
  },
  {
    "name": "Oxapampa",
    "country": "PE",
    "lat": -10.5775,
    "lng": -75.40167
  },
  {
    "name": "Oxie",
    "country": "SE",
    "lat": 55.54014,
    "lng": 13.09605
  },
  {
    "name": "Oxelösund",
    "country": "SE",
    "lat": 58.67057,
    "lng": 17.10152
  },
  {
    "name": "Oxley",
    "country": "SG",
    "lat": 1.29786,
    "lng": 103.84102
  },
  {
    "name": "Oxford",
    "country": "US",
    "lat": 33.61427,
    "lng": -85.83496
  },
  {
    "name": "Oxford",
    "country": "US",
    "lat": 33.619,
    "lng": -83.86741
  },
  {
    "name": "Oxford",
    "country": "US",
    "lat": 37.27419,
    "lng": -97.16893
  },
  {
    "name": "Oxon Hill",
    "country": "US",
    "lat": 38.80345,
    "lng": -76.9897
  },
  {
    "name": "Oxford",
    "country": "US",
    "lat": 34.3665,
    "lng": -89.51925
  },
  {
    "name": "Oxford",
    "country": "US",
    "lat": 36.3107,
    "lng": -78.59083
  },
  {
    "name": "Oxford",
    "country": "US",
    "lat": 39.507,
    "lng": -84.74523
  },
  {
    "name": "Oxford",
    "country": "US",
    "lat": 39.78539,
    "lng": -75.97883
  },
  {
    "name": "Oxford",
    "country": "US",
    "lat": 41.43399,
    "lng": -73.11678
  },
  {
    "name": "Oxford",
    "country": "US",
    "lat": 40.51976,
    "lng": -87.24779
  },
  {
    "name": "Oxford",
    "country": "US",
    "lat": 42.11676,
    "lng": -71.86479
  },
  {
    "name": "Oxford",
    "country": "US",
    "lat": 44.13174,
    "lng": -70.49311
  },
  {
    "name": "Oxford",
    "country": "US",
    "lat": 42.82475,
    "lng": -83.26466
  },
  {
    "name": "Oxford",
    "country": "US",
    "lat": 40.80315,
    "lng": -74.98962
  },
  {
    "name": "Oxford",
    "country": "US",
    "lat": 42.44202,
    "lng": -75.59769
  },
  {
    "name": "Oxford Circle",
    "country": "US",
    "lat": 40.05011,
    "lng": -75.07184
  },
  {
    "name": "Oxnard",
    "country": "US",
    "lat": 34.1975,
    "lng": -119.17705
  },
  {
    "name": "Oxoboxo River",
    "country": "US",
    "lat": 41.44391,
    "lng": -72.12502
  },
  {
    "name": "Oxon Hill-Glassmanor",
    "country": "US",
    "lat": 38.79615,
    "lng": -76.97499
  },
  {
    "name": "Oxunboboyev",
    "country": "UZ",
    "lat": 40.71984,
    "lng": 72.64282
  }
]