[
  {
    "name": "Qestorat",
    "country": "AL",
    "lat": 40.1175,
    "lng": 20.19972
  },
  {
    "name": "Qereshnik",
    "country": "AL",
    "lat": 40.76333,
    "lng": 20.00972
  },
  {
    "name": "Qerret",
    "country": "AL",
    "lat": 42.05306,
    "lng": 19.83722
  },
  {
    "name": "Qelëz",
    "country": "AL",
    "lat": 42.08972,
    "lng": 19.895
  },
  {
    "name": "Qendër Skrapar",
    "country": "AL",
    "lat": 40.5082,
    "lng": 20.23419
  },
  {
    "name": "Qeredagh",
    "country": "IQ",
    "lat": 35.3071,
    "lng": 45.3906
  },
  {
    "name": "Qeładizê",
    "country": "IQ",
    "lat": 36.18254,
    "lng": 45.13017
  },
  {
    "name": "Qeshm",
    "country": "IR",
    "lat": 26.9492,
    "lng": 56.2691
  },
  {
    "name": "Qedumim",
    "country": "PS",
    "lat": 32.21207,
    "lng": 35.1575
  },
  {
    "name": "Qedar",
    "country": "PS",
    "lat": 31.75406,
    "lng": 35.31058
  },
  {
    "name": "Qenterê",
    "country": "SY",
    "lat": 36.5635,
    "lng": 36.72841
  }
]