[
  {
    "name": "Ras Al Khaimah City",
    "country": "AE",
    "lat": 25.78953,
    "lng": 55.9432
  },
  {
    "name": "Rabāţ-e Sangī-ye Pā’īn",
    "country": "AF",
    "lat": 34.79951,
    "lng": 62.13917
  },
  {
    "name": "Rajcë",
    "country": "AL",
    "lat": 41.09028,
    "lng": 20.57639
  },
  {
    "name": "Ranchpar",
    "country": "AM",
    "lat": 40.02789,
    "lng": 44.36951
  },
  {
    "name": "Rauch",
    "country": "AR",
    "lat": -36.77441,
    "lng": -59.08829
  },
  {
    "name": "Ranchos",
    "country": "AR",
    "lat": -35.51601,
    "lng": -58.3188
  },
  {
    "name": "Rawson",
    "country": "AR",
    "lat": -43.30031,
    "lng": -65.10564
  },
  {
    "name": "Rancul",
    "country": "AR",
    "lat": -35.06777,
    "lng": -64.68422
  },
  {
    "name": "Ramallo",
    "country": "AR",
    "lat": -33.48508,
    "lng": -60.00629
  },
  {
    "name": "Rafaela",
    "country": "AR",
    "lat": -31.25285,
    "lng": -61.49078
  },
  {
    "name": "Rada Tilly",
    "country": "AR",
    "lat": -45.92462,
    "lng": -67.55424
  },
  {
    "name": "Raxendorf",
    "country": "AT",
    "lat": 48.34108,
    "lng": 15.27666
  },
  {
    "name": "Ravelsbach",
    "country": "AT",
    "lat": 48.55,
    "lng": 15.85
  },
  {
    "name": "Rauris",
    "country": "AT",
    "lat": 47.22656,
    "lng": 12.99459
  },
  {
    "name": "Rauchenwarth",
    "country": "AT",
    "lat": 48.0833,
    "lng": 16.52794
  },
  {
    "name": "Rattenberg",
    "country": "AT",
    "lat": 47.43941,
    "lng": 11.89407
  },
  {
    "name": "Ratten",
    "country": "AT",
    "lat": 47.48333,
    "lng": 15.71667
  },
  {
    "name": "Ratschendorf",
    "country": "AT",
    "lat": 46.74222,
    "lng": 15.81583
  },
  {
    "name": "Ratsch an der Weinstraße",
    "country": "AT",
    "lat": 46.68944,
    "lng": 15.57111
  },
  {
    "name": "Rastenfeld",
    "country": "AT",
    "lat": 48.57348,
    "lng": 15.33176
  },
  {
    "name": "Rassach",
    "country": "AT",
    "lat": 46.86028,
    "lng": 15.27
  },
  {
    "name": "Rappottenstein",
    "country": "AT",
    "lat": 48.52161,
    "lng": 15.07925
  },
  {
    "name": "Ranten",
    "country": "AT",
    "lat": 47.15949,
    "lng": 14.08349
  },
  {
    "name": "Ranshofen",
    "country": "AT",
    "lat": 48.23308,
    "lng": 13.01571
  },
  {
    "name": "Rannersdorf",
    "country": "AT",
    "lat": 48.12772,
    "lng": 16.46379
  },
  {
    "name": "Rankweil",
    "country": "AT",
    "lat": 47.27108,
    "lng": 9.64308
  },
  {
    "name": "Raning",
    "country": "AT",
    "lat": 46.85,
    "lng": 15.81667
  },
  {
    "name": "Ranggen",
    "country": "AT",
    "lat": 47.25727,
    "lng": 11.2112
  },
  {
    "name": "Rangersdorf",
    "country": "AT",
    "lat": 46.86001,
    "lng": 12.94923
  },
  {
    "name": "Randegg",
    "country": "AT",
    "lat": 48.01198,
    "lng": 14.97334
  },
  {
    "name": "Ramsau",
    "country": "AT",
    "lat": 48.00313,
    "lng": 15.80332
  },
  {
    "name": "Ramsau am Dachstein",
    "country": "AT",
    "lat": 47.4215,
    "lng": 13.65545
  },
  {
    "name": "Ramsau im Zillertal",
    "country": "AT",
    "lat": 47.20383,
    "lng": 11.87545
  },
  {
    "name": "Ramingstein",
    "country": "AT",
    "lat": 47.07462,
    "lng": 13.83642
  },
  {
    "name": "Rainbach im Mühlkreis",
    "country": "AT",
    "lat": 48.55758,
    "lng": 14.47449
  },
  {
    "name": "Raiding",
    "country": "AT",
    "lat": 47.56581,
    "lng": 16.53056
  },
  {
    "name": "Ragnitz",
    "country": "AT",
    "lat": 46.83667,
    "lng": 15.59278
  },
  {
    "name": "Raggal",
    "country": "AT",
    "lat": 47.21082,
    "lng": 9.83688
  },
  {
    "name": "Raffelstetten",
    "country": "AT",
    "lat": 48.23759,
    "lng": 14.40273
  },
  {
    "name": "Radstadt",
    "country": "AT",
    "lat": 47.38333,
    "lng": 13.45
  },
  {
    "name": "Radfeld",
    "country": "AT",
    "lat": 47.44806,
    "lng": 11.91424
  },
  {
    "name": "Radenthein",
    "country": "AT",
    "lat": 46.80056,
    "lng": 13.71167
  },
  {
    "name": "Rachau",
    "country": "AT",
    "lat": 47.21667,
    "lng": 14.9
  },
  {
    "name": "Rabenwald",
    "country": "AT",
    "lat": 47.4,
    "lng": 15.9
  },
  {
    "name": "Rabenstein an der Pielach",
    "country": "AT",
    "lat": 48.06535,
    "lng": 15.46772
  },
  {
    "name": "Rabensburg",
    "country": "AT",
    "lat": 48.65,
    "lng": 16.9
  },
  {
    "name": "Raasdorf",
    "country": "AT",
    "lat": 48.24657,
    "lng": 16.56532
  },
  {
    "name": "Raach am Hochgebirge",
    "country": "AT",
    "lat": 47.63333,
    "lng": 15.93333
  },
  {
    "name": "Raabs an der Thaya",
    "country": "AT",
    "lat": 48.85,
    "lng": 15.5
  },
  {
    "name": "Raabau",
    "country": "AT",
    "lat": 46.96278,
    "lng": 15.91167
  },
  {
    "name": "Raaba",
    "country": "AT",
    "lat": 47.03333,
    "lng": 15.5
  },
  {
    "name": "Raab",
    "country": "AT",
    "lat": 48.35243,
    "lng": 13.64691
  },
  {
    "name": "Rain",
    "country": "AT",
    "lat": 46.60528,
    "lng": 14.38611
  },
  {
    "name": "Ratzersdorf an der Traisen",
    "country": "AT",
    "lat": 48.22639,
    "lng": 15.66629
  },
  {
    "name": "Raymond Terrace",
    "country": "AU",
    "lat": -32.75952,
    "lng": 151.7505
  },
  {
    "name": "Raworth",
    "country": "AU",
    "lat": -32.73333,
    "lng": 151.61667
  },
  {
    "name": "Ravenshoe",
    "country": "AU",
    "lat": -17.60901,
    "lng": 145.48413
  },
  {
    "name": "Rathmines",
    "country": "AU",
    "lat": -33.03773,
    "lng": 151.58443
  },
  {
    "name": "Ranelagh",
    "country": "AU",
    "lat": -43.00977,
    "lng": 147.03764
  },
  {
    "name": "Raglan",
    "country": "AU",
    "lat": -33.41667,
    "lng": 149.66667
  },
  {
    "name": "Ramsgate",
    "country": "AU",
    "lat": -33.9822,
    "lng": 151.14
  },
  {
    "name": "Randwick",
    "country": "AU",
    "lat": -33.91439,
    "lng": 151.24895
  },
  {
    "name": "Rainbow Beach",
    "country": "AU",
    "lat": -25.90432,
    "lng": 153.09174
  },
  {
    "name": "Raceview",
    "country": "AU",
    "lat": -27.63472,
    "lng": 152.77519
  },
  {
    "name": "Rapid Creek",
    "country": "AU",
    "lat": -12.38042,
    "lng": 130.85919
  },
  {
    "name": "Razorback",
    "country": "AU",
    "lat": -34.15237,
    "lng": 150.65308
  },
  {
    "name": "Raby",
    "country": "AU",
    "lat": -34.01846,
    "lng": 150.81764
  },
  {
    "name": "Railway Estate",
    "country": "AU",
    "lat": -19.2757,
    "lng": 146.81962
  },
  {
    "name": "Rasmussen",
    "country": "AU",
    "lat": -19.3524,
    "lng": 146.7228
  },
  {
    "name": "Rangeway",
    "country": "AU",
    "lat": -28.78665,
    "lng": 114.63059
  },
  {
    "name": "Ravenswood",
    "country": "AU",
    "lat": -41.41593,
    "lng": 147.1825
  },
  {
    "name": "Rangewood",
    "country": "AU",
    "lat": -19.31138,
    "lng": 146.63877
  },
  {
    "name": "Ravenswood",
    "country": "AU",
    "lat": -32.5824,
    "lng": 115.8315
  },
  {
    "name": "Ravenhall",
    "country": "AU",
    "lat": -37.76552,
    "lng": 144.75105
  },
  {
    "name": "Ramsgate Beach",
    "country": "AU",
    "lat": -33.98523,
    "lng": 151.14634
  },
  {
    "name": "Rankin Park",
    "country": "AU",
    "lat": -32.92516,
    "lng": 151.68016
  },
  {
    "name": "Rangeville",
    "country": "AU",
    "lat": -27.58318,
    "lng": 151.97997
  },
  {
    "name": "Ramana",
    "country": "AZ",
    "lat": 40.44222,
    "lng": 49.98056
  },
  {
    "name": "Ravno",
    "country": "BA",
    "lat": 42.88741,
    "lng": 17.96555
  },
  {
    "name": "Radišići",
    "country": "BA",
    "lat": 43.22302,
    "lng": 17.54056
  },
  {
    "name": "Rajshahi",
    "country": "BD",
    "lat": 24.374,
    "lng": 88.60114
  },
  {
    "name": "Rangpur",
    "country": "BD",
    "lat": 25.74664,
    "lng": 89.25166
  },
  {
    "name": "Ramna Maidan",
    "country": "BD",
    "lat": 23.73333,
    "lng": 90.4
  },
  {
    "name": "Raojān",
    "country": "BD",
    "lat": 22.53511,
    "lng": 91.91919
  },
  {
    "name": "Ramnagar",
    "country": "BD",
    "lat": 23.7772,
    "lng": 90.17604
  },
  {
    "name": "Ravels",
    "country": "BE",
    "lat": 51.37274,
    "lng": 4.9921
  },
  {
    "name": "Ranst",
    "country": "BE",
    "lat": 51.18983,
    "lng": 4.56533
  },
  {
    "name": "Ransart",
    "country": "BE",
    "lat": 50.46166,
    "lng": 4.47616
  },
  {
    "name": "Rance",
    "country": "BE",
    "lat": 50.14248,
    "lng": 4.27917
  },
  {
    "name": "Ramsel",
    "country": "BE",
    "lat": 51.0324,
    "lng": 4.83242
  },
  {
    "name": "Ramsdonk",
    "country": "BE",
    "lat": 51.015,
    "lng": 4.33522
  },
  {
    "name": "Ramillies",
    "country": "BE",
    "lat": 50.63395,
    "lng": 4.90119
  },
  {
    "name": "Raeren",
    "country": "BE",
    "lat": 50.6672,
    "lng": 6.11535
  },
  {
    "name": "Racour",
    "country": "BE",
    "lat": 50.73924,
    "lng": 5.02806
  },
  {
    "name": "Razlog",
    "country": "BG",
    "lat": 41.8863,
    "lng": 23.46714
  },
  {
    "name": "Razgrad",
    "country": "BG",
    "lat": 43.53331,
    "lng": 26.51849
  },
  {
    "name": "Ravda",
    "country": "BG",
    "lat": 42.64185,
    "lng": 27.67713
  },
  {
    "name": "Rakovski",
    "country": "BG",
    "lat": 42.28819,
    "lng": 24.96779
  },
  {
    "name": "Rakitovo",
    "country": "BG",
    "lat": 41.99012,
    "lng": 24.0873
  },
  {
    "name": "Radomir",
    "country": "BG",
    "lat": 42.54565,
    "lng": 22.96553
  },
  {
    "name": "Radnevo",
    "country": "BG",
    "lat": 42.3,
    "lng": 25.93333
  },
  {
    "name": "Raposa",
    "country": "BR",
    "lat": -6.51667,
    "lng": -44.18333
  },
  {
    "name": "Rafael Fernandes",
    "country": "BR",
    "lat": -6.19472,
    "lng": -38.22583
  },
  {
    "name": "Raul Soares",
    "country": "BR",
    "lat": -20.10194,
    "lng": -42.4525
  },
  {
    "name": "Raposos",
    "country": "BR",
    "lat": -19.96722,
    "lng": -43.80417
  },
  {
    "name": "Rancho Queimado",
    "country": "BR",
    "lat": -27.6725,
    "lng": -49.02167
  },
  {
    "name": "Rancho Alegre",
    "country": "BR",
    "lat": -23.07,
    "lng": -50.91306
  },
  {
    "name": "Rancharia",
    "country": "BR",
    "lat": -22.22917,
    "lng": -50.89306
  },
  {
    "name": "Rafard",
    "country": "BR",
    "lat": -23.01167,
    "lng": -47.52694
  },
  {
    "name": "Rafael Jambeiro",
    "country": "BR",
    "lat": -12.40829,
    "lng": -39.50094
  },
  {
    "name": "Rafael Godeiro",
    "country": "BR",
    "lat": -6.07556,
    "lng": -37.71667
  },
  {
    "name": "Ramilândia",
    "country": "BR",
    "lat": -25.12028,
    "lng": -54.02528
  },
  {
    "name": "Rancho Alegre d'Oeste",
    "country": "BR",
    "lat": -24.30667,
    "lng": -52.95444
  },
  {
    "name": "Raposa",
    "country": "BR",
    "lat": -2.42306,
    "lng": -44.10333
  },
  {
    "name": "Raposo Tavares",
    "country": "BR",
    "lat": -23.59245,
    "lng": -46.78561
  },
  {
    "name": "Ratholo",
    "country": "BW",
    "lat": -22.72454,
    "lng": 27.57199
  },
  {
    "name": "Ramotswa",
    "country": "BW",
    "lat": -24.87158,
    "lng": 25.86989
  },
  {
    "name": "Ramokgonami",
    "country": "BW",
    "lat": -22.8645,
    "lng": 27.42391
  },
  {
    "name": "Rasesa",
    "country": "BW",
    "lat": -24.37306,
    "lng": 26.07287
  },
  {
    "name": "Ramotswa Station/Taung",
    "country": "BW",
    "lat": -24.978,
    "lng": 25.67825
  },
  {
    "name": "Rahachow",
    "country": "BY",
    "lat": 53.09255,
    "lng": 30.04862
  },
  {
    "name": "Rakaw",
    "country": "BY",
    "lat": 53.9674,
    "lng": 27.0562
  },
  {
    "name": "Radaškovičy",
    "country": "BY",
    "lat": 54.1554,
    "lng": 27.2412
  },
  {
    "name": "Ramanavichy",
    "country": "BY",
    "lat": 53.8653,
    "lng": 30.5597
  },
  {
    "name": "Rahozna",
    "country": "BY",
    "lat": 52.15732,
    "lng": 24.08434
  },
  {
    "name": "Ranchito",
    "country": "BZ",
    "lat": 18.37753,
    "lng": -88.41031
  },
  {
    "name": "Radium Hot Springs",
    "country": "CA",
    "lat": 50.61667,
    "lng": -116.06878
  },
  {
    "name": "Ranch Park",
    "country": "CA",
    "lat": 49.26047,
    "lng": -122.80906
  },
  {
    "name": "Rankin Inlet",
    "country": "CA",
    "lat": 62.80906,
    "lng": -92.08534
  },
  {
    "name": "Rawdon",
    "country": "CA",
    "lat": 46.05007,
    "lng": -73.71587
  },
  {
    "name": "Raymond",
    "country": "CA",
    "lat": 49.46382,
    "lng": -112.66024
  },
  {
    "name": "Rayside-Balfour",
    "country": "CA",
    "lat": 46.60873,
    "lng": -81.20763
  },
  {
    "name": "Raron",
    "country": "CH",
    "lat": 46.31196,
    "lng": 7.80029
  },
  {
    "name": "Rapperswil",
    "country": "CH",
    "lat": 47.22557,
    "lng": 8.82228
  },
  {
    "name": "Randogne",
    "country": "CH",
    "lat": 46.30952,
    "lng": 7.50058
  },
  {
    "name": "Ramsen",
    "country": "CH",
    "lat": 47.70797,
    "lng": 8.80949
  },
  {
    "name": "Rafz",
    "country": "CH",
    "lat": 47.60438,
    "lng": 8.54305
  },
  {
    "name": "Radelfingen",
    "country": "CH",
    "lat": 47.02146,
    "lng": 7.27178
  },
  {
    "name": "Raviart",
    "country": "CI",
    "lat": 7.40422,
    "lng": -4.88668
  },
  {
    "name": "Ranouinké",
    "country": "CI",
    "lat": 4.60106,
    "lng": -7.54724
  },
  {
    "name": "Rauco",
    "country": "CL",
    "lat": -34.92546,
    "lng": -71.31722
  },
  {
    "name": "Rancagua",
    "country": "CL",
    "lat": -34.1691,
    "lng": -70.74053
  },
  {
    "name": "Racaka",
    "country": "CN",
    "lat": 31.4,
    "lng": 96.51667
  },
  {
    "name": "Raoyang",
    "country": "CN",
    "lat": 38.23572,
    "lng": 115.72989
  },
  {
    "name": "Raohe",
    "country": "CN",
    "lat": 46.7961,
    "lng": 134.00653
  },
  {
    "name": "Rangdu",
    "country": "CN",
    "lat": 30.59292,
    "lng": 108.30558
  },
  {
    "name": "Ramiriquí",
    "country": "CO",
    "lat": 5.4002,
    "lng": -73.33544
  },
  {
    "name": "Ragonvalia",
    "country": "CO",
    "lat": 7.57749,
    "lng": -72.47574
  },
  {
    "name": "Ranchuelo",
    "country": "CU",
    "lat": 22.37266,
    "lng": -80.15046
  },
  {
    "name": "Rancho Veloz",
    "country": "CU",
    "lat": 22.88042,
    "lng": -80.39098
  },
  {
    "name": "Ratíškovice",
    "country": "CZ",
    "lat": 48.92002,
    "lng": 17.16561
  },
  {
    "name": "Ratiboř",
    "country": "CZ",
    "lat": 49.36769,
    "lng": 17.91499
  },
  {
    "name": "Rataje",
    "country": "CZ",
    "lat": 49.2713,
    "lng": 17.33555
  },
  {
    "name": "Raspenava",
    "country": "CZ",
    "lat": 50.90415,
    "lng": 15.11465
  },
  {
    "name": "Raškovice",
    "country": "CZ",
    "lat": 49.61975,
    "lng": 18.47286
  },
  {
    "name": "Rapotín",
    "country": "CZ",
    "lat": 50.01094,
    "lng": 17.03121
  },
  {
    "name": "Rakvice",
    "country": "CZ",
    "lat": 48.85811,
    "lng": 16.8133
  },
  {
    "name": "Rakovník",
    "country": "CZ",
    "lat": 50.1037,
    "lng": 13.7334
  },
  {
    "name": "Rajhradice",
    "country": "CZ",
    "lat": 49.09203,
    "lng": 16.62933
  },
  {
    "name": "Rajhrad",
    "country": "CZ",
    "lat": 49.09021,
    "lng": 16.60388
  },
  {
    "name": "Radvanice",
    "country": "CZ",
    "lat": 50.56745,
    "lng": 16.06172
  },
  {
    "name": "Radslavice",
    "country": "CZ",
    "lat": 49.47817,
    "lng": 17.51656
  },
  {
    "name": "Radotín",
    "country": "CZ",
    "lat": 49.98985,
    "lng": 14.36572
  },
  {
    "name": "Radonice",
    "country": "CZ",
    "lat": 50.29803,
    "lng": 13.28464
  },
  {
    "name": "Radomyšl",
    "country": "CZ",
    "lat": 49.31634,
    "lng": 13.93024
  },
  {
    "name": "Radnice",
    "country": "CZ",
    "lat": 49.85677,
    "lng": 13.6057
  },
  {
    "name": "Radiměř",
    "country": "CZ",
    "lat": 49.6985,
    "lng": 16.4407
  },
  {
    "name": "Ravensburg",
    "country": "DE",
    "lat": 47.78198,
    "lng": 9.61062
  },
  {
    "name": "Rautheim",
    "country": "DE",
    "lat": 52.2402,
    "lng": 10.58696
  },
  {
    "name": "Rauschenberg",
    "country": "DE",
    "lat": 50.88329,
    "lng": 8.91864
  },
  {
    "name": "Raunheim",
    "country": "DE",
    "lat": 50.0132,
    "lng": 8.45253
  },
  {
    "name": "Rauenberg",
    "country": "DE",
    "lat": 49.26943,
    "lng": 8.70344
  },
  {
    "name": "Rauen",
    "country": "DE",
    "lat": 52.33227,
    "lng": 14.02797
  },
  {
    "name": "Raubling",
    "country": "DE",
    "lat": 47.7905,
    "lng": 12.11088
  },
  {
    "name": "Raubach",
    "country": "DE",
    "lat": 50.57489,
    "lng": 7.62496
  },
  {
    "name": "Ratzeburg",
    "country": "DE",
    "lat": 53.69965,
    "lng": 10.77256
  },
  {
    "name": "Rattiszell",
    "country": "DE",
    "lat": 49.02573,
    "lng": 12.65924
  },
  {
    "name": "Rattenberg",
    "country": "DE",
    "lat": 49.08612,
    "lng": 12.74912
  },
  {
    "name": "Rattelsdorf",
    "country": "DE",
    "lat": 50.01502,
    "lng": 10.88857
  },
  {
    "name": "Ratingen",
    "country": "DE",
    "lat": 51.29724,
    "lng": 6.84929
  },
  {
    "name": "Rathmannsdorf",
    "country": "DE",
    "lat": 50.92993,
    "lng": 14.14224
  },
  {
    "name": "Rathenow",
    "country": "DE",
    "lat": 52.60659,
    "lng": 12.33696
  },
  {
    "name": "Rath",
    "country": "DE",
    "lat": 50.92379,
    "lng": 7.0927
  },
  {
    "name": "Ratekau",
    "country": "DE",
    "lat": 53.94646,
    "lng": 10.7312
  },
  {
    "name": "Rastow",
    "country": "DE",
    "lat": 53.45709,
    "lng": 11.43145
  },
  {
    "name": "Rastenberg",
    "country": "DE",
    "lat": 51.17496,
    "lng": 11.42029
  },
  {
    "name": "Rastede",
    "country": "DE",
    "lat": 53.25,
    "lng": 8.2
  },
  {
    "name": "Rastatt",
    "country": "DE",
    "lat": 48.85851,
    "lng": 8.20965
  },
  {
    "name": "Raßnitz",
    "country": "DE",
    "lat": 51.39085,
    "lng": 12.09406
  },
  {
    "name": "Rasdorf",
    "country": "DE",
    "lat": 50.71667,
    "lng": 9.9
  },
  {
    "name": "Raschau",
    "country": "DE",
    "lat": 50.53127,
    "lng": 12.83312
  },
  {
    "name": "Rantrum",
    "country": "DE",
    "lat": 54.44062,
    "lng": 9.12872
  },
  {
    "name": "Ranstadt",
    "country": "DE",
    "lat": 50.35739,
    "lng": 8.98375
  },
  {
    "name": "Rannungen",
    "country": "DE",
    "lat": 50.16537,
    "lng": 10.20484
  },
  {
    "name": "Ranis",
    "country": "DE",
    "lat": 50.66132,
    "lng": 11.56912
  },
  {
    "name": "Rangsdorf",
    "country": "DE",
    "lat": 52.29126,
    "lng": 13.41946
  },
  {
    "name": "Rangendingen",
    "country": "DE",
    "lat": 48.38168,
    "lng": 8.8894
  },
  {
    "name": "Randersacker",
    "country": "DE",
    "lat": 49.76021,
    "lng": 9.98277
  },
  {
    "name": "Ramsthal",
    "country": "DE",
    "lat": 50.14039,
    "lng": 10.06777
  },
  {
    "name": "Ramstein-Miesenbach",
    "country": "DE",
    "lat": 49.44452,
    "lng": 7.55533
  },
  {
    "name": "Ramsin",
    "country": "DE",
    "lat": 51.61095,
    "lng": 12.23812
  },
  {
    "name": "Ramsen",
    "country": "DE",
    "lat": 49.53694,
    "lng": 8.01333
  },
  {
    "name": "Ramsau",
    "country": "DE",
    "lat": 48.17277,
    "lng": 12.22957
  },
  {
    "name": "Ramsau",
    "country": "DE",
    "lat": 47.61667,
    "lng": 12.9
  },
  {
    "name": "Rammingen",
    "country": "DE",
    "lat": 48.51814,
    "lng": 10.17197
  },
  {
    "name": "Rammenau",
    "country": "DE",
    "lat": 51.15,
    "lng": 14.13333
  },
  {
    "name": "Rammelsbach",
    "country": "DE",
    "lat": 49.5417,
    "lng": 7.44392
  },
  {
    "name": "Ramerberg",
    "country": "DE",
    "lat": 48.01806,
    "lng": 12.14513
  },
  {
    "name": "Rambin",
    "country": "DE",
    "lat": 54.35566,
    "lng": 13.20445
  },
  {
    "name": "Ramberg",
    "country": "DE",
    "lat": 49.26028,
    "lng": 8.00833
  },
  {
    "name": "Ralingen",
    "country": "DE",
    "lat": 49.81667,
    "lng": 6.5
  },
  {
    "name": "Raitenbuch",
    "country": "DE",
    "lat": 49.01468,
    "lng": 11.12486
  },
  {
    "name": "Raisting",
    "country": "DE",
    "lat": 47.91667,
    "lng": 11.1
  },
  {
    "name": "Raisdorf",
    "country": "DE",
    "lat": 54.28127,
    "lng": 10.24915
  },
  {
    "name": "Rain",
    "country": "DE",
    "lat": 48.90496,
    "lng": 12.46871
  },
  {
    "name": "Rain",
    "country": "DE",
    "lat": 48.69029,
    "lng": 10.91611
  },
  {
    "name": "Rahnsdorf",
    "country": "DE",
    "lat": 52.44115,
    "lng": 13.68708
  },
  {
    "name": "Rahlstedt",
    "country": "DE",
    "lat": 53.60194,
    "lng": 10.15667
  },
  {
    "name": "Rahden",
    "country": "DE",
    "lat": 52.43367,
    "lng": 8.61263
  },
  {
    "name": "Raguhn",
    "country": "DE",
    "lat": 51.71167,
    "lng": 12.27531
  },
  {
    "name": "Raesfeld",
    "country": "DE",
    "lat": 51.76667,
    "lng": 6.85
  },
  {
    "name": "Radolfzell",
    "country": "DE",
    "lat": 47.74194,
    "lng": 8.97098
  },
  {
    "name": "Radis",
    "country": "DE",
    "lat": 51.75226,
    "lng": 12.51453
  },
  {
    "name": "Radibor",
    "country": "DE",
    "lat": 51.24481,
    "lng": 14.39842
  },
  {
    "name": "Radevormwald",
    "country": "DE",
    "lat": 51.20219,
    "lng": 7.36027
  },
  {
    "name": "Radegast",
    "country": "DE",
    "lat": 51.65654,
    "lng": 12.09485
  },
  {
    "name": "Radeburg",
    "country": "DE",
    "lat": 51.21516,
    "lng": 13.7281
  },
  {
    "name": "Radebeul",
    "country": "DE",
    "lat": 51.10654,
    "lng": 13.66047
  },
  {
    "name": "Radeberg",
    "country": "DE",
    "lat": 51.11112,
    "lng": 13.91199
  },
  {
    "name": "Raddestorf",
    "country": "DE",
    "lat": 52.45,
    "lng": 8.96667
  },
  {
    "name": "Radbruch",
    "country": "DE",
    "lat": 53.31667,
    "lng": 10.28333
  },
  {
    "name": "Rackwitz",
    "country": "DE",
    "lat": 51.43333,
    "lng": 12.38333
  },
  {
    "name": "Raben Steinfeld",
    "country": "DE",
    "lat": 53.60141,
    "lng": 11.50487
  },
  {
    "name": "Rabenau",
    "country": "DE",
    "lat": 50.96484,
    "lng": 13.64305
  },
  {
    "name": "Ransbach-Baumbach",
    "country": "DE",
    "lat": 50.46496,
    "lng": 7.7283
  },
  {
    "name": "Rabenau",
    "country": "DE",
    "lat": 50.67753,
    "lng": 8.86425
  },
  {
    "name": "Randa",
    "country": "DJ",
    "lat": 11.84694,
    "lng": 42.66056
  },
  {
    "name": "Randers",
    "country": "DK",
    "lat": 56.4607,
    "lng": 10.03639
  },
  {
    "name": "Ramløse",
    "country": "DK",
    "lat": 56.01398,
    "lng": 12.11608
  },
  {
    "name": "Ramón Santana",
    "country": "DO",
    "lat": 18.54224,
    "lng": -69.17979
  },
  {
    "name": "Rapla",
    "country": "EE",
    "lat": 59.00759,
    "lng": 24.79386
  },
  {
    "name": "Rakvere",
    "country": "EE",
    "lat": 59.34808,
    "lng": 26.35784
  },
  {
    "name": "Rakke",
    "country": "EE",
    "lat": 58.98167,
    "lng": 26.25444
  },
  {
    "name": "Raasiku",
    "country": "EE",
    "lat": 59.36639,
    "lng": 25.18306
  },
  {
    "name": "Ras Gharib",
    "country": "EG",
    "lat": 28.35831,
    "lng": 33.07829
  },
  {
    "name": "Rafaḩ",
    "country": "EG",
    "lat": 31.28204,
    "lng": 34.23869
  },
  {
    "name": "Rafelguaraf",
    "country": "ES",
    "lat": 39.05126,
    "lng": -0.45543
  },
  {
    "name": "Rafelcofer",
    "country": "ES",
    "lat": 38.93248,
    "lng": -0.16772
  },
  {
    "name": "Rafal",
    "country": "ES",
    "lat": 38.10458,
    "lng": -0.84904
  },
  {
    "name": "Rada de Haro",
    "country": "ES",
    "lat": 39.57002,
    "lng": -2.62086
  },
  {
    "name": "Rasueros",
    "country": "ES",
    "lat": 41.02344,
    "lng": -5.07377
  },
  {
    "name": "Rasquera",
    "country": "ES",
    "lat": 41.00267,
    "lng": 0.59967
  },
  {
    "name": "Rasines",
    "country": "ES",
    "lat": 43.30505,
    "lng": -3.42919
  },
  {
    "name": "Rascafría",
    "country": "ES",
    "lat": 40.90407,
    "lng": -3.87898
  },
  {
    "name": "Rapariegos",
    "country": "ES",
    "lat": 41.09498,
    "lng": -4.65271
  },
  {
    "name": "Ranón",
    "country": "ES",
    "lat": 43.55362,
    "lng": -6.06487
  },
  {
    "name": "Ramiro",
    "country": "ES",
    "lat": 41.22845,
    "lng": -4.78608
  },
  {
    "name": "Ramales de la Victoria",
    "country": "ES",
    "lat": 43.2572,
    "lng": -3.46516
  },
  {
    "name": "Rajadell",
    "country": "ES",
    "lat": 41.72802,
    "lng": 1.70621
  },
  {
    "name": "Rairiz de Veiga",
    "country": "ES",
    "lat": 42.08364,
    "lng": -7.83503
  },
  {
    "name": "Rabós",
    "country": "ES",
    "lat": 42.3789,
    "lng": 3.02828
  },
  {
    "name": "Rabé de las Calzadas",
    "country": "ES",
    "lat": 42.34065,
    "lng": -3.83414
  },
  {
    "name": "Rabanera del Pinar",
    "country": "ES",
    "lat": 41.89375,
    "lng": -3.19665
  },
  {
    "name": "Rabanera",
    "country": "ES",
    "lat": 42.18955,
    "lng": -2.48654
  },
  {
    "name": "Rabanales",
    "country": "ES",
    "lat": 41.74287,
    "lng": -6.27674
  },
  {
    "name": "Rayaces",
    "country": "ES",
    "lat": 41.92137,
    "lng": -4.71401
  },
  {
    "name": "Raqo",
    "country": "ET",
    "lat": 6.41919,
    "lng": 45.85251
  },
  {
    "name": "Rautjärvi",
    "country": "FI",
    "lat": 61.43459,
    "lng": 29.37151
  },
  {
    "name": "Rautavaara",
    "country": "FI",
    "lat": 63.48333,
    "lng": 28.3
  },
  {
    "name": "Rautalampi",
    "country": "FI",
    "lat": 62.63333,
    "lng": 26.83333
  },
  {
    "name": "Rauma",
    "country": "FI",
    "lat": 61.12724,
    "lng": 21.51127
  },
  {
    "name": "Ranua",
    "country": "FI",
    "lat": 65.91667,
    "lng": 26.53333
  },
  {
    "name": "Rantsila",
    "country": "FI",
    "lat": 64.50613,
    "lng": 25.66449
  },
  {
    "name": "Rantasalmi",
    "country": "FI",
    "lat": 62.06667,
    "lng": 28.3
  },
  {
    "name": "Rajakylä",
    "country": "FI",
    "lat": 60.24952,
    "lng": 25.09586
  },
  {
    "name": "Raisio",
    "country": "FI",
    "lat": 60.48592,
    "lng": 22.16895
  },
  {
    "name": "Rahola",
    "country": "FI",
    "lat": 61.49805,
    "lng": 23.63863
  },
  {
    "name": "Raahe",
    "country": "FI",
    "lat": 64.68333,
    "lng": 24.48333
  },
  {
    "name": "Rastila",
    "country": "FI",
    "lat": 60.2103,
    "lng": 25.1182
  },
  {
    "name": "Rajakylä",
    "country": "FI",
    "lat": 65.06553,
    "lng": 25.42116
  },
  {
    "name": "Raksila",
    "country": "FI",
    "lat": 65.00904,
    "lng": 25.49326
  },
  {
    "name": "Rantaperkiö",
    "country": "FI",
    "lat": 61.47033,
    "lng": 23.75559
  },
  {
    "name": "Ratina",
    "country": "FI",
    "lat": 61.49319,
    "lng": 23.7651
  },
  {
    "name": "Razès",
    "country": "FR",
    "lat": 46.03337,
    "lng": 1.34415
  },
  {
    "name": "Razac-sur-l'Isle",
    "country": "FR",
    "lat": 45.16382,
    "lng": 0.59976
  },
  {
    "name": "Ravières",
    "country": "FR",
    "lat": 47.73475,
    "lng": 4.22777
  },
  {
    "name": "Ravenel",
    "country": "FR",
    "lat": 49.51523,
    "lng": 2.50192
  },
  {
    "name": "Rauzan",
    "country": "FR",
    "lat": 44.77813,
    "lng": -0.12506
  },
  {
    "name": "Raon-l'Étape",
    "country": "FR",
    "lat": 48.40414,
    "lng": 6.83864
  },
  {
    "name": "Raon-aux-Bois",
    "country": "FR",
    "lat": 48.05686,
    "lng": 6.52098
  },
  {
    "name": "Ranville",
    "country": "FR",
    "lat": 49.23071,
    "lng": -0.2556
  },
  {
    "name": "Rantigny",
    "country": "FR",
    "lat": 49.32758,
    "lng": 2.44244
  },
  {
    "name": "Rannée",
    "country": "FR",
    "lat": 47.92401,
    "lng": -1.24103
  },
  {
    "name": "Rang-du-Fliers",
    "country": "FR",
    "lat": 50.41708,
    "lng": 1.64431
  },
  {
    "name": "Randan",
    "country": "FR",
    "lat": 46.01767,
    "lng": 3.35478
  },
  {
    "name": "Ranchicourt",
    "country": "FR",
    "lat": 50.43559,
    "lng": 2.5569
  },
  {
    "name": "Ramonville-Saint-Agne",
    "country": "FR",
    "lat": 43.54618,
    "lng": 1.47491
  },
  {
    "name": "Ramonchamp",
    "country": "FR",
    "lat": 47.89429,
    "lng": 6.74171
  },
  {
    "name": "Rambouillet",
    "country": "FR",
    "lat": 48.64374,
    "lng": 1.82992
  },
  {
    "name": "Rambervillers",
    "country": "FR",
    "lat": 48.3424,
    "lng": 6.6358
  },
  {
    "name": "Ramatuelle",
    "country": "FR",
    "lat": 43.21599,
    "lng": 6.61156
  },
  {
    "name": "Rai",
    "country": "FR",
    "lat": 48.75057,
    "lng": 0.58167
  },
  {
    "name": "Raismes",
    "country": "FR",
    "lat": 50.38333,
    "lng": 3.48333
  },
  {
    "name": "Raimbeaucourt",
    "country": "FR",
    "lat": 50.43466,
    "lng": 3.09333
  },
  {
    "name": "Raillencourt-Sainte-Olle",
    "country": "FR",
    "lat": 50.18333,
    "lng": 3.16667
  },
  {
    "name": "Raedersheim",
    "country": "FR",
    "lat": 47.88895,
    "lng": 7.28222
  },
  {
    "name": "Radon",
    "country": "FR",
    "lat": 48.50246,
    "lng": 0.10278
  },
  {
    "name": "Radinghem-en-Weppes",
    "country": "FR",
    "lat": 50.61884,
    "lng": 2.90924
  },
  {
    "name": "Racquinghem",
    "country": "FR",
    "lat": 50.69245,
    "lng": 2.35736
  },
  {
    "name": "Rabastens-de-Bigorre",
    "country": "FR",
    "lat": 43.38758,
    "lng": 0.15057
  },
  {
    "name": "Rabastens",
    "country": "FR",
    "lat": 43.82512,
    "lng": 1.72382
  },
  {
    "name": "Rayne",
    "country": "GB",
    "lat": 51.86667,
    "lng": 0.58333
  },
  {
    "name": "Rayleigh",
    "country": "GB",
    "lat": 51.58571,
    "lng": 0.60459
  },
  {
    "name": "Rawtenstall",
    "country": "GB",
    "lat": 53.70076,
    "lng": -2.28442
  },
  {
    "name": "Rawmarsh",
    "country": "GB",
    "lat": 53.46062,
    "lng": -1.34437
  },
  {
    "name": "Rawcliffe",
    "country": "GB",
    "lat": 53.69777,
    "lng": -0.96319
  },
  {
    "name": "Ravenstone",
    "country": "GB",
    "lat": 52.72111,
    "lng": -1.40582
  },
  {
    "name": "Ravenstone",
    "country": "GB",
    "lat": 52.14934,
    "lng": -0.75874
  },
  {
    "name": "Raunds",
    "country": "GB",
    "lat": 52.34428,
    "lng": -0.53657
  },
  {
    "name": "Ratho",
    "country": "GB",
    "lat": 55.92164,
    "lng": -3.38028
  },
  {
    "name": "Rathfriland",
    "country": "GB",
    "lat": 54.25,
    "lng": -6.16667
  },
  {
    "name": "Ranskill",
    "country": "GB",
    "lat": 53.38281,
    "lng": -1.01402
  },
  {
    "name": "Randalstown",
    "country": "GB",
    "lat": 54.75,
    "lng": -6.3
  },
  {
    "name": "Ramsgate",
    "country": "GB",
    "lat": 51.33568,
    "lng": 1.41797
  },
  {
    "name": "Ramsey",
    "country": "GB",
    "lat": 52.45058,
    "lng": -0.10932
  },
  {
    "name": "Ramsbury",
    "country": "GB",
    "lat": 51.44373,
    "lng": -1.60257
  },
  {
    "name": "Ramsbottom",
    "country": "GB",
    "lat": 53.64789,
    "lng": -2.31683
  },
  {
    "name": "Rake",
    "country": "GB",
    "lat": 51.04323,
    "lng": -0.85801
  },
  {
    "name": "Rainworth",
    "country": "GB",
    "lat": 53.11883,
    "lng": -1.11852
  },
  {
    "name": "Rainhill",
    "country": "GB",
    "lat": 53.41567,
    "lng": -2.76607
  },
  {
    "name": "Rainham",
    "country": "GB",
    "lat": 51.51686,
    "lng": 0.19432
  },
  {
    "name": "Rainham",
    "country": "GB",
    "lat": 51.36323,
    "lng": 0.60893
  },
  {
    "name": "Rainford",
    "country": "GB",
    "lat": 53.50223,
    "lng": -2.78839
  },
  {
    "name": "Raglan",
    "country": "GB",
    "lat": 51.765,
    "lng": -2.85331
  },
  {
    "name": "Radyr",
    "country": "GB",
    "lat": 51.51864,
    "lng": -3.25829
  },
  {
    "name": "Radstock",
    "country": "GB",
    "lat": 51.292,
    "lng": -2.445
  },
  {
    "name": "Radley",
    "country": "GB",
    "lat": 51.68746,
    "lng": -1.24025
  },
  {
    "name": "Radlett",
    "country": "GB",
    "lat": 51.68593,
    "lng": -0.31868
  },
  {
    "name": "Radcliffe on Trent",
    "country": "GB",
    "lat": 52.94802,
    "lng": -1.03855
  },
  {
    "name": "Rackheath",
    "country": "GB",
    "lat": 52.66254,
    "lng": 1.38032
  },
  {
    "name": "Radcliffe",
    "country": "GB",
    "lat": 53.56178,
    "lng": -2.32455
  },
  {
    "name": "Ravenshead",
    "country": "GB",
    "lat": 53.0865,
    "lng": -1.16026
  },
  {
    "name": "Ratby",
    "country": "GB",
    "lat": 52.64989,
    "lng": -1.24137
  },
  {
    "name": "Ratho Station",
    "country": "GB",
    "lat": 55.9367,
    "lng": -3.3889
  },
  {
    "name": "Rastrick",
    "country": "GB",
    "lat": 53.6921,
    "lng": -1.7883
  },
  {
    "name": "Rafína",
    "country": "GR",
    "lat": 38.01812,
    "lng": 24.00599
  },
  {
    "name": "Raxruhá",
    "country": "GT",
    "lat": 15.86587,
    "lng": -90.04061
  },
  {
    "name": "Rabinal",
    "country": "GT",
    "lat": 15.0853,
    "lng": -90.49255
  },
  {
    "name": "Rancho Grande",
    "country": "HN",
    "lat": 14.68852,
    "lng": -87.49525
  },
  {
    "name": "Ražanac",
    "country": "HR",
    "lat": 44.28194,
    "lng": 15.34806
  },
  {
    "name": "Ravna Gora",
    "country": "HR",
    "lat": 45.37278,
    "lng": 14.93528
  },
  {
    "name": "Rasinja",
    "country": "HR",
    "lat": 46.18389,
    "lng": 16.70667
  },
  {
    "name": "Raša",
    "country": "HR",
    "lat": 45.08028,
    "lng": 14.07889
  },
  {
    "name": "Rakov Potok",
    "country": "HR",
    "lat": 45.73806,
    "lng": 15.79722
  },
  {
    "name": "Rakovica",
    "country": "HR",
    "lat": 44.99315,
    "lng": 15.65028
  },
  {
    "name": "Rakovec",
    "country": "HR",
    "lat": 45.93226,
    "lng": 16.31537
  },
  {
    "name": "Rakitje",
    "country": "HR",
    "lat": 45.79389,
    "lng": 15.82222
  },
  {
    "name": "Radoboj",
    "country": "HR",
    "lat": 46.16639,
    "lng": 15.92361
  },
  {
    "name": "Rabac",
    "country": "HR",
    "lat": 45.07944,
    "lng": 14.1575
  },
  {
    "name": "Rab",
    "country": "HR",
    "lat": 44.75694,
    "lng": 14.76083
  },
  {
    "name": "Ranquitte",
    "country": "HT",
    "lat": 19.41327,
    "lng": -72.08077
  },
  {
    "name": "Rakamaz",
    "country": "HU",
    "lat": 48.12372,
    "lng": 21.46429
  },
  {
    "name": "Rajka",
    "country": "HU",
    "lat": 47.99643,
    "lng": 17.19821
  },
  {
    "name": "Rantauprapat",
    "country": "ID",
    "lat": 2.1,
    "lng": 99.83333
  },
  {
    "name": "Rawalo",
    "country": "ID",
    "lat": -7.53694,
    "lng": 109.17917
  },
  {
    "name": "Ratahan",
    "country": "ID",
    "lat": 1.0549,
    "lng": 124.8012
  },
  {
    "name": "Rasiei",
    "country": "ID",
    "lat": -2.817,
    "lng": 134.5292
  },
  {
    "name": "Rappang",
    "country": "ID",
    "lat": -3.8445,
    "lng": 119.8173
  },
  {
    "name": "Rantepao",
    "country": "ID",
    "lat": -2.9701,
    "lng": 119.8978
  },
  {
    "name": "Rantaupulut",
    "country": "ID",
    "lat": -2.0093,
    "lng": 112.1956
  },
  {
    "name": "Rantau Panjang",
    "country": "ID",
    "lat": -2.4962,
    "lng": 102.2505
  },
  {
    "name": "Rantau Panjang",
    "country": "ID",
    "lat": -1.8446,
    "lng": 102.3081
  },
  {
    "name": "Rantau",
    "country": "ID",
    "lat": -2.9334,
    "lng": 115.1621
  },
  {
    "name": "Ransiki",
    "country": "ID",
    "lat": -1.5083,
    "lng": 134.1708
  },
  {
    "name": "Rangkasbitung",
    "country": "ID",
    "lat": -6.3591,
    "lng": 106.2494
  },
  {
    "name": "Randudongkal",
    "country": "ID",
    "lat": -7.0981,
    "lng": 109.3243
  },
  {
    "name": "Randuagung",
    "country": "ID",
    "lat": -8.072,
    "lng": 113.3032
  },
  {
    "name": "Rancah",
    "country": "ID",
    "lat": -7.1969,
    "lng": 108.5041
  },
  {
    "name": "Ranai",
    "country": "ID",
    "lat": 3.9384,
    "lng": 108.38401
  },
  {
    "name": "Rambipuji",
    "country": "ID",
    "lat": -8.209,
    "lng": 113.6092
  },
  {
    "name": "Rajapolah",
    "country": "ID",
    "lat": -7.221,
    "lng": 108.1896
  },
  {
    "name": "Rajadesa",
    "country": "ID",
    "lat": -7.1836,
    "lng": 108.4341
  },
  {
    "name": "Rainis",
    "country": "ID",
    "lat": 4.23254,
    "lng": 126.86654
  },
  {
    "name": "Raha",
    "country": "ID",
    "lat": -4.838,
    "lng": 122.7209
  },
  {
    "name": "Raduria",
    "country": "ID",
    "lat": -2.93888,
    "lng": 132.33446
  },
  {
    "name": "Raba",
    "country": "ID",
    "lat": -8.4613,
    "lng": 118.747
  },
  {
    "name": "Rantepang",
    "country": "ID",
    "lat": -2.9252,
    "lng": 119.9413
  },
  {
    "name": "Rambatan",
    "country": "ID",
    "lat": -0.49214,
    "lng": 100.54544
  },
  {
    "name": "Rantau Prapat",
    "country": "ID",
    "lat": 2.3321,
    "lng": 100.05205
  },
  {
    "name": "Rambangaru",
    "country": "ID",
    "lat": -9.4499,
    "lng": 120.0524
  },
  {
    "name": "Rantau Ambacang",
    "country": "ID",
    "lat": -1.39774,
    "lng": 101.91907
  },
  {
    "name": "Rantau Panjang",
    "country": "ID",
    "lat": 4.72711,
    "lng": 97.75724
  },
  {
    "name": "Raas",
    "country": "ID",
    "lat": -5.57102,
    "lng": 114.41414
  },
  {
    "name": "Ranai Kota",
    "country": "ID",
    "lat": 3.94005,
    "lng": 108.37771
  },
  {
    "name": "Ratoath",
    "country": "IE",
    "lat": 53.50806,
    "lng": -6.4625
  },
  {
    "name": "Rathwire",
    "country": "IE",
    "lat": 53.50767,
    "lng": -7.1351
  },
  {
    "name": "Rathnew",
    "country": "IE",
    "lat": 52.99056,
    "lng": -6.08528
  },
  {
    "name": "Rathmines",
    "country": "IE",
    "lat": 53.32028,
    "lng": -6.26333
  },
  {
    "name": "Ramelton",
    "country": "IE",
    "lat": 55.03673,
    "lng": -7.64923
  },
  {
    "name": "Rathkeale",
    "country": "IE",
    "lat": 52.52444,
    "lng": -8.93806
  },
  {
    "name": "Rathfarnham",
    "country": "IE",
    "lat": 53.30056,
    "lng": -6.28278
  },
  {
    "name": "Rathdrum",
    "country": "IE",
    "lat": 52.93179,
    "lng": -6.22945
  },
  {
    "name": "Rathdowney",
    "country": "IE",
    "lat": 52.85472,
    "lng": -7.58028
  },
  {
    "name": "Rathcormac",
    "country": "IE",
    "lat": 52.07694,
    "lng": -8.28194
  },
  {
    "name": "Rathcoole",
    "country": "IE",
    "lat": 53.28278,
    "lng": -6.47278
  },
  {
    "name": "Rathangan",
    "country": "IE",
    "lat": 53.22139,
    "lng": -6.995
  },
  {
    "name": "Raphoe",
    "country": "IE",
    "lat": 54.87472,
    "lng": -7.59833
  },
  {
    "name": "Raheny",
    "country": "IE",
    "lat": 53.38681,
    "lng": -6.18067
  },
  {
    "name": "Rathgar",
    "country": "IE",
    "lat": 53.31457,
    "lng": -6.275
  },
  {
    "name": "Ramot Menashe",
    "country": "IL",
    "lat": 32.59784,
    "lng": 35.05656
  },
  {
    "name": "Ramla",
    "country": "IL",
    "lat": 31.92624,
    "lng": 34.8635
  },
  {
    "name": "Ramat Yishay",
    "country": "IL",
    "lat": 32.70444,
    "lng": 35.1707
  },
  {
    "name": "Ramat Yoẖanan",
    "country": "IL",
    "lat": 32.79308,
    "lng": 35.12226
  },
  {
    "name": "Ramat HaShofet",
    "country": "IL",
    "lat": 32.61102,
    "lng": 35.09472
  },
  {
    "name": "Ramat HaSharon",
    "country": "IL",
    "lat": 32.14613,
    "lng": 34.8394
  },
  {
    "name": "Ramat HaKovésh",
    "country": "IL",
    "lat": 32.21768,
    "lng": 34.93815
  },
  {
    "name": "Ramat Gan",
    "country": "IL",
    "lat": 32.08227,
    "lng": 34.81065
  },
  {
    "name": "Rama",
    "country": "IL",
    "lat": 32.93844,
    "lng": 35.3675
  },
  {
    "name": "Ra'anana",
    "country": "IL",
    "lat": 32.1836,
    "lng": 34.87386
  },
  {
    "name": "Raqqefet",
    "country": "IL",
    "lat": 32.85744,
    "lng": 35.26142
  },
  {
    "name": "Rahat",
    "country": "IL",
    "lat": 31.39547,
    "lng": 34.75699
  },
  {
    "name": "Ramsey",
    "country": "IM",
    "lat": 54.32273,
    "lng": -4.38526
  },
  {
    "name": "Rajpur Sonarpur",
    "country": "IN",
    "lat": 22.4382,
    "lng": 88.43205
  },
  {
    "name": "Raybag",
    "country": "IN",
    "lat": 16.49178,
    "lng": 74.77391
  },
  {
    "name": "Rayachoti",
    "country": "IN",
    "lat": 14.05723,
    "lng": 78.75056
  },
  {
    "name": "Raxaul",
    "country": "IN",
    "lat": 26.97982,
    "lng": 84.85065
  },
  {
    "name": "Ratnagiri",
    "country": "IN",
    "lat": 16.99154,
    "lng": 73.31022
  },
  {
    "name": "Ratlām",
    "country": "IN",
    "lat": 23.33033,
    "lng": 75.04032
  },
  {
    "name": "Ratia",
    "country": "IN",
    "lat": 29.69029,
    "lng": 75.57688
  },
  {
    "name": "Ratanpur",
    "country": "IN",
    "lat": 22.2866,
    "lng": 82.16823
  },
  {
    "name": "Ratangarh",
    "country": "IN",
    "lat": 28.08137,
    "lng": 74.61854
  },
  {
    "name": "Ratangarh",
    "country": "IN",
    "lat": 24.81667,
    "lng": 75.11667
  },
  {
    "name": "Rasūlābād",
    "country": "IN",
    "lat": 26.74491,
    "lng": 80.49012
  },
  {
    "name": "Rasrā",
    "country": "IN",
    "lat": 25.8576,
    "lng": 83.85487
  },
  {
    "name": "Rasipuram",
    "country": "IN",
    "lat": 11.46009,
    "lng": 78.18635
  },
  {
    "name": "Rasapūdipalem",
    "country": "IN",
    "lat": 17.73308,
    "lng": 83.31622
  },
  {
    "name": "Ranebennur",
    "country": "IN",
    "lat": 14.62239,
    "lng": 75.62951
  },
  {
    "name": "Rangpo",
    "country": "IN",
    "lat": 27.17733,
    "lng": 88.53358
  },
  {
    "name": "Rangia",
    "country": "IN",
    "lat": 26.44931,
    "lng": 91.61356
  },
  {
    "name": "Rangāpāra",
    "country": "IN",
    "lat": 26.83772,
    "lng": 92.66876
  },
  {
    "name": "Rangapahār",
    "country": "IN",
    "lat": 25.85571,
    "lng": 93.70516
  },
  {
    "name": "Ranchi",
    "country": "IN",
    "lat": 23.34316,
    "lng": 85.3094
  },
  {
    "name": "Rampur Hat",
    "country": "IN",
    "lat": 24.17737,
    "lng": 87.78275
  },
  {
    "name": "Rameswaram",
    "country": "IN",
    "lat": 9.2885,
    "lng": 79.31271
  },
  {
    "name": "Rambha",
    "country": "IN",
    "lat": 19.51667,
    "lng": 85.1
  },
  {
    "name": "Ramanathapuram",
    "country": "IN",
    "lat": 9.37158,
    "lng": 78.83077
  },
  {
    "name": "Rakholi",
    "country": "IN",
    "lat": 20.21667,
    "lng": 73.03333
  },
  {
    "name": "Rakhabh Dev",
    "country": "IN",
    "lat": 24.07564,
    "lng": 73.69304
  },
  {
    "name": "Rajpura",
    "country": "IN",
    "lat": 30.47856,
    "lng": 76.59284
  },
  {
    "name": "Rajpur",
    "country": "IN",
    "lat": 21.94022,
    "lng": 75.13608
  },
  {
    "name": "Rajaori",
    "country": "IN",
    "lat": 33.37526,
    "lng": 74.3092
  },
  {
    "name": "Rajauli",
    "country": "IN",
    "lat": 24.64486,
    "lng": 85.50028
  },
  {
    "name": "Rajapalayam",
    "country": "IN",
    "lat": 9.45296,
    "lng": 77.55335
  },
  {
    "name": "Rajamahendravaram",
    "country": "IN",
    "lat": 17.00517,
    "lng": 81.77784
  },
  {
    "name": "Raisen",
    "country": "IN",
    "lat": 23.33033,
    "lng": 77.7811
  },
  {
    "name": "Raipur",
    "country": "IN",
    "lat": 26.04259,
    "lng": 74.02373
  },
  {
    "name": "Raipur",
    "country": "IN",
    "lat": 21.23333,
    "lng": 81.63333
  },
  {
    "name": "Raighar",
    "country": "IN",
    "lat": 19.88779,
    "lng": 82.07177
  },
  {
    "name": "Raigarh",
    "country": "IN",
    "lat": 21.89764,
    "lng": 83.3966
  },
  {
    "name": "Raia",
    "country": "IN",
    "lat": 15.30499,
    "lng": 73.97096
  },
  {
    "name": "Rahimatpur",
    "country": "IN",
    "lat": 17.5921,
    "lng": 74.19966
  },
  {
    "name": "Rahata",
    "country": "IN",
    "lat": 19.71664,
    "lng": 74.48109
  },
  {
    "name": "Rahā",
    "country": "IN",
    "lat": 26.23333,
    "lng": 92.51667
  },
  {
    "name": "Raghunāthpur",
    "country": "IN",
    "lat": 25.64492,
    "lng": 87.91762
  },
  {
    "name": "Raghunathpur",
    "country": "IN",
    "lat": 23.53878,
    "lng": 86.6735
  },
  {
    "name": "Rafiganj",
    "country": "IN",
    "lat": 24.81757,
    "lng": 84.63445
  },
  {
    "name": "Raebareli",
    "country": "IN",
    "lat": 26.2309,
    "lng": 81.23315
  },
  {
    "name": "Radaur",
    "country": "IN",
    "lat": 30.02706,
    "lng": 77.15177
  },
  {
    "name": "Rabūpura",
    "country": "IN",
    "lat": 28.25153,
    "lng": 77.60253
  },
  {
    "name": "Rabkavi",
    "country": "IN",
    "lat": 16.47567,
    "lng": 75.1106
  },
  {
    "name": "Rairangpur",
    "country": "IN",
    "lat": 22.26675,
    "lng": 86.17385
  },
  {
    "name": "Rampachodavaram",
    "country": "IN",
    "lat": 17.44088,
    "lng": 81.77558
  },
  {
    "name": "Ratannagar",
    "country": "IN",
    "lat": 28.21337,
    "lng": 74.95521
  },
  {
    "name": "Raghudebbati",
    "country": "IN",
    "lat": 22.52556,
    "lng": 88.19583
  },
  {
    "name": "Ratnu Chak",
    "country": "IN",
    "lat": 32.66668,
    "lng": 74.92668
  },
  {
    "name": "Raghunāthpuram",
    "country": "IN",
    "lat": 17.67709,
    "lng": 78.96234
  },
  {
    "name": "Rajakilpakkam",
    "country": "IN",
    "lat": 12.91944,
    "lng": 80.16972
  },
  {
    "name": "Ramanayyapeta",
    "country": "IN",
    "lat": 16.94516,
    "lng": 82.2385
  },
  {
    "name": "Ramagundam",
    "country": "IN",
    "lat": 18.755,
    "lng": 79.474
  },
  {
    "name": "Rabkavi-Banhatti",
    "country": "IN",
    "lat": 16.47,
    "lng": 75.12
  },
  {
    "name": "Rajgangpur",
    "country": "IN",
    "lat": 22.2,
    "lng": 84.583
  },
  {
    "name": "Rajgamar",
    "country": "IN",
    "lat": 22.38197,
    "lng": 82.83298
  },
  {
    "name": "Rawān",
    "country": "IN",
    "lat": 21.68405,
    "lng": 82.08741
  },
  {
    "name": "Rajākheri",
    "country": "IN",
    "lat": 23.85931,
    "lng": 78.7852
  },
  {
    "name": "Rawālsar",
    "country": "IN",
    "lat": 31.63137,
    "lng": 76.83461
  },
  {
    "name": "Ramanattukara",
    "country": "IN",
    "lat": 11.17802,
    "lng": 75.86892
  },
  {
    "name": "Ratnāpuram",
    "country": "IN",
    "lat": 18.62827,
    "lng": 79.55166
  },
  {
    "name": "Raghunandanpur",
    "country": "IN",
    "lat": 24.65076,
    "lng": 87.97277
  },
  {
    "name": "Rampura Phul",
    "country": "IN",
    "lat": 30.27563,
    "lng": 75.24253
  },
  {
    "name": "Rangāpuram",
    "country": "IN",
    "lat": 13.14483,
    "lng": 79.39768
  },
  {
    "name": "Rakkiyapālaiyam",
    "country": "IN",
    "lat": 11.10607,
    "lng": 76.94253
  },
  {
    "name": "Raga",
    "country": "IN",
    "lat": 27.79931,
    "lng": 94.07426
  },
  {
    "name": "Rameswaram",
    "country": "IN",
    "lat": 14.74006,
    "lng": 78.54259
  },
  {
    "name": "Rajopatti urf Kota Bazar",
    "country": "IN",
    "lat": 26.58406,
    "lng": 85.50506
  },
  {
    "name": "Raj Pur Khurd",
    "country": "IN",
    "lat": 28.49445,
    "lng": 77.19083
  },
  {
    "name": "Raja Pur Khurd",
    "country": "IN",
    "lat": 28.63517,
    "lng": 77.03303
  },
  {
    "name": "Ranoli",
    "country": "IN",
    "lat": 22.40073,
    "lng": 73.13539
  },
  {
    "name": "Ravapara",
    "country": "IN",
    "lat": 22.79557,
    "lng": 70.82575
  },
  {
    "name": "Raval",
    "country": "IN",
    "lat": 21.91908,
    "lng": 69.48179
  },
  {
    "name": "Raurkela Industrial Township",
    "country": "IN",
    "lat": 22.19994,
    "lng": 84.86176
  },
  {
    "name": "Rathian",
    "country": "IN",
    "lat": 32.8953,
    "lng": 75.13082
  },
  {
    "name": "Rakh Gadi Garh",
    "country": "IN",
    "lat": 32.66923,
    "lng": 74.83887
  },
  {
    "name": "Raipur Domana",
    "country": "IN",
    "lat": 32.79844,
    "lng": 74.78265
  },
  {
    "name": "Rasikpur",
    "country": "IN",
    "lat": 24.28546,
    "lng": 87.25379
  },
  {
    "name": "Rahanal",
    "country": "IN",
    "lat": 19.2704,
    "lng": 73.02724
  },
  {
    "name": "Ranjangaon S",
    "country": "IN",
    "lat": 19.84404,
    "lng": 75.21482
  },
  {
    "name": "Ramgarh",
    "country": "IN",
    "lat": 20.56256,
    "lng": 85.99112
  },
  {
    "name": "Raipur Rasulpur",
    "country": "IN",
    "lat": 31.40155,
    "lng": 75.59434
  },
  {
    "name": "Rail",
    "country": "IN",
    "lat": 30.99899,
    "lng": 76.46759
  },
  {
    "name": "Ramapuram",
    "country": "IN",
    "lat": 13.03179,
    "lng": 80.18243
  },
  {
    "name": "Radhakishorenagar",
    "country": "IN",
    "lat": 23.86757,
    "lng": 91.34267
  },
  {
    "name": "Ramadi",
    "country": "IQ",
    "lat": 33.42056,
    "lng": 43.30778
  },
  {
    "name": "Razan",
    "country": "IR",
    "lat": 35.38625,
    "lng": 49.0334
  },
  {
    "name": "Ravānsar",
    "country": "IR",
    "lat": 34.7153,
    "lng": 46.6533
  },
  {
    "name": "Rasht",
    "country": "IR",
    "lat": 37.27611,
    "lng": 49.58862
  },
  {
    "name": "Rafsanjān",
    "country": "IR",
    "lat": 30.4067,
    "lng": 55.9939
  },
  {
    "name": "Ravanusa",
    "country": "IT",
    "lat": 37.26659,
    "lng": 13.96834
  },
  {
    "name": "Randazzo",
    "country": "IT",
    "lat": 37.87736,
    "lng": 14.95012
  },
  {
    "name": "Ramacca",
    "country": "IT",
    "lat": 37.38616,
    "lng": 14.69241
  },
  {
    "name": "Ragusa",
    "country": "IT",
    "lat": 36.92574,
    "lng": 14.72443
  },
  {
    "name": "Raffadali",
    "country": "IT",
    "lat": 37.40214,
    "lng": 13.53175
  },
  {
    "name": "Raddusa",
    "country": "IT",
    "lat": 37.47529,
    "lng": 14.53521
  },
  {
    "name": "Raccuja",
    "country": "IT",
    "lat": 38.05583,
    "lng": 14.91044
  },
  {
    "name": "Racalmuto",
    "country": "IT",
    "lat": 37.40498,
    "lng": 13.72995
  },
  {
    "name": "Racale",
    "country": "IT",
    "lat": 39.96086,
    "lng": 18.09154
  },
  {
    "name": "Raviscanina",
    "country": "IT",
    "lat": 41.3709,
    "lng": 14.24335
  },
  {
    "name": "Raveo",
    "country": "IT",
    "lat": 46.43392,
    "lng": 12.87165
  },
  {
    "name": "Ravenna",
    "country": "IT",
    "lat": 44.41344,
    "lng": 12.20121
  },
  {
    "name": "Ravello",
    "country": "IT",
    "lat": 40.64932,
    "lng": 14.61167
  },
  {
    "name": "Ravascletto",
    "country": "IT",
    "lat": 46.52504,
    "lng": 12.92138
  },
  {
    "name": "Ravarino",
    "country": "IT",
    "lat": 44.72475,
    "lng": 11.09588
  },
  {
    "name": "Rauscedo-Domanins",
    "country": "IT",
    "lat": 46.04083,
    "lng": 12.82472
  },
  {
    "name": "Rasura",
    "country": "IT",
    "lat": 46.10059,
    "lng": 9.55274
  },
  {
    "name": "Rassina",
    "country": "IT",
    "lat": 43.64737,
    "lng": 11.83632
  },
  {
    "name": "Rapone",
    "country": "IT",
    "lat": 40.8471,
    "lng": 15.49818
  },
  {
    "name": "Rapolla",
    "country": "IT",
    "lat": 40.97499,
    "lng": 15.67201
  },
  {
    "name": "Rapolano Terme",
    "country": "IT",
    "lat": 43.29498,
    "lng": 11.60264
  },
  {
    "name": "Rapino",
    "country": "IT",
    "lat": 42.20931,
    "lng": 14.18493
  },
  {
    "name": "Rapallo",
    "country": "IT",
    "lat": 44.3496,
    "lng": 9.22796
  },
  {
    "name": "Rapagnano",
    "country": "IT",
    "lat": 43.15985,
    "lng": 13.58873
  },
  {
    "name": "Ranco",
    "country": "IT",
    "lat": 45.79733,
    "lng": 8.57105
  },
  {
    "name": "Rancio Valcuvia",
    "country": "IT",
    "lat": 45.91594,
    "lng": 8.77157
  },
  {
    "name": "Ramon",
    "country": "IT",
    "lat": 45.71386,
    "lng": 11.86828
  },
  {
    "name": "Ramiseto",
    "country": "IT",
    "lat": 44.41284,
    "lng": 10.27689
  },
  {
    "name": "Raldon",
    "country": "IT",
    "lat": 45.34921,
    "lng": 11.03786
  },
  {
    "name": "Raiano",
    "country": "IT",
    "lat": 42.10158,
    "lng": 13.81386
  },
  {
    "name": "Radicondoli",
    "country": "IT",
    "lat": 43.26047,
    "lng": 11.04582
  },
  {
    "name": "Radicofani",
    "country": "IT",
    "lat": 42.89618,
    "lng": 11.76839
  },
  {
    "name": "Radda in Chianti",
    "country": "IT",
    "lat": 43.4854,
    "lng": 11.37437
  },
  {
    "name": "Racines",
    "country": "IT",
    "lat": 46.86667,
    "lng": 11.3
  },
  {
    "name": "Racconigi",
    "country": "IT",
    "lat": 44.76598,
    "lng": 7.67893
  },
  {
    "name": "Rabbi Fonti",
    "country": "IT",
    "lat": 46.39886,
    "lng": 10.84951
  },
  {
    "name": "Ramuscello",
    "country": "IT",
    "lat": 45.88105,
    "lng": 12.8846
  },
  {
    "name": "Racines - Ratschings",
    "country": "IT",
    "lat": 46.88183,
    "lng": 11.37827
  },
  {
    "name": "Rasun Anterselva - Rasen-Antholz",
    "country": "IT",
    "lat": 46.77853,
    "lng": 12.04729
  },
  {
    "name": "Ragoli",
    "country": "IT",
    "lat": 46.05423,
    "lng": 10.77855
  },
  {
    "name": "Ranzanico",
    "country": "IT",
    "lat": 45.78839,
    "lng": 9.93506
  },
  {
    "name": "Ragalna",
    "country": "IT",
    "lat": 37.63455,
    "lng": 14.94698
  },
  {
    "name": "Rassa",
    "country": "IT",
    "lat": 45.76821,
    "lng": 8.01208
  },
  {
    "name": "Ramponio Verna",
    "country": "IT",
    "lat": 45.99698,
    "lng": 9.06633
  },
  {
    "name": "Ranica",
    "country": "IT",
    "lat": 45.72328,
    "lng": 9.71335
  },
  {
    "name": "Rastignano-Carteria di Sesto",
    "country": "IT",
    "lat": 44.43623,
    "lng": 11.35695
  },
  {
    "name": "Rablà",
    "country": "IT",
    "lat": 46.67044,
    "lng": 11.06458
  },
  {
    "name": "Ravina",
    "country": "IT",
    "lat": 46.03944,
    "lng": 11.11215
  },
  {
    "name": "Ramiola",
    "country": "IT",
    "lat": 44.70055,
    "lng": 10.0911
  },
  {
    "name": "Raffa",
    "country": "IT",
    "lat": 45.57047,
    "lng": 10.52962
  },
  {
    "name": "Race Course",
    "country": "JM",
    "lat": 17.836,
    "lng": -77.2855
  },
  {
    "name": "Raymūn",
    "country": "JO",
    "lat": 32.28202,
    "lng": 35.82779
  },
  {
    "name": "Rausu",
    "country": "JP",
    "lat": 44.01806,
    "lng": 145.19197
  },
  {
    "name": "Rankoshimachi",
    "country": "JP",
    "lat": 42.80904,
    "lng": 140.53941
  },
  {
    "name": "Ranzan",
    "country": "JP",
    "lat": 36.05528,
    "lng": 139.31503
  },
  {
    "name": "Ramu",
    "country": "KE",
    "lat": 3.93147,
    "lng": 41.22295
  },
  {
    "name": "Rabuor",
    "country": "KE",
    "lat": -0.14989,
    "lng": 34.82584
  },
  {
    "name": "Razzakov",
    "country": "KG",
    "lat": 39.83895,
    "lng": 69.5276
  },
  {
    "name": "Rawannawi Village",
    "country": "KI",
    "lat": 2.05379,
    "lng": 173.26354
  },
  {
    "name": "Ranam",
    "country": "KP",
    "lat": 41.71361,
    "lng": 129.68444
  },
  {
    "name": "Rajin",
    "country": "KP",
    "lat": 42.25559,
    "lng": 130.28308
  },
  {
    "name": "Ra’s Bayrūt",
    "country": "LB",
    "lat": 33.9,
    "lng": 35.48333
  },
  {
    "name": "Ratnapura",
    "country": "LK",
    "lat": 6.6858,
    "lng": 80.4036
  },
  {
    "name": "Ramabanta",
    "country": "LS",
    "lat": -29.66732,
    "lng": 27.78695
  },
  {
    "name": "Raseiniai",
    "country": "LT",
    "lat": 55.37973,
    "lng": 23.12386
  },
  {
    "name": "Ramygala",
    "country": "LT",
    "lat": 55.514,
    "lng": 24.3
  },
  {
    "name": "Ramučiai",
    "country": "LT",
    "lat": 54.9483,
    "lng": 24.0305
  },
  {
    "name": "Radviliskis",
    "country": "LT",
    "lat": 55.81667,
    "lng": 23.53333
  },
  {
    "name": "Rasos",
    "country": "LT",
    "lat": 54.67877,
    "lng": 25.31173
  },
  {
    "name": "Rambrouch",
    "country": "LU",
    "lat": 49.83083,
    "lng": 5.845
  },
  {
    "name": "Rauna",
    "country": "LV",
    "lat": 57.33173,
    "lng": 25.60947
  },
  {
    "name": "Ragana",
    "country": "LV",
    "lat": 57.18074,
    "lng": 24.70731
  },
  {
    "name": "Ratba",
    "country": "MA",
    "lat": 34.77772,
    "lng": -4.93989
  },
  {
    "name": "Ras Kebdana",
    "country": "MA",
    "lat": 35.14069,
    "lng": -2.42455
  },
  {
    "name": "Ras el Ma",
    "country": "MA",
    "lat": 33.97399,
    "lng": -5.09613
  },
  {
    "name": "Rabat",
    "country": "MA",
    "lat": 34.01325,
    "lng": -6.83255
  },
  {
    "name": "Ras El Aïn",
    "country": "MA",
    "lat": 32.98253,
    "lng": -7.3975
  },
  {
    "name": "Ranohira",
    "country": "MG",
    "lat": -22.48333,
    "lng": 45.4
  },
  {
    "name": "Rankovce",
    "country": "MK",
    "lat": 42.16964,
    "lng": 22.11617
  },
  {
    "name": "Radovis",
    "country": "MK",
    "lat": 41.63833,
    "lng": 22.46472
  },
  {
    "name": "Radolista",
    "country": "MK",
    "lat": 41.16417,
    "lng": 20.62333
  },
  {
    "name": "Radishani",
    "country": "MK",
    "lat": 42.06111,
    "lng": 21.44778
  },
  {
    "name": "Rashaant",
    "country": "MN",
    "lat": 47.76667,
    "lng": 90.83333
  },
  {
    "name": "Rashaant",
    "country": "MN",
    "lat": 49.12667,
    "lng": 101.42806
  },
  {
    "name": "Rashaant",
    "country": "MN",
    "lat": 45.3,
    "lng": 106.2
  },
  {
    "name": "Rabat",
    "country": "MT",
    "lat": 35.88152,
    "lng": 14.39872
  },
  {
    "name": "Ramírez",
    "country": "MX",
    "lat": 25.95127,
    "lng": -97.78562
  },
  {
    "name": "Rascón",
    "country": "MX",
    "lat": 21.97075,
    "lng": -99.25742
  },
  {
    "name": "Rayón",
    "country": "MX",
    "lat": 21.84329,
    "lng": -99.64258
  },
  {
    "name": "Rayón",
    "country": "MX",
    "lat": 17.20113,
    "lng": -93.01079
  },
  {
    "name": "Raymundo Enríquez",
    "country": "MX",
    "lat": 14.86722,
    "lng": -92.31466
  },
  {
    "name": "Ramón F. Balboa",
    "country": "MX",
    "lat": 16.47427,
    "lng": -91.40318
  },
  {
    "name": "Rafael Lucio",
    "country": "MX",
    "lat": 19.59308,
    "lng": -96.99023
  },
  {
    "name": "Rafael J. García",
    "country": "MX",
    "lat": 19.25413,
    "lng": -97.18315
  },
  {
    "name": "Rafael Delgado",
    "country": "MX",
    "lat": 18.81014,
    "lng": -97.07172
  },
  {
    "name": "Rancho Viejo",
    "country": "MX",
    "lat": 16.33966,
    "lng": -97.96399
  },
  {
    "name": "Rancho Nuevo",
    "country": "MX",
    "lat": 18.07272,
    "lng": -93.07083
  },
  {
    "name": "Rafael Pascacio Gamboa",
    "country": "MX",
    "lat": 17.91818,
    "lng": -93.26833
  },
  {
    "name": "Rafael Ramírez",
    "country": "MX",
    "lat": 16.46199,
    "lng": -91.94523
  },
  {
    "name": "Rancho Viejo (Rancho Nuevo de la Democracia)",
    "country": "MX",
    "lat": 17.03257,
    "lng": -98.22389
  },
  {
    "name": "Rancho Viejo",
    "country": "MX",
    "lat": 19.44451,
    "lng": -96.78168
  },
  {
    "name": "Rancho del Padre",
    "country": "MX",
    "lat": 19.06553,
    "lng": -96.17281
  },
  {
    "name": "Rancho Nuevo",
    "country": "MX",
    "lat": 18.54366,
    "lng": -96.77665
  },
  {
    "name": "Rancho Alegre",
    "country": "MX",
    "lat": 19.62528,
    "lng": -99.68361
  },
  {
    "name": "Rancho Nuevo",
    "country": "MX",
    "lat": 22.40805,
    "lng": -102.34854
  },
  {
    "name": "Rancho Nuevo",
    "country": "MX",
    "lat": 22.22216,
    "lng": -100.92287
  },
  {
    "name": "Ranchito de Castro",
    "country": "MX",
    "lat": 25.58732,
    "lng": -108.41816
  },
  {
    "name": "Rayones",
    "country": "MX",
    "lat": 25.01799,
    "lng": -100.07362
  },
  {
    "name": "Rayón",
    "country": "MX",
    "lat": 29.71205,
    "lng": -110.56699
  },
  {
    "name": "Rancho Viejo",
    "country": "MX",
    "lat": 21.02091,
    "lng": -100.77142
  },
  {
    "name": "Rancho Nuevo de la Luz",
    "country": "MX",
    "lat": 20.96246,
    "lng": -101.64573
  },
  {
    "name": "Rancho Alegre",
    "country": "MX",
    "lat": 25.50275,
    "lng": -103.3277
  },
  {
    "name": "Ramos Arizpe",
    "country": "MX",
    "lat": 25.53928,
    "lng": -100.94742
  },
  {
    "name": "Ramón Corona",
    "country": "MX",
    "lat": 24.18611,
    "lng": -103.63028
  },
  {
    "name": "Rancho Nuevo de la Cruz",
    "country": "MX",
    "lat": 20.65105,
    "lng": -101.51786
  },
  {
    "name": "Rancho Viejo",
    "country": "MX",
    "lat": 19.24878,
    "lng": -100.41737
  },
  {
    "name": "Rancho Nuevo",
    "country": "MX",
    "lat": 20.6725,
    "lng": -97.20611
  },
  {
    "name": "Rancho Alegre [Fraccionamiento]",
    "country": "MX",
    "lat": 20.47361,
    "lng": -103.25778
  },
  {
    "name": "Raudales Malpaso",
    "country": "MX",
    "lat": 17.18833,
    "lng": -93.60583
  },
  {
    "name": "Rancho Verde",
    "country": "MX",
    "lat": 31.91611,
    "lng": -116.58833
  },
  {
    "name": "Rafael Yáñez Sosa (El Mezquite)",
    "country": "MX",
    "lat": 23.32833,
    "lng": -102.61028
  },
  {
    "name": "Rancho Chico",
    "country": "MX",
    "lat": 18.74667,
    "lng": -97.665
  },
  {
    "name": "Rancho Bellavista [Fraccionamiento]",
    "country": "MX",
    "lat": 20.60667,
    "lng": -100.44972
  },
  {
    "name": "Rancho Nuevo de Morelos (De Guadalupe)",
    "country": "MX",
    "lat": 22.34056,
    "lng": -101.78528
  },
  {
    "name": "Rancho Nuevo",
    "country": "MX",
    "lat": 18.58139,
    "lng": -97.22472
  },
  {
    "name": "Ranchería de Pocitos",
    "country": "MX",
    "lat": 19.39389,
    "lng": -97.75944
  },
  {
    "name": "Rancho de las Lomas",
    "country": "MX",
    "lat": 17.73972,
    "lng": -99.24583
  },
  {
    "name": "Rancho Viejo",
    "country": "MX",
    "lat": 16.865,
    "lng": -99.28944
  },
  {
    "name": "Rancho Alegre",
    "country": "MX",
    "lat": 20.20722,
    "lng": -97.63889
  },
  {
    "name": "Rancho Grande",
    "country": "MX",
    "lat": 18.35389,
    "lng": -96.34944
  },
  {
    "name": "Rancho de Guadalupe",
    "country": "MX",
    "lat": 21.21639,
    "lng": -101.01
  },
  {
    "name": "Rancho Nuevo del Llanito",
    "country": "MX",
    "lat": 20.82361,
    "lng": -101.36861
  },
  {
    "name": "Raub",
    "country": "MY",
    "lat": 3.7899,
    "lng": 101.857
  },
  {
    "name": "Ranau",
    "country": "MY",
    "lat": 5.9538,
    "lng": 116.6641
  },
  {
    "name": "Rasa",
    "country": "MY",
    "lat": 3.4955,
    "lng": 101.6294
  },
  {
    "name": "Rawang",
    "country": "MY",
    "lat": 3.3213,
    "lng": 101.5767
  },
  {
    "name": "Rantau Panjang",
    "country": "MY",
    "lat": 6.0219,
    "lng": 101.9767
  },
  {
    "name": "Rano",
    "country": "NG",
    "lat": 11.55684,
    "lng": 8.58065
  },
  {
    "name": "Rann",
    "country": "NG",
    "lat": 12.26938,
    "lng": 14.46552
  },
  {
    "name": "Rabah",
    "country": "NG",
    "lat": 13.12257,
    "lng": 5.50762
  },
  {
    "name": "Rama",
    "country": "NI",
    "lat": 12.15965,
    "lng": -84.21952
  },
  {
    "name": "Rancho Grande",
    "country": "NI",
    "lat": 13.23695,
    "lng": -85.55817
  },
  {
    "name": "Ravenstein",
    "country": "NL",
    "lat": 51.79667,
    "lng": 5.65
  },
  {
    "name": "Raamsdonksveer",
    "country": "NL",
    "lat": 51.69667,
    "lng": 4.87361
  },
  {
    "name": "Raamsdonk",
    "country": "NL",
    "lat": 51.6875,
    "lng": 4.90833
  },
  {
    "name": "Raam",
    "country": "NL",
    "lat": 51.65967,
    "lng": 5.63637
  },
  {
    "name": "Raalte",
    "country": "NL",
    "lat": 52.38583,
    "lng": 6.275
  },
  {
    "name": "Randenbroek",
    "country": "NL",
    "lat": 52.14863,
    "lng": 5.4012
  },
  {
    "name": "Raufoss",
    "country": "NO",
    "lat": 60.72604,
    "lng": 10.6133
  },
  {
    "name": "Ranemsletta",
    "country": "NO",
    "lat": 64.49447,
    "lng": 11.94912
  },
  {
    "name": "Randaberg",
    "country": "NO",
    "lat": 58.99955,
    "lng": 5.61871
  },
  {
    "name": "Ramberg",
    "country": "NO",
    "lat": 68.08991,
    "lng": 13.22989
  },
  {
    "name": "Rakkestad",
    "country": "NO",
    "lat": 59.42513,
    "lng": 11.34535
  },
  {
    "name": "Rawene",
    "country": "NZ",
    "lat": -35.40217,
    "lng": 173.50317
  },
  {
    "name": "Ravensbourne",
    "country": "NZ",
    "lat": -45.86667,
    "lng": 170.55
  },
  {
    "name": "Raupunga",
    "country": "NZ",
    "lat": -39.03333,
    "lng": 177.21667
  },
  {
    "name": "Raumati Beach",
    "country": "NZ",
    "lat": -40.91667,
    "lng": 174.98333
  },
  {
    "name": "Rapaura",
    "country": "NZ",
    "lat": -41.46667,
    "lng": 173.9
  },
  {
    "name": "Rangiriri",
    "country": "NZ",
    "lat": -37.4305,
    "lng": 175.12971
  },
  {
    "name": "Ramarama",
    "country": "NZ",
    "lat": -37.15,
    "lng": 174.95
  },
  {
    "name": "Rakaia",
    "country": "NZ",
    "lat": -43.75,
    "lng": 172.01667
  },
  {
    "name": "Rahotu",
    "country": "NZ",
    "lat": -39.33333,
    "lng": 173.8
  },
  {
    "name": "Raglan",
    "country": "NZ",
    "lat": -37.8,
    "lng": 174.88333
  },
  {
    "name": "Rangiora",
    "country": "NZ",
    "lat": -43.30437,
    "lng": 172.58356
  },
  {
    "name": "Raetihi",
    "country": "NZ",
    "lat": -39.42877,
    "lng": 175.27725
  },
  {
    "name": "Raumanga",
    "country": "NZ",
    "lat": -35.74488,
    "lng": 174.30578
  },
  {
    "name": "Raureka",
    "country": "NZ",
    "lat": -39.63824,
    "lng": 176.82021
  },
  {
    "name": "Rambala",
    "country": "PA",
    "lat": 8.92617,
    "lng": -82.18378
  },
  {
    "name": "Ranrahirca",
    "country": "PE",
    "lat": -9.17326,
    "lng": -77.72292
  },
  {
    "name": "Ramón Castilla",
    "country": "PE",
    "lat": -4.26066,
    "lng": -69.95714
  },
  {
    "name": "Rahuapampa",
    "country": "PE",
    "lat": -9.35911,
    "lng": -77.07858
  },
  {
    "name": "Raquía",
    "country": "PE",
    "lat": -10.15753,
    "lng": -77.47034
  },
  {
    "name": "Ranracancha",
    "country": "PE",
    "lat": -13.53361,
    "lng": -73.60528
  },
  {
    "name": "Raján",
    "country": "PE",
    "lat": -10.38687,
    "lng": -77.21914
  },
  {
    "name": "Rapayan",
    "country": "PE",
    "lat": -9.20549,
    "lng": -76.76138
  },
  {
    "name": "Ragash",
    "country": "PE",
    "lat": -8.53194,
    "lng": -77.66593
  },
  {
    "name": "Rabaul",
    "country": "PG",
    "lat": -4.20037,
    "lng": 152.16297
  },
  {
    "name": "Rauna",
    "country": "PG",
    "lat": -5.7359,
    "lng": 144.28834
  },
  {
    "name": "Rapu-Rapu",
    "country": "PH",
    "lat": 13.18649,
    "lng": 124.12545
  },
  {
    "name": "Ransang",
    "country": "PH",
    "lat": 8.96028,
    "lng": 117.58278
  },
  {
    "name": "Ranao",
    "country": "PH",
    "lat": 16.2076,
    "lng": 119.8155
  },
  {
    "name": "Ramos West",
    "country": "PH",
    "lat": 16.6984,
    "lng": 121.6136
  },
  {
    "name": "Ramos",
    "country": "PH",
    "lat": 15.6653,
    "lng": 120.6406
  },
  {
    "name": "Ramon Magsaysay",
    "country": "PH",
    "lat": 8.00194,
    "lng": 123.50944
  },
  {
    "name": "Ramon",
    "country": "PH",
    "lat": 16.78416,
    "lng": 121.53504
  },
  {
    "name": "Ramain",
    "country": "PH",
    "lat": 7.97083,
    "lng": 124.34528
  },
  {
    "name": "Rajal Norte",
    "country": "PH",
    "lat": 15.44485,
    "lng": 120.86256
  },
  {
    "name": "Ragay",
    "country": "PH",
    "lat": 13.8183,
    "lng": 122.7923
  },
  {
    "name": "Ragan Norte",
    "country": "PH",
    "lat": 17.32318,
    "lng": 121.77428
  },
  {
    "name": "Ragandang",
    "country": "PH",
    "lat": 6.66386,
    "lng": 124.12063
  },
  {
    "name": "Rancheria Payau",
    "country": "PH",
    "lat": 7.8541,
    "lng": 123.1598
  },
  {
    "name": "Rawalakot",
    "country": "PK",
    "lat": 33.85782,
    "lng": 73.76043
  },
  {
    "name": "Rawalpindi",
    "country": "PK",
    "lat": 33.59733,
    "lng": 73.0479
  },
  {
    "name": "Ratodero",
    "country": "PK",
    "lat": 27.80227,
    "lng": 68.28902
  },
  {
    "name": "Rasulnagar",
    "country": "PK",
    "lat": 32.32794,
    "lng": 73.7804
  },
  {
    "name": "Ranipur",
    "country": "PK",
    "lat": 27.2872,
    "lng": 68.50623
  },
  {
    "name": "Rajo Khanani",
    "country": "PK",
    "lat": 24.98391,
    "lng": 68.8537
  },
  {
    "name": "Rajanpur",
    "country": "PK",
    "lat": 29.10408,
    "lng": 70.32969
  },
  {
    "name": "Raja Jang",
    "country": "PK",
    "lat": 31.22078,
    "lng": 74.25483
  },
  {
    "name": "Raiwind",
    "country": "PK",
    "lat": 31.24895,
    "lng": 74.21534
  },
  {
    "name": "Rahim Yar Khan",
    "country": "PK",
    "lat": 28.41987,
    "lng": 70.30345
  },
  {
    "name": "Rabwah",
    "country": "PK",
    "lat": 31.75511,
    "lng": 72.91403
  },
  {
    "name": "Rawa Mazowiecka",
    "country": "PL",
    "lat": 51.76437,
    "lng": 20.25493
  },
  {
    "name": "Raszyn",
    "country": "PL",
    "lat": 52.15603,
    "lng": 20.9226
  },
  {
    "name": "Raniżów",
    "country": "PL",
    "lat": 50.25873,
    "lng": 21.97137
  },
  {
    "name": "Rakszawa",
    "country": "PL",
    "lat": 50.16051,
    "lng": 22.23907
  },
  {
    "name": "Raków",
    "country": "PL",
    "lat": 50.67427,
    "lng": 21.04517
  },
  {
    "name": "Rajgród",
    "country": "PL",
    "lat": 53.73102,
    "lng": 22.70515
  },
  {
    "name": "Radzyń Podlaski",
    "country": "PL",
    "lat": 51.78333,
    "lng": 22.61667
  },
  {
    "name": "Radzymin",
    "country": "PL",
    "lat": 52.41592,
    "lng": 21.18415
  },
  {
    "name": "Radziłów",
    "country": "PL",
    "lat": 53.40994,
    "lng": 22.40988
  },
  {
    "name": "Radziejowice",
    "country": "PL",
    "lat": 52.00834,
    "lng": 20.5477
  },
  {
    "name": "Radzanów",
    "country": "PL",
    "lat": 52.94238,
    "lng": 20.09219
  },
  {
    "name": "Radzanów",
    "country": "PL",
    "lat": 51.55786,
    "lng": 20.86398
  },
  {
    "name": "Radymno",
    "country": "PL",
    "lat": 49.9472,
    "lng": 22.82375
  },
  {
    "name": "Radoszyce",
    "country": "PL",
    "lat": 51.07392,
    "lng": 20.25836
  },
  {
    "name": "Radomyśl Wielki",
    "country": "PL",
    "lat": 50.19693,
    "lng": 21.27693
  },
  {
    "name": "Radomyśl",
    "country": "PL",
    "lat": 50.68101,
    "lng": 21.94365
  },
  {
    "name": "Radom",
    "country": "PL",
    "lat": 51.40253,
    "lng": 21.14714
  },
  {
    "name": "Radłów",
    "country": "PL",
    "lat": 50.08419,
    "lng": 20.84967
  },
  {
    "name": "Radgoszcz",
    "country": "PL",
    "lat": 50.2058,
    "lng": 21.11315
  },
  {
    "name": "Radecznica",
    "country": "PL",
    "lat": 50.75155,
    "lng": 22.82976
  },
  {
    "name": "Raczki",
    "country": "PL",
    "lat": 53.98749,
    "lng": 22.78487
  },
  {
    "name": "Racławice",
    "country": "PL",
    "lat": 50.5137,
    "lng": 22.16552
  },
  {
    "name": "Raciąż",
    "country": "PL",
    "lat": 52.78152,
    "lng": 20.1177
  },
  {
    "name": "Rachanie",
    "country": "PL",
    "lat": 50.53842,
    "lng": 23.54688
  },
  {
    "name": "Rawicz",
    "country": "PL",
    "lat": 51.60946,
    "lng": 16.85852
  },
  {
    "name": "Ratowice",
    "country": "PL",
    "lat": 51.03308,
    "lng": 17.27205
  },
  {
    "name": "Raszowa",
    "country": "PL",
    "lat": 50.39779,
    "lng": 18.17722
  },
  {
    "name": "Raszków",
    "country": "PL",
    "lat": 51.71828,
    "lng": 17.72571
  },
  {
    "name": "Raszczyce",
    "country": "PL",
    "lat": 50.1219,
    "lng": 18.29962
  },
  {
    "name": "Rakoniewice",
    "country": "PL",
    "lat": 52.13906,
    "lng": 16.27346
  },
  {
    "name": "Rajsko",
    "country": "PL",
    "lat": 50.01193,
    "lng": 19.19294
  },
  {
    "name": "Rajcza",
    "country": "PL",
    "lat": 49.50927,
    "lng": 19.11278
  },
  {
    "name": "Radzyń Chełmiński",
    "country": "PL",
    "lat": 53.38509,
    "lng": 18.93725
  },
  {
    "name": "Radziszów",
    "country": "PL",
    "lat": 49.93531,
    "lng": 19.81522
  },
  {
    "name": "Radzionków",
    "country": "PL",
    "lat": 50.40026,
    "lng": 18.90232
  },
  {
    "name": "Radziejów",
    "country": "PL",
    "lat": 52.62481,
    "lng": 18.52771
  },
  {
    "name": "Radziechowy",
    "country": "PL",
    "lat": 49.64651,
    "lng": 19.13115
  },
  {
    "name": "Radzanowo",
    "country": "PL",
    "lat": 52.57306,
    "lng": 19.89109
  },
  {
    "name": "Radowo Małe",
    "country": "PL",
    "lat": 53.66575,
    "lng": 15.44789
  },
  {
    "name": "Radostowice",
    "country": "PL",
    "lat": 50.00311,
    "lng": 18.88103
  },
  {
    "name": "Radomsko",
    "country": "PL",
    "lat": 51.06713,
    "lng": 19.44477
  },
  {
    "name": "Radomin",
    "country": "PL",
    "lat": 53.0867,
    "lng": 19.19415
  },
  {
    "name": "Radocza",
    "country": "PL",
    "lat": 49.91774,
    "lng": 19.47498
  },
  {
    "name": "Radlin",
    "country": "PL",
    "lat": 50.0502,
    "lng": 18.47626
  },
  {
    "name": "Radków",
    "country": "PL",
    "lat": 50.50426,
    "lng": 16.40061
  },
  {
    "name": "Racławice Śląskie",
    "country": "PL",
    "lat": 50.31204,
    "lng": 17.77528
  },
  {
    "name": "Racławice",
    "country": "PL",
    "lat": 50.19344,
    "lng": 19.67686
  },
  {
    "name": "Racibórz",
    "country": "PL",
    "lat": 50.09195,
    "lng": 18.21928
  },
  {
    "name": "Raciążek",
    "country": "PL",
    "lat": 52.8565,
    "lng": 18.81334
  },
  {
    "name": "Rabka-Zdrój",
    "country": "PL",
    "lat": 49.60889,
    "lng": 19.96654
  },
  {
    "name": "Raba Wyżna",
    "country": "PL",
    "lat": 49.56681,
    "lng": 19.87967
  },
  {
    "name": "Radwanice",
    "country": "PL",
    "lat": 51.57083,
    "lng": 15.94803
  },
  {
    "name": "Radwanice",
    "country": "PL",
    "lat": 51.05413,
    "lng": 17.10932
  },
  {
    "name": "Rafael Capo",
    "country": "PR",
    "lat": 18.40717,
    "lng": -66.78212
  },
  {
    "name": "Rafael Gonzalez",
    "country": "PR",
    "lat": 18.42745,
    "lng": -66.78684
  },
  {
    "name": "Rafael Hernandez",
    "country": "PR",
    "lat": 18.47133,
    "lng": -67.07907
  },
  {
    "name": "Ramos",
    "country": "PR",
    "lat": 18.33967,
    "lng": -65.71266
  },
  {
    "name": "Rafaḩ",
    "country": "PS",
    "lat": 31.29722,
    "lng": 34.24357
  },
  {
    "name": "Rantīs",
    "country": "PS",
    "lat": 32.02797,
    "lng": 35.01879
  },
  {
    "name": "Rammūn",
    "country": "PS",
    "lat": 31.93342,
    "lng": 35.29821
  },
  {
    "name": "Ramallah",
    "country": "PS",
    "lat": 31.89964,
    "lng": 35.20422
  },
  {
    "name": "Ramada",
    "country": "PT",
    "lat": 38.80368,
    "lng": -9.1877
  },
  {
    "name": "Ramalde do Meio",
    "country": "PT",
    "lat": 41.17597,
    "lng": -8.64043
  },
  {
    "name": "Rabo de Peixe",
    "country": "PT",
    "lat": 37.81022,
    "lng": -25.58263
  },
  {
    "name": "Rast",
    "country": "RO",
    "lat": 43.88333,
    "lng": 23.28333
  },
  {
    "name": "Rasova",
    "country": "RO",
    "lat": 44.24616,
    "lng": 27.93466
  },
  {
    "name": "Rași",
    "country": "RO",
    "lat": 44.53534,
    "lng": 26.92485
  },
  {
    "name": "Rasa",
    "country": "RO",
    "lat": 44.21404,
    "lng": 27.14717
  },
  {
    "name": "Rapoltu Mare",
    "country": "RO",
    "lat": 45.86667,
    "lng": 23.06667
  },
  {
    "name": "Ramna",
    "country": "RO",
    "lat": 45.43833,
    "lng": 21.68833
  },
  {
    "name": "Rafaila",
    "country": "RO",
    "lat": 46.80064,
    "lng": 27.36236
  },
  {
    "name": "Radu Vodă",
    "country": "RO",
    "lat": 44.38563,
    "lng": 26.92541
  },
  {
    "name": "Radovanu",
    "country": "RO",
    "lat": 44.2,
    "lng": 26.51667
  },
  {
    "name": "Radovan",
    "country": "RO",
    "lat": 44.16667,
    "lng": 23.61667
  },
  {
    "name": "Radomir",
    "country": "RO",
    "lat": 44.12115,
    "lng": 24.16832
  },
  {
    "name": "Radomireşti",
    "country": "RO",
    "lat": 44.11667,
    "lng": 24.68333
  },
  {
    "name": "Radna",
    "country": "RO",
    "lat": 46.09444,
    "lng": 21.68732
  },
  {
    "name": "Racu",
    "country": "RO",
    "lat": 46.45178,
    "lng": 25.7606
  },
  {
    "name": "Racşa",
    "country": "RO",
    "lat": 47.82068,
    "lng": 23.33247
  },
  {
    "name": "Racoviţeni",
    "country": "RO",
    "lat": 45.36667,
    "lng": 26.9
  },
  {
    "name": "Racoviţa",
    "country": "RO",
    "lat": 45.69833,
    "lng": 21.63583
  },
  {
    "name": "Racoviţa",
    "country": "RO",
    "lat": 45.68333,
    "lng": 24.35
  },
  {
    "name": "Racoviţa",
    "country": "RO",
    "lat": 45.41667,
    "lng": 24.31667
  },
  {
    "name": "Racoviţa",
    "country": "RO",
    "lat": 45.3,
    "lng": 27.45
  },
  {
    "name": "Racovița",
    "country": "RO",
    "lat": 44.97081,
    "lng": 24.97582
  },
  {
    "name": "Racovița",
    "country": "RO",
    "lat": 44.83927,
    "lng": 25.62082
  },
  {
    "name": "Racova",
    "country": "RO",
    "lat": 46.7,
    "lng": 26.75
  },
  {
    "name": "Raciu",
    "country": "RO",
    "lat": 44.81791,
    "lng": 25.44106
  },
  {
    "name": "Rachieri",
    "country": "RO",
    "lat": 44.95438,
    "lng": 26.12841
  },
  {
    "name": "Rachelu",
    "country": "RO",
    "lat": 45.28667,
    "lng": 28.32349
  },
  {
    "name": "Racoș",
    "country": "RO",
    "lat": 46.02524,
    "lng": 25.41075
  },
  {
    "name": "Ražanj",
    "country": "RS",
    "lat": 43.67222,
    "lng": 21.54944
  },
  {
    "name": "Ravni Topolovac",
    "country": "RS",
    "lat": 45.46082,
    "lng": 20.56939
  },
  {
    "name": "Ralja",
    "country": "RS",
    "lat": 44.57222,
    "lng": 20.56222
  },
  {
    "name": "Rakovica",
    "country": "RS",
    "lat": 44.74194,
    "lng": 20.44139
  },
  {
    "name": "Rajince",
    "country": "RS",
    "lat": 42.3787,
    "lng": 21.69591
  },
  {
    "name": "Radovnica",
    "country": "RS",
    "lat": 42.43364,
    "lng": 22.22861
  },
  {
    "name": "Radojevo",
    "country": "RS",
    "lat": 45.74617,
    "lng": 20.78917
  },
  {
    "name": "Radenka",
    "country": "RS",
    "lat": 44.58345,
    "lng": 21.76469
  },
  {
    "name": "Rača",
    "country": "RS",
    "lat": 44.22712,
    "lng": 20.97754
  },
  {
    "name": "Raška",
    "country": "RS",
    "lat": 43.28722,
    "lng": 20.61528
  },
  {
    "name": "Ravno Selo",
    "country": "RS",
    "lat": 45.44967,
    "lng": 19.62097
  },
  {
    "name": "Ravnje",
    "country": "RS",
    "lat": 44.94326,
    "lng": 19.4228
  },
  {
    "name": "Ratkovo",
    "country": "RS",
    "lat": 45.45566,
    "lng": 19.33728
  },
  {
    "name": "Radenković",
    "country": "RS",
    "lat": 44.92191,
    "lng": 19.49543
  },
  {
    "name": "Razumnoye",
    "country": "RU",
    "lat": 50.53439,
    "lng": 36.68462
  },
  {
    "name": "Razliv",
    "country": "RU",
    "lat": 60.07919,
    "lng": 29.97206
  },
  {
    "name": "Rayevskiy",
    "country": "RU",
    "lat": 54.06398,
    "lng": 54.93378
  },
  {
    "name": "Rayevskaya",
    "country": "RU",
    "lat": 44.83571,
    "lng": 37.55577
  },
  {
    "name": "Rassvet",
    "country": "RU",
    "lat": 46.83333,
    "lng": 40.75
  },
  {
    "name": "Rasskazovo",
    "country": "RU",
    "lat": 52.66384,
    "lng": 41.88915
  },
  {
    "name": "Rasshevatskaya",
    "country": "RU",
    "lat": 45.5748,
    "lng": 41.03496
  },
  {
    "name": "Ramon’",
    "country": "RU",
    "lat": 51.91378,
    "lng": 39.33676
  },
  {
    "name": "Rameshki",
    "country": "RU",
    "lat": 57.34382,
    "lng": 36.04429
  },
  {
    "name": "Ramenskoye",
    "country": "RU",
    "lat": 55.56341,
    "lng": 38.24152
  },
  {
    "name": "Ramenki",
    "country": "RU",
    "lat": 55.7,
    "lng": 37.5
  },
  {
    "name": "Rakitnoye",
    "country": "RU",
    "lat": 50.84076,
    "lng": 35.85212
  },
  {
    "name": "Rakhmanovo",
    "country": "RU",
    "lat": 55.74401,
    "lng": 38.61124
  },
  {
    "name": "Radovitskiy",
    "country": "RU",
    "lat": 55.1282,
    "lng": 39.7956
  },
  {
    "name": "Radumlya",
    "country": "RU",
    "lat": 56.06901,
    "lng": 37.14979
  },
  {
    "name": "Raditsa-Krylovka",
    "country": "RU",
    "lat": 53.31712,
    "lng": 34.35742
  },
  {
    "name": "Radishchevo",
    "country": "RU",
    "lat": 52.85176,
    "lng": 47.8645
  },
  {
    "name": "Radchenko",
    "country": "RU",
    "lat": 56.68027,
    "lng": 36.37178
  },
  {
    "name": "Rabotki",
    "country": "RU",
    "lat": 56.04147,
    "lng": 44.60265
  },
  {
    "name": "Rabocheostrovsk",
    "country": "RU",
    "lat": 64.98507,
    "lng": 34.77587
  },
  {
    "name": "Razvilka",
    "country": "RU",
    "lat": 55.59209,
    "lng": 37.74085
  },
  {
    "name": "Raduzhnyy",
    "country": "RU",
    "lat": 59.48333,
    "lng": 49.65
  },
  {
    "name": "Raduzhnyy",
    "country": "RU",
    "lat": 55.1368,
    "lng": 38.72803
  },
  {
    "name": "Razdolinsk",
    "country": "RU",
    "lat": 58.418,
    "lng": 94.616
  },
  {
    "name": "Rassvet",
    "country": "RU",
    "lat": 56.999,
    "lng": 91.4724
  },
  {
    "name": "Raduzhny",
    "country": "RU",
    "lat": 62.09611,
    "lng": 77.475
  },
  {
    "name": "Razdol’noye",
    "country": "RU",
    "lat": 43.54039,
    "lng": 131.89728
  },
  {
    "name": "Raychikhinsk",
    "country": "RU",
    "lat": 49.79573,
    "lng": 129.40346
  },
  {
    "name": "Raduzhnyy",
    "country": "RU",
    "lat": 58.49899,
    "lng": 49.64347
  },
  {
    "name": "Raduzhnyy",
    "country": "RU",
    "lat": 56.0038,
    "lng": 40.33905
  },
  {
    "name": "Rangiro",
    "country": "RW",
    "lat": -2.4045,
    "lng": 29.1606
  },
  {
    "name": "Raḩīmah",
    "country": "SA",
    "lat": 26.70791,
    "lng": 50.06194
  },
  {
    "name": "Rahad al Bardi",
    "country": "SD",
    "lat": 11.3,
    "lng": 23.88333
  },
  {
    "name": "Rabak",
    "country": "SD",
    "lat": 13.18087,
    "lng": 32.73999
  },
  {
    "name": "Ramnäs",
    "country": "SE",
    "lat": 59.76667,
    "lng": 16.2
  },
  {
    "name": "Rannebergen",
    "country": "SE",
    "lat": 57.80236,
    "lng": 12.07131
  },
  {
    "name": "Radin Mas",
    "country": "SG",
    "lat": 1.27389,
    "lng": 103.82417
  },
  {
    "name": "Razvanje",
    "country": "SI",
    "lat": 46.51444,
    "lng": 15.63611
  },
  {
    "name": "Ravne na Koroškem",
    "country": "SI",
    "lat": 46.54315,
    "lng": 14.97053
  },
  {
    "name": "Ravne",
    "country": "SI",
    "lat": 46.41413,
    "lng": 15.06087
  },
  {
    "name": "Rakičan",
    "country": "SI",
    "lat": 46.65167,
    "lng": 16.20417
  },
  {
    "name": "Rakek",
    "country": "SI",
    "lat": 45.81333,
    "lng": 14.31111
  },
  {
    "name": "Radovljica",
    "country": "SI",
    "lat": 46.34347,
    "lng": 14.17547
  },
  {
    "name": "Radomlje",
    "country": "SI",
    "lat": 46.17361,
    "lng": 14.61222
  },
  {
    "name": "Radlje ob Dravi",
    "country": "SI",
    "lat": 46.61527,
    "lng": 15.22472
  },
  {
    "name": "Radenci",
    "country": "SI",
    "lat": 46.64201,
    "lng": 16.03781
  },
  {
    "name": "Radeče",
    "country": "SI",
    "lat": 46.06551,
    "lng": 15.18206
  },
  {
    "name": "Rače",
    "country": "SI",
    "lat": 46.45225,
    "lng": 15.68095
  },
  {
    "name": "Razkrižje",
    "country": "SI",
    "lat": 46.52183,
    "lng": 16.27877
  },
  {
    "name": "Radizel",
    "country": "SI",
    "lat": 46.47444,
    "lng": 15.65583
  },
  {
    "name": "Rastice",
    "country": "SK",
    "lat": 48.11667,
    "lng": 17.41667
  },
  {
    "name": "Raková",
    "country": "SK",
    "lat": 49.44481,
    "lng": 18.73792
  },
  {
    "name": "Rajecké Teplice",
    "country": "SK",
    "lat": 49.12716,
    "lng": 18.68653
  },
  {
    "name": "Rajec",
    "country": "SK",
    "lat": 49.08899,
    "lng": 18.64007
  },
  {
    "name": "Radošovce",
    "country": "SK",
    "lat": 48.77189,
    "lng": 17.28118
  },
  {
    "name": "Ranérou",
    "country": "SN",
    "lat": 15.3,
    "lng": -13.96667
  },
  {
    "name": "Raja",
    "country": "SS",
    "lat": 8.4675,
    "lng": 25.67833
  },
  {
    "name": "Rasm al Ḩarmal",
    "country": "SY",
    "lat": 36.24486,
    "lng": 37.71607
  },
  {
    "name": "Ra’s al ‘Ayn",
    "country": "SY",
    "lat": 36.85034,
    "lng": 40.07055
  },
  {
    "name": "Rankūs",
    "country": "SY",
    "lat": 33.75623,
    "lng": 36.3883
  },
  {
    "name": "Rabī‘ah",
    "country": "SY",
    "lat": 35.78656,
    "lng": 36.03825
  },
  {
    "name": "Ra’s al Khashūfah",
    "country": "SY",
    "lat": 34.82653,
    "lng": 36.05167
  },
  {
    "name": "Ratchaburi",
    "country": "TH",
    "lat": 13.53671,
    "lng": 99.81712
  },
  {
    "name": "Ranong",
    "country": "TH",
    "lat": 9.96583,
    "lng": 98.63476
  },
  {
    "name": "Rawai",
    "country": "TH",
    "lat": 7.77965,
    "lng": 98.32532
  },
  {
    "name": "Rayong",
    "country": "TH",
    "lat": 12.68095,
    "lng": 101.25798
  },
  {
    "name": "Rattaphum",
    "country": "TH",
    "lat": 7.13478,
    "lng": 100.25647
  },
  {
    "name": "Rattanaburi",
    "country": "TH",
    "lat": 15.31788,
    "lng": 103.84859
  },
  {
    "name": "Rat Burana",
    "country": "TH",
    "lat": 13.68219,
    "lng": 100.50603
  },
  {
    "name": "Rasi Salai",
    "country": "TH",
    "lat": 15.34466,
    "lng": 104.15476
  },
  {
    "name": "Ranot",
    "country": "TH",
    "lat": 7.77768,
    "lng": 100.32134
  },
  {
    "name": "Ra-ngae",
    "country": "TH",
    "lat": 6.29678,
    "lng": 101.72844
  },
  {
    "name": "Raman",
    "country": "TH",
    "lat": 6.47862,
    "lng": 101.42414
  },
  {
    "name": "Ratchasan",
    "country": "TH",
    "lat": 13.78211,
    "lng": 101.28133
  },
  {
    "name": "Ratchathewi",
    "country": "TH",
    "lat": 13.759,
    "lng": 100.53358
  },
  {
    "name": "Ratsada",
    "country": "TH",
    "lat": 7.97467,
    "lng": 99.63353
  },
  {
    "name": "Rattanawapi",
    "country": "TH",
    "lat": 18.21365,
    "lng": 103.17967
  },
  {
    "name": "Rasht",
    "country": "TJ",
    "lat": 39.02871,
    "lng": 70.37446
  },
  {
    "name": "Rass el Djebel",
    "country": "TN",
    "lat": 37.21572,
    "lng": 10.1253
  },
  {
    "name": "Rafrāf",
    "country": "TN",
    "lat": 37.19043,
    "lng": 10.18365
  },
  {
    "name": "Radès",
    "country": "TN",
    "lat": 36.76946,
    "lng": 10.27468
  },
  {
    "name": "Razdol’noye",
    "country": "UA",
    "lat": 45.77083,
    "lng": 33.48777
  },
  {
    "name": "Raihorodok",
    "country": "UA",
    "lat": 48.90209,
    "lng": 37.72467
  },
  {
    "name": "Rava-Ruska",
    "country": "UA",
    "lat": 50.23079,
    "lng": 23.62825
  },
  {
    "name": "Ratne",
    "country": "UA",
    "lat": 51.6683,
    "lng": 24.5303
  },
  {
    "name": "Rashkiv",
    "country": "UA",
    "lat": 48.51049,
    "lng": 26.26889
  },
  {
    "name": "Ralivka",
    "country": "UA",
    "lat": 49.49982,
    "lng": 23.23739
  },
  {
    "name": "Rakiv Lis",
    "country": "UA",
    "lat": 51.62174,
    "lng": 24.92427
  },
  {
    "name": "Rakoshyno",
    "country": "UA",
    "lat": 48.46631,
    "lng": 22.59692
  },
  {
    "name": "Rakhiv",
    "country": "UA",
    "lat": 48.05472,
    "lng": 24.20314
  },
  {
    "name": "Rafalivka",
    "country": "UA",
    "lat": 51.31143,
    "lng": 25.9956
  },
  {
    "name": "Radushne",
    "country": "UA",
    "lat": 47.81548,
    "lng": 33.51015
  },
  {
    "name": "Radisnyy Sad",
    "country": "UA",
    "lat": 46.90089,
    "lng": 31.98839
  },
  {
    "name": "Radisne",
    "country": "UA",
    "lat": 47.0002,
    "lng": 30.33928
  },
  {
    "name": "Radomyshl",
    "country": "UA",
    "lat": 50.49613,
    "lng": 29.22911
  },
  {
    "name": "Radens’k",
    "country": "UA",
    "lat": 46.5486,
    "lng": 32.92787
  },
  {
    "name": "Radekhiv",
    "country": "UA",
    "lat": 50.28249,
    "lng": 24.64279
  },
  {
    "name": "Radcha",
    "country": "UA",
    "lat": 48.85081,
    "lng": 24.65603
  },
  {
    "name": "Raukhivka",
    "country": "UA",
    "lat": 47.16667,
    "lng": 30.81771
  },
  {
    "name": "Radyvyliv",
    "country": "UA",
    "lat": 50.12994,
    "lng": 25.25576
  },
  {
    "name": "Razdol’noye",
    "country": "UA",
    "lat": 45.36161,
    "lng": 34.85482
  },
  {
    "name": "Rakai",
    "country": "UG",
    "lat": -0.72,
    "lng": 31.48389
  },
  {
    "name": "Ragland",
    "country": "US",
    "lat": 33.74454,
    "lng": -86.15581
  },
  {
    "name": "Rainbow City",
    "country": "US",
    "lat": 33.95482,
    "lng": -86.04192
  },
  {
    "name": "Rainsville",
    "country": "US",
    "lat": 34.49425,
    "lng": -85.84775
  },
  {
    "name": "Raoul",
    "country": "US",
    "lat": 34.44954,
    "lng": -83.59434
  },
  {
    "name": "Ray City",
    "country": "US",
    "lat": 31.07464,
    "lng": -83.19932
  },
  {
    "name": "Ramsey",
    "country": "US",
    "lat": 39.14449,
    "lng": -89.10868
  },
  {
    "name": "Raceland",
    "country": "US",
    "lat": 38.54008,
    "lng": -82.7285
  },
  {
    "name": "Radcliff",
    "country": "US",
    "lat": 37.84035,
    "lng": -85.94913
  },
  {
    "name": "Raceland",
    "country": "US",
    "lat": 29.72743,
    "lng": -90.59898
  },
  {
    "name": "Rayne",
    "country": "US",
    "lat": 30.23493,
    "lng": -92.26846
  },
  {
    "name": "Rayville",
    "country": "US",
    "lat": 32.47736,
    "lng": -91.75485
  },
  {
    "name": "Ramblewood",
    "country": "US",
    "lat": 39.36288,
    "lng": -76.58691
  },
  {
    "name": "Randallstown",
    "country": "US",
    "lat": 39.36733,
    "lng": -76.79525
  },
  {
    "name": "Raymore",
    "country": "US",
    "lat": 38.80195,
    "lng": -94.45273
  },
  {
    "name": "Raytown",
    "country": "US",
    "lat": 39.00862,
    "lng": -94.46356
  },
  {
    "name": "Raleigh",
    "country": "US",
    "lat": 32.03349,
    "lng": -89.52229
  },
  {
    "name": "Rawls Springs",
    "country": "US",
    "lat": 31.38073,
    "lng": -89.37145
  },
  {
    "name": "Raymond",
    "country": "US",
    "lat": 32.25931,
    "lng": -90.4226
  },
  {
    "name": "Raeford",
    "country": "US",
    "lat": 34.981,
    "lng": -79.2242
  },
  {
    "name": "Raleigh",
    "country": "US",
    "lat": 35.7721,
    "lng": -78.63861
  },
  {
    "name": "Ramseur",
    "country": "US",
    "lat": 35.73347,
    "lng": -79.65253
  },
  {
    "name": "Randleman",
    "country": "US",
    "lat": 35.81791,
    "lng": -79.80309
  },
  {
    "name": "Ranlo",
    "country": "US",
    "lat": 35.28625,
    "lng": -81.13035
  },
  {
    "name": "Ramblewood",
    "country": "US",
    "lat": 39.92872,
    "lng": -74.94378
  },
  {
    "name": "Ravenel",
    "country": "US",
    "lat": 32.76323,
    "lng": -80.2501
  },
  {
    "name": "Rancho Alegre",
    "country": "US",
    "lat": 27.74169,
    "lng": -98.09473
  },
  {
    "name": "Rancho Viejo",
    "country": "US",
    "lat": 26.03952,
    "lng": -97.55638
  },
  {
    "name": "Ranger",
    "country": "US",
    "lat": 32.46985,
    "lng": -98.67895
  },
  {
    "name": "Raymondville",
    "country": "US",
    "lat": 26.48146,
    "lng": -97.78305
  },
  {
    "name": "Radford",
    "country": "US",
    "lat": 37.13179,
    "lng": -80.57645
  },
  {
    "name": "Raven",
    "country": "US",
    "lat": 37.08706,
    "lng": -81.85512
  },
  {
    "name": "Ravensworth",
    "country": "US",
    "lat": 38.804,
    "lng": -77.22054
  },
  {
    "name": "Rainelle",
    "country": "US",
    "lat": 37.96873,
    "lng": -80.76703
  },
  {
    "name": "Rand",
    "country": "US",
    "lat": 38.2826,
    "lng": -81.56234
  },
  {
    "name": "Ranson",
    "country": "US",
    "lat": 39.2951,
    "lng": -77.86055
  },
  {
    "name": "Ravenswood",
    "country": "US",
    "lat": 38.94814,
    "lng": -81.76096
  },
  {
    "name": "Rantoul",
    "country": "US",
    "lat": 40.30837,
    "lng": -88.15588
  },
  {
    "name": "Randolph",
    "country": "US",
    "lat": 42.1626,
    "lng": -71.04116
  },
  {
    "name": "Raynham",
    "country": "US",
    "lat": 41.94871,
    "lng": -71.0731
  },
  {
    "name": "Raynham Center",
    "country": "US",
    "lat": 41.92371,
    "lng": -71.05227
  },
  {
    "name": "Randolph",
    "country": "US",
    "lat": 44.23035,
    "lng": -69.76671
  },
  {
    "name": "Raymond",
    "country": "US",
    "lat": 43.90146,
    "lng": -70.47033
  },
  {
    "name": "Rapid City",
    "country": "US",
    "lat": 44.83445,
    "lng": -85.28256
  },
  {
    "name": "Ravenna",
    "country": "US",
    "lat": 43.18947,
    "lng": -85.93699
  },
  {
    "name": "Ramsey",
    "country": "US",
    "lat": 45.2611,
    "lng": -93.45
  },
  {
    "name": "Ralston",
    "country": "US",
    "lat": 41.20528,
    "lng": -96.04252
  },
  {
    "name": "Ravenna",
    "country": "US",
    "lat": 41.02612,
    "lng": -98.91258
  },
  {
    "name": "Raymond",
    "country": "US",
    "lat": 43.0362,
    "lng": -71.1834
  },
  {
    "name": "Rahway",
    "country": "US",
    "lat": 40.60816,
    "lng": -74.27765
  },
  {
    "name": "Ramsey",
    "country": "US",
    "lat": 41.05732,
    "lng": -74.14098
  },
  {
    "name": "Ramtown",
    "country": "US",
    "lat": 40.12095,
    "lng": -74.14375
  },
  {
    "name": "Raritan",
    "country": "US",
    "lat": 40.56955,
    "lng": -74.63294
  },
  {
    "name": "Randolph",
    "country": "US",
    "lat": 42.16201,
    "lng": -78.97532
  },
  {
    "name": "Ransomville",
    "country": "US",
    "lat": 43.23867,
    "lng": -78.90976
  },
  {
    "name": "Rapids",
    "country": "US",
    "lat": 43.09839,
    "lng": -78.64086
  },
  {
    "name": "Ravena",
    "country": "US",
    "lat": 42.46841,
    "lng": -73.81624
  },
  {
    "name": "Ravenna",
    "country": "US",
    "lat": 41.15756,
    "lng": -81.24205
  },