[
  {
    "name": "Sant Julià de Lòria",
    "country": "AD",
    "lat": 42.46372,
    "lng": 1.49129
  },
  {
    "name": "Sar-e Tayghān",
    "country": "AF",
    "lat": 33.50998,
    "lng": 65.67632
  },
  {
    "name": "Sarōbī",
    "country": "AF",
    "lat": 34.58962,
    "lng": 69.76005
  },
  {
    "name": "Sar Kāṉī",
    "country": "AF",
    "lat": 34.79023,
    "lng": 71.10962
  },
  {
    "name": "Sarfirāz Kalā",
    "country": "AF",
    "lat": 32.98333,
    "lng": 67.96517
  },
  {
    "name": "Sar-e Pul",
    "country": "AF",
    "lat": 36.21544,
    "lng": 65.93249
  },
  {
    "name": "Sar Chakān",
    "country": "AF",
    "lat": 35.70177,
    "lng": 65.23055
  },
  {
    "name": "Sangīn",
    "country": "AF",
    "lat": 32.07275,
    "lng": 64.8359
  },
  {
    "name": "Sang-e Māshah",
    "country": "AF",
    "lat": 33.1396,
    "lng": 67.44046
  },
  {
    "name": "Sang-e Chārak",
    "country": "AF",
    "lat": 35.84972,
    "lng": 66.43694
  },
  {
    "name": "Sang Atesh",
    "country": "AF",
    "lat": 35.248,
    "lng": 63.0044
  },
  {
    "name": "Sangar Sarāy",
    "country": "AF",
    "lat": 34.40744,
    "lng": 70.63937
  },
  {
    "name": "Salām Khēl",
    "country": "AF",
    "lat": 33.67067,
    "lng": 69.32983
  },
  {
    "name": "Saint John’s",
    "country": "AG",
    "lat": 17.12096,
    "lng": -61.84329
  },
  {
    "name": "Sandy Ground Village",
    "country": "AI",
    "lat": 18.20118,
    "lng": -63.08998
  },
  {
    "name": "Sandy Hill",
    "country": "AI",
    "lat": 18.22104,
    "lng": -63.01329
  },
  {
    "name": "Sarandë",
    "country": "AL",
    "lat": 39.87534,
    "lng": 20.00477
  },
  {
    "name": "Saraqinishtë",
    "country": "AL",
    "lat": 40.10528,
    "lng": 20.22944
  },
  {
    "name": "Samaticë",
    "country": "AL",
    "lat": 40.80591,
    "lng": 19.7516
  },
  {
    "name": "Sarukhan",
    "country": "AM",
    "lat": 40.29169,
    "lng": 45.13068
  },
  {
    "name": "Sarnaghbyur",
    "country": "AM",
    "lat": 40.52368,
    "lng": 43.91248
  },
  {
    "name": "Sarigyugh",
    "country": "AM",
    "lat": 41.03531,
    "lng": 45.14486
  },
  {
    "name": "Sarchapet",
    "country": "AM",
    "lat": 41.196,
    "lng": 44.38432
  },
  {
    "name": "Saratak",
    "country": "AM",
    "lat": 40.6709,
    "lng": 43.87231
  },
  {
    "name": "Saramej",
    "country": "AM",
    "lat": 40.77487,
    "lng": 44.2222
  },
  {
    "name": "Saralanj",
    "country": "AM",
    "lat": 40.62116,
    "lng": 44.02041
  },
  {
    "name": "Sarahart",
    "country": "AM",
    "lat": 40.87043,
    "lng": 44.21407
  },
  {
    "name": "Sardarapat",
    "country": "AM",
    "lat": 40.13206,
    "lng": 44.00969
  },
  {
    "name": "Sasunik",
    "country": "AM",
    "lat": 40.25012,
    "lng": 44.34448
  },
  {
    "name": "Sayat-Nova",
    "country": "AM",
    "lat": 40.07507,
    "lng": 44.40008
  },
  {
    "name": "Saurimo",
    "country": "AO",
    "lat": -9.66078,
    "lng": 20.39155
  },
  {
    "name": "Sanza Pombo",
    "country": "AO",
    "lat": -7.31473,
    "lng": 16.0024
  },
  {
    "name": "Santa Clara",
    "country": "AO",
    "lat": -10.19156,
    "lng": 15.43408
  },
  {
    "name": "Sauce de Luna",
    "country": "AR",
    "lat": -31.23955,
    "lng": -59.21753
  },
  {
    "name": "Sauce",
    "country": "AR",
    "lat": -30.08552,
    "lng": -58.78733
  },
  {
    "name": "San Vicente",
    "country": "AR",
    "lat": -35.0249,
    "lng": -58.42409
  },
  {
    "name": "San Vicente",
    "country": "AR",
    "lat": -26.61667,
    "lng": -54.13333
  },
  {
    "name": "Santo Tomé",
    "country": "AR",
    "lat": -28.55104,
    "lng": -56.04125
  },
  {
    "name": "Santos Lugares",
    "country": "AR",
    "lat": -34.60306,
    "lng": -58.54074
  },
  {
    "name": "Santo Pipó",
    "country": "AR",
    "lat": -27.14147,
    "lng": -55.40945
  },
  {
    "name": "Santa Rosa",
    "country": "AR",
    "lat": -28.26572,
    "lng": -58.12053
  },
  {
    "name": "Santa María",
    "country": "AR",
    "lat": -27.9349,
    "lng": -55.40742
  },
  {
    "name": "Santa Lucía",
    "country": "AR",
    "lat": -28.98984,
    "lng": -59.10076
  },
  {
    "name": "Santa Elena",
    "country": "AR",
    "lat": -30.94432,
    "lng": -59.78832
  },
  {
    "name": "Santa Anita",
    "country": "AR",
    "lat": -32.17387,
    "lng": -58.78526
  },
  {
    "name": "Santa Ana",
    "country": "AR",
    "lat": -30.90069,
    "lng": -57.93194
  },
  {
    "name": "Santa Ana",
    "country": "AR",
    "lat": -27.36924,
    "lng": -55.58167
  },
  {
    "name": "San Salvador",
    "country": "AR",
    "lat": -31.62494,
    "lng": -58.50517
  },
  {
    "name": "San Roque",
    "country": "AR",
    "lat": -28.57385,
    "lng": -58.7095
  },
  {
    "name": "San Pedro",
    "country": "AR",
    "lat": -33.67918,
    "lng": -59.66633
  },
  {
    "name": "San Pedro",
    "country": "AR",
    "lat": -26.6218,
    "lng": -54.10902
  },
  {
    "name": "San Miguel del Monte",
    "country": "AR",
    "lat": -35.43922,
    "lng": -58.80741
  },
  {
    "name": "San Miguel",
    "country": "AR",
    "lat": -27.99833,
    "lng": -57.58735
  },
  {
    "name": "San Luis del Palmar",
    "country": "AR",
    "lat": -27.50766,
    "lng": -58.55625
  },
  {
    "name": "San Lorenzo",
    "country": "AR",
    "lat": -28.13442,
    "lng": -58.76685
  },
  {
    "name": "San Justo",
    "country": "AR",
    "lat": -34.68107,
    "lng": -58.56379
  },
  {
    "name": "San José de Feliciano",
    "country": "AR",
    "lat": -30.38546,
    "lng": -58.75025
  },
  {
    "name": "San José",
    "country": "AR",
    "lat": -27.76916,
    "lng": -55.78033
  },
  {
    "name": "San Javier",
    "country": "AR",
    "lat": -30.58072,
    "lng": -59.92962
  },
  {
    "name": "San Javier",
    "country": "AR",
    "lat": -27.87398,
    "lng": -55.13485
  },
  {
    "name": "San Isidro",
    "country": "AR",
    "lat": -34.46971,
    "lng": -58.52111
  },
  {
    "name": "San Ignacio",
    "country": "AR",
    "lat": -27.25865,
    "lng": -55.53897
  },
  {
    "name": "San Gustavo",
    "country": "AR",
    "lat": -30.68979,
    "lng": -59.39881
  },
  {
    "name": "San Francisco de Laishi",
    "country": "AR",
    "lat": -26.24399,
    "lng": -58.62962
  },
  {
    "name": "San Cosme",
    "country": "AR",
    "lat": -27.37137,
    "lng": -58.51112
  },
  {
    "name": "San Clemente del Tuyú",
    "country": "AR",
    "lat": -36.35419,
    "lng": -56.72568
  },
  {
    "name": "San Cayetano",
    "country": "AR",
    "lat": -38.34677,
    "lng": -59.60938
  },
  {
    "name": "San Carlos",
    "country": "AR",
    "lat": -27.74706,
    "lng": -55.89639
  },
  {
    "name": "San Antonio de Padua",
    "country": "AR",
    "lat": -34.66267,
    "lng": -58.69819
  },
  {
    "name": "San Antonio de Areco",
    "country": "AR",
    "lat": -34.25083,
    "lng": -59.46944
  },
  {
    "name": "San Antonio",
    "country": "AR",
    "lat": -26.05993,
    "lng": -53.73578
  },
  {
    "name": "San Andrés de Giles",
    "country": "AR",
    "lat": -34.44738,
    "lng": -59.44442
  },
  {
    "name": "Saladillo",
    "country": "AR",
    "lat": -35.63884,
    "lng": -59.77938
  },
  {
    "name": "Saladas",
    "country": "AR",
    "lat": -28.25504,
    "lng": -58.62386
  },
  {
    "name": "San Juan Bautista",
    "country": "AR",
    "lat": -34.80896,
    "lng": -58.27623
  },
  {
    "name": "Saujil",
    "country": "AR",
    "lat": -28.17471,
    "lng": -66.21604
  },
  {
    "name": "Saturnino María Laspiur",
    "country": "AR",
    "lat": -31.70349,
    "lng": -62.48346
  },
  {
    "name": "Sastre",
    "country": "AR",
    "lat": -31.76672,
    "lng": -61.82872
  },
  {
    "name": "Sarmiento",
    "country": "AR",
    "lat": -45.58687,
    "lng": -69.06894
  },
  {
    "name": "Santo Tomé",
    "country": "AR",
    "lat": -31.66274,
    "lng": -60.7653
  },
  {
    "name": "Santiago Temple",
    "country": "AR",
    "lat": -31.38597,
    "lng": -63.4196
  },
  {
    "name": "Santiago del Estero",
    "country": "AR",
    "lat": -27.80047,
    "lng": -64.26285
  },
  {
    "name": "Santa Victoria",
    "country": "AR",
    "lat": -22.25124,
    "lng": -64.96549
  },
  {
    "name": "Santa Sylvina",
    "country": "AR",
    "lat": -27.83154,
    "lng": -61.13601
  },
  {
    "name": "Santa Rosa de Tastil",
    "country": "AR",
    "lat": -24.45078,
    "lng": -65.95183
  },
  {
    "name": "Santa Rosa de Río Primero",
    "country": "AR",
    "lat": -31.15353,
    "lng": -63.39938
  },
  {
    "name": "Santa Rosa del Conlara",
    "country": "AR",
    "lat": -32.3428,
    "lng": -65.20506
  },
  {
    "name": "Santa Rosa de Calamuchita",
    "country": "AR",
    "lat": -32.06439,
    "lng": -64.53961
  },
  {
    "name": "Santa Rosa",
    "country": "AR",
    "lat": -36.61617,
    "lng": -64.28991
  },
  {
    "name": "Santa Rosa",
    "country": "AR",
    "lat": -33.25407,
    "lng": -68.15066
  },
  {
    "name": "Santa María",
    "country": "AR",
    "lat": -26.69456,
    "lng": -66.04805
  },
  {
    "name": "Santa Lucía",
    "country": "AR",
    "lat": -31.54055,
    "lng": -68.49794
  },
  {
    "name": "Santa Isabel",
    "country": "AR",
    "lat": -36.2302,
    "lng": -66.93897
  },
  {
    "name": "Santa Fe",
    "country": "AR",
    "lat": -31.64881,
    "lng": -60.70868
  },
  {
    "name": "Santa Eufemia",
    "country": "AR",
    "lat": -33.17622,
    "lng": -63.28288
  },
  {
    "name": "Santa Clara",
    "country": "AR",
    "lat": -24.30957,
    "lng": -64.66135
  },
  {
    "name": "Santa Catalina",
    "country": "AR",
    "lat": -21.94567,
    "lng": -66.05188
  },
  {
    "name": "San Salvador de Jujuy",
    "country": "AR",
    "lat": -24.1928,
    "lng": -65.29342
  },
  {
    "name": "San Ramón de la Nueva Orán",
    "country": "AR",
    "lat": -23.13705,
    "lng": -64.32426
  },
  {
    "name": "San Rafael",
    "country": "AR",
    "lat": -34.61531,
    "lng": -68.33238
  },
  {
    "name": "San Pedro de Guasayán",
    "country": "AR",
    "lat": -27.95386,
    "lng": -65.16651
  },
  {
    "name": "San Pedro de Jujuy",
    "country": "AR",
    "lat": -24.23127,
    "lng": -64.86614
  },
  {
    "name": "Sañogasta",
    "country": "AR",
    "lat": -29.0952,
    "lng": -67.11586
  },
  {
    "name": "San Nicolás de los Arroyos",
    "country": "AR",
    "lat": -33.33425,
    "lng": -60.2108
  },
  {
    "name": "San Miguel de Tucumán",
    "country": "AR",
    "lat": -26.81601,
    "lng": -65.21051
  },
  {
    "name": "San Martín de los Andes",
    "country": "AR",
    "lat": -40.15789,
    "lng": -71.35337
  },
  {
    "name": "San Martín",
    "country": "AR",
    "lat": -33.08338,
    "lng": -68.47312
  },
  {
    "name": "San Marcos Sierra",
    "country": "AR",
    "lat": -30.78339,
    "lng": -64.64083
  },
  {
    "name": "San Luis",
    "country": "AR",
    "lat": -33.2914,
    "lng": -66.32467
  },
  {
    "name": "San Lorenzo",
    "country": "AR",
    "lat": -32.74341,
    "lng": -60.73613
  },
  {
    "name": "San Justo",
    "country": "AR",
    "lat": -30.78991,
    "lng": -60.59276
  },
  {
    "name": "San Juan",
    "country": "AR",
    "lat": -31.53726,
    "lng": -68.52568
  },
  {
    "name": "San José de la Dormida",
    "country": "AR",
    "lat": -30.35628,
    "lng": -63.95038
  },
  {
    "name": "San José de Jáchal",
    "country": "AR",
    "lat": -30.24162,
    "lng": -68.74662
  },
  {
    "name": "San José",
    "country": "AR",
    "lat": -28.38756,
    "lng": -65.70087
  },
  {
    "name": "San Jorge",
    "country": "AR",
    "lat": -31.89706,
    "lng": -61.85993
  },
  {
    "name": "San Isidro",
    "country": "AR",
    "lat": -28.45775,
    "lng": -65.72498
  },
  {
    "name": "San Francisco del Monte de Oro",
    "country": "AR",
    "lat": -32.60029,
    "lng": -66.12713
  },
  {
    "name": "San Francisco del Chañar",
    "country": "AR",
    "lat": -29.7883,
    "lng": -63.94411
  },
  {
    "name": "San Francisco",
    "country": "AR",
    "lat": -31.42497,
    "lng": -62.08404
  },
  {
    "name": "San Cristóbal",
    "country": "AR",
    "lat": -30.31038,
    "lng": -61.23492
  },
  {
    "name": "San Carlos de Bolívar",
    "country": "AR",
    "lat": -36.23071,
    "lng": -61.1157
  },
  {
    "name": "San Carlos Centro",
    "country": "AR",
    "lat": -31.72864,
    "lng": -61.09192
  },
  {
    "name": "San Carlos Minas",
    "country": "AR",
    "lat": -31.1764,
    "lng": -65.10248
  },
  {
    "name": "San Carlos",
    "country": "AR",
    "lat": -25.89317,
    "lng": -65.92906
  },
  {
    "name": "San Blas",
    "country": "AR",
    "lat": -28.4078,
    "lng": -67.09189
  },
  {
    "name": "San Bernardo",
    "country": "AR",
    "lat": -27.28672,
    "lng": -60.71293
  },
  {
    "name": "San Benito",
    "country": "AR",
    "lat": -31.78283,
    "lng": -60.43949
  },
  {
    "name": "San Basilio",
    "country": "AR",
    "lat": -33.49791,
    "lng": -64.31481
  },
  {
    "name": "San Antonio Oeste",
    "country": "AR",
    "lat": -40.73193,
    "lng": -64.94769
  },
  {
    "name": "San Antonio de los Cobres",
    "country": "AR",
    "lat": -24.22131,
    "lng": -66.32025
  },
  {
    "name": "San Antonio de Litín",
    "country": "AR",
    "lat": -32.21355,
    "lng": -62.63133
  },
  {
    "name": "San Antonio",
    "country": "AR",
    "lat": -28.01009,
    "lng": -65.70874
  },
  {
    "name": "San Antonio",
    "country": "AR",
    "lat": -24.36841,
    "lng": -65.33409
  },
  {
    "name": "San Agustín",
    "country": "AR",
    "lat": -31.97681,
    "lng": -64.374
  },
  {
    "name": "Samuhú",
    "country": "AR",
    "lat": -27.51908,
    "lng": -60.39409
  },
  {
    "name": "Sampacho",
    "country": "AR",
    "lat": -33.38452,
    "lng": -64.72274
  },
  {
    "name": "Salto",
    "country": "AR",
    "lat": -34.29175,
    "lng": -60.2545
  },
  {
    "name": "Salta",
    "country": "AR",
    "lat": -24.80645,
    "lng": -65.41999
  },
  {
    "name": "Salsipuedes",
    "country": "AR",
    "lat": -31.13789,
    "lng": -64.29277
  },
  {
    "name": "Salsacate",
    "country": "AR",
    "lat": -31.31842,
    "lng": -65.09003
  },
  {
    "name": "Salliqueló",
    "country": "AR",
    "lat": -36.75151,
    "lng": -62.95913
  },
  {
    "name": "Saldán",
    "country": "AR",
    "lat": -31.315,
    "lng": -64.312
  },
  {
    "name": "Sachayoj",
    "country": "AR",
    "lat": -26.67573,
    "lng": -61.81383
  },
  {
    "name": "Sacanta",
    "country": "AR",
    "lat": -31.66344,
    "lng": -63.04791
  },
  {
    "name": "San José de Metán",
    "country": "AR",
    "lat": -25.49711,
    "lng": -64.97106
  },
  {
    "name": "San Martín",
    "country": "AR",
    "lat": -32.41065,
    "lng": -65.67569
  },
  {
    "name": "San Miguel",
    "country": "AR",
    "lat": -34.54335,
    "lng": -58.71229
  },
  {
    "name": "San Carlos de Bariloche",
    "country": "AR",
    "lat": -41.14557,
    "lng": -71.30822
  },
  {
    "name": "Santa Catalina - Dique Lujan",
    "country": "AR",
    "lat": -34.38375,
    "lng": -58.70673
  },
  {
    "name": "Sautens",
    "country": "AT",
    "lat": 47.20775,
    "lng": 10.86452
  },
  {
    "name": "Sattledt",
    "country": "AT",
    "lat": 48.07372,
    "lng": 14.05478
  },
  {
    "name": "Satteins",
    "country": "AT",
    "lat": 47.21667,
    "lng": 9.66667
  },
  {
    "name": "Sarleinsbach",
    "country": "AT",
    "lat": 48.54525,
    "lng": 13.90491
  },
  {
    "name": "Sankt Wolfgang im Salzkammergut",
    "country": "AT",
    "lat": 47.73932,
    "lng": 13.44666
  },
  {
    "name": "Sankt Veit in Defereggen",
    "country": "AT",
    "lat": 46.92722,
    "lng": 12.42972
  },
  {
    "name": "Sankt Veit im Pongau",
    "country": "AT",
    "lat": 47.33333,
    "lng": 13.15
  },
  {
    "name": "Sankt Veit an der Gölsen",
    "country": "AT",
    "lat": 48.0432,
    "lng": 15.66942
  },
  {
    "name": "Sankt Veit an der Glan",
    "country": "AT",
    "lat": 46.76806,
    "lng": 14.36028
  },
  {
    "name": "Sankt Veit am Vogau",
    "country": "AT",
    "lat": 46.74048,
    "lng": 15.64217
  },
  {
    "name": "Sankt Valentin",
    "country": "AT",
    "lat": 48.16667,
    "lng": 14.51667
  },
  {
    "name": "Sankt Ulrich bei Steyr",
    "country": "AT",
    "lat": 48.02116,
    "lng": 14.43685
  },
  {
    "name": "Sankt Ulrich am Waasen",
    "country": "AT",
    "lat": 46.93333,
    "lng": 15.53333
  },
  {
    "name": "Sankt Ulrich am Pillersee",
    "country": "AT",
    "lat": 47.5274,
    "lng": 12.57239
  },
  {
    "name": "Sankt Stefan ob Stainz",
    "country": "AT",
    "lat": 46.92861,
    "lng": 15.25889
  },
  {
    "name": "Sankt Stefan ob Leoben",
    "country": "AT",
    "lat": 47.31672,
    "lng": 14.97831
  },
  {
    "name": "Sankt Stefan im Rosental",
    "country": "AT",
    "lat": 46.90389,
    "lng": 15.71
  },
  {
    "name": "Sankt Stefan",
    "country": "AT",
    "lat": 46.8075,
    "lng": 14.85167
  },
  {
    "name": "Sankt Ruprecht an der Raab",
    "country": "AT",
    "lat": 47.15336,
    "lng": 15.66256
  },
  {
    "name": "Sankt Ruprecht",
    "country": "AT",
    "lat": 46.6,
    "lng": 14.31667
  },
  {
    "name": "Sankt Roman",
    "country": "AT",
    "lat": 48.48183,
    "lng": 13.61056
  },
  {
    "name": "Sankt Radegund bei Graz",
    "country": "AT",
    "lat": 47.18172,
    "lng": 15.49192
  },
  {
    "name": "Sankt Pölten",
    "country": "AT",
    "lat": 48.20762,
    "lng": 15.63725
  },
  {
    "name": "Sankt Peter ob Judenburg",
    "country": "AT",
    "lat": 47.18417,
    "lng": 14.58639
  },
  {
    "name": "Sankt Peter in der Au Markt",
    "country": "AT",
    "lat": 48.044,
    "lng": 14.62182
  },
  {
    "name": "Sankt Peter im Sulmtal",
    "country": "AT",
    "lat": 46.75,
    "lng": 15.25
  },
  {
    "name": "Sankt Peter-Freienstein",
    "country": "AT",
    "lat": 47.38333,
    "lng": 15.01667
  },
  {
    "name": "Sankt Peter am Ottersbach",
    "country": "AT",
    "lat": 46.79778,
    "lng": 15.75917
  },
  {
    "name": "Sankt Peter am Kammersberg",
    "country": "AT",
    "lat": 47.18706,
    "lng": 14.18464
  },
  {
    "name": "Sankt Peter",
    "country": "AT",
    "lat": 47.05,
    "lng": 15.46667
  },
  {
    "name": "Sankt Peter",
    "country": "AT",
    "lat": 46.62978,
    "lng": 14.34016
  },
  {
    "name": "Sankt Peter am Hart",
    "country": "AT",
    "lat": 48.25268,
    "lng": 13.09613
  },
  {
    "name": "Sankt Paul im Lavanttal",
    "country": "AT",
    "lat": 46.70056,
    "lng": 14.87556
  },
  {
    "name": "Sankt Pantaleon",
    "country": "AT",
    "lat": 48.21058,
    "lng": 14.56804
  },
  {
    "name": "Sankt Oswald bei Plankenwarth",
    "country": "AT",
    "lat": 47.08701,
    "lng": 15.27703
  },
  {
    "name": "Sankt Oswald bei Freistadt",
    "country": "AT",
    "lat": 48.5,
    "lng": 14.58333
  },
  {
    "name": "Sankt Nikolai ob Draßling",
    "country": "AT",
    "lat": 46.80841,
    "lng": 15.66054
  },
  {
    "name": "Sankt Nikolai im Sölktal",
    "country": "AT",
    "lat": 47.31667,
    "lng": 14.05
  },
  {
    "name": "Sankt Nikolai im Sausal",
    "country": "AT",
    "lat": 46.82111,
    "lng": 15.45194
  },
  {
    "name": "Sankt Michael in Obersteiermark",
    "country": "AT",
    "lat": 47.33839,
    "lng": 15.01784
  },
  {
    "name": "Sankt Michael im Lungau",
    "country": "AT",
    "lat": 47.1,
    "lng": 13.63333
  },
  {
    "name": "Sankt Michael im Burgenland",
    "country": "AT",
    "lat": 47.12852,
    "lng": 16.27148
  },
  {
    "name": "Sankt Martin im Sulmtal",
    "country": "AT",
    "lat": 46.75611,
    "lng": 15.29722
  },
  {
    "name": "Sankt Martin im Mühlkreis",
    "country": "AT",
    "lat": 48.41553,
    "lng": 14.03821
  },
  {
    "name": "Sankt Martin im Innkreis",
    "country": "AT",
    "lat": 48.29387,
    "lng": 13.43868
  },
  {
    "name": "Sankt Martin bei Lofer",
    "country": "AT",
    "lat": 47.56667,
    "lng": 12.7
  },
  {
    "name": "Sankt Martin an der Raab",
    "country": "AT",
    "lat": 46.92022,
    "lng": 16.13379
  },
  {
    "name": "Sankt Martin am Ybbsfelde",
    "country": "AT",
    "lat": 48.16425,
    "lng": 15.02076
  },
  {
    "name": "Sankt Martin am Grimming",
    "country": "AT",
    "lat": 47.48873,
    "lng": 13.98105
  },
  {
    "name": "Sankt Martin",
    "country": "AT",
    "lat": 46.61667,
    "lng": 14.28333
  },
  {
    "name": "Sankt Martin",
    "country": "AT",
    "lat": 46.61721,
    "lng": 13.82879
  },
  {
    "name": "Sankt Martin",
    "country": "AT",
    "lat": 48.23091,
    "lng": 14.26781
  },
  {
    "name": "Sankt Martin",
    "country": "AT",
    "lat": 47.44667,
    "lng": 15.2849
  },
  {
    "name": "Sankt Marien",
    "country": "AT",
    "lat": 48.14805,
    "lng": 14.27759
  },
  {
    "name": "Sankt Margareten im Rosental",
    "country": "AT",
    "lat": 46.54417,
    "lng": 14.42444
  },
  {
    "name": "Sankt Margarethen im Lungau",
    "country": "AT",
    "lat": 47.07927,
    "lng": 13.69613
  },
  {
    "name": "Sankt Margarethen im Burgenland",
    "country": "AT",
    "lat": 47.80335,
    "lng": 16.60875
  },
  {
    "name": "Sankt Margarethen bei Knittelfeld",
    "country": "AT",
    "lat": 47.21667,
    "lng": 14.86667
  },
  {
    "name": "Sankt Margarethen an der Sierning",
    "country": "AT",
    "lat": 48.1591,
    "lng": 15.49055
  },
  {
    "name": "Sankt Margarethen an der Raab",
    "country": "AT",
    "lat": 47.05,
    "lng": 15.75
  },
  {
    "name": "Sankt Marein im Mürztal",
    "country": "AT",
    "lat": 47.46667,
    "lng": 15.36667
  },
  {
    "name": "Sankt Marein bei Neumarkt",
    "country": "AT",
    "lat": 47.06591,
    "lng": 14.42908
  },
  {
    "name": "Sankt Marein bei Knittelfeld",
    "country": "AT",
    "lat": 47.27396,
    "lng": 14.86085
  },
  {
    "name": "Sankt Marein bei Graz",
    "country": "AT",
    "lat": 47.01583,
    "lng": 15.68389
  },
  {
    "name": "Sankt Magdalen",
    "country": "AT",
    "lat": 46.61667,
    "lng": 13.88333
  },
  {
    "name": "Sankt Lorenzen im Mürztal",
    "country": "AT",
    "lat": 47.48333,
    "lng": 15.36667
  },
  {
    "name": "Sankt Lorenzen bei Scheifling",
    "country": "AT",
    "lat": 47.14556,
    "lng": 14.40583
  },
  {
    "name": "Sankt Lorenzen bei Knittelfeld",
    "country": "AT",
    "lat": 47.25078,
    "lng": 14.89549
  },
  {
    "name": "Sankt Lorenzen am Wechsel",
    "country": "AT",
    "lat": 47.44153,
    "lng": 15.95498
  },
  {
    "name": "Sankt Lorenz",
    "country": "AT",
    "lat": 47.8324,
    "lng": 13.34839
  },
  {
    "name": "Sankt Leonhard am Hornerwald",
    "country": "AT",
    "lat": 48.6,
    "lng": 15.53333
  },
  {
    "name": "Sankt Leonhard am Forst",
    "country": "AT",
    "lat": 48.14232,
    "lng": 15.28464
  },
  {
    "name": "Sankt Leonhard",
    "country": "AT",
    "lat": 47.72587,
    "lng": 13.04577
  },
  {
    "name": "Sankt Leonhard",
    "country": "AT",
    "lat": 46.62528,
    "lng": 13.85865
  },
  {
    "name": "Sankt Lambrecht",
    "country": "AT",
    "lat": 47.06667,
    "lng": 14.3
  },
  {
    "name": "Sankt Kathrein am Offenegg",
    "country": "AT",
    "lat": 47.30078,
    "lng": 15.57764
  },
  {
    "name": "Sankt Kathrein am Hauenstein",
    "country": "AT",
    "lat": 47.48943,
    "lng": 15.69414
  },
  {
    "name": "Sankt Katharein an der Laming",
    "country": "AT",
    "lat": 47.47069,
    "lng": 15.16319
  },
  {
    "name": "Sankt Josef (Weststeiermark)",
    "country": "AT",
    "lat": 46.90917,
    "lng": 15.33639
  },
  {
    "name": "Sankt Johann in Tirol",
    "country": "AT",
    "lat": 47.5233,
    "lng": 12.4232
  },
  {
    "name": "Sankt Johann in der Haide",
    "country": "AT",
    "lat": 47.2808,
    "lng": 16.02579
  },
  {
    "name": "Sankt Johann im Saggautal",
    "country": "AT",
    "lat": 46.70389,
    "lng": 15.40278
  },
  {
    "name": "Sankt Johann im Pongau",
    "country": "AT",
    "lat": 47.35,
    "lng": 13.2
  },
  {
    "name": "Sankt Johann bei Herberstein",
    "country": "AT",
    "lat": 47.2,
    "lng": 15.8
  },
  {
    "name": "Sankt Johann am Tauern",
    "country": "AT",
    "lat": 47.35,
    "lng": 14.46667
  },
  {
    "name": "Sankt Jakob im Walde",
    "country": "AT",
    "lat": 47.46667,
    "lng": 15.78333
  },
  {
    "name": "Sankt Jakob-Breitenau",
    "country": "AT",
    "lat": 47.39229,
    "lng": 15.4297
  },
  {
    "name": "Sankt Ilgen",
    "country": "AT",
    "lat": 47.55,
    "lng": 15.16667
  },
  {
    "name": "Sankt Gotthard im Mühlkreis",
    "country": "AT",
    "lat": 48.3802,
    "lng": 14.13185
  },
  {
    "name": "Sankt Gilgen",
    "country": "AT",
    "lat": 47.76667,
    "lng": 13.36667
  },
  {
    "name": "Sankt Georgen ob Murau",
    "country": "AT",
    "lat": 47.10506,
    "lng": 14.09383
  },
  {
    "name": "Sankt Georgen ob Judenburg",
    "country": "AT",
    "lat": 47.20744,
    "lng": 14.49736
  },
  {
    "name": "Sankt Georgen im Attergau",
    "country": "AT",
    "lat": 47.93595,
    "lng": 13.48306
  },
  {
    "name": "Sankt Georgen bei Obernberg am Inn",
    "country": "AT",
    "lat": 48.29193,
    "lng": 13.3332
  },
  {
    "name": "Sankt Georgen an der Stiefing",
    "country": "AT",
    "lat": 46.87333,
    "lng": 15.57972
  },
  {
    "name": "Sankt Georgen an der Leys",
    "country": "AT",
    "lat": 48.03149,
    "lng": 15.22722
  },
  {
    "name": "Sankt Georgen an der Gusen",
    "country": "AT",
    "lat": 48.27183,
    "lng": 14.44951
  },
  {
    "name": "Sankt Georgen am Ybbsfelde",
    "country": "AT",
    "lat": 48.12892,
    "lng": 14.95364
  },
  {
    "name": "Sankt Georgen am Leithagebirge",
    "country": "AT",
    "lat": 47.85,
    "lng": 16.55
  },
  {
    "name": "Sankt Georgen am Fillmannsbach",
    "country": "AT",
    "lat": 48.1256,
    "lng": 13.00811
  },
  {
    "name": "Sankt Gallenkirch",
    "country": "AT",
    "lat": 47.02102,
    "lng": 9.97335
  },
  {
    "name": "Sankt Gallen",
    "country": "AT",
    "lat": 47.68631,
    "lng": 14.61705
  },
  {
    "name": "Sankt Dionysen",
    "country": "AT",
    "lat": 48.22439,
    "lng": 14.25485
  },
  {
    "name": "Sankt Corona am Wechsel",
    "country": "AT",
    "lat": 47.58333,
    "lng": 16.0
  },
  {
    "name": "Sankt Blasen",
    "country": "AT",
    "lat": 47.08333,
    "lng": 14.3
  },
  {
    "name": "Sankt Bartholomä",
    "country": "AT",
    "lat": 47.05457,
    "lng": 15.25889
  },
  {
    "name": "Sankt Anton im Montafon",
    "country": "AT",
    "lat": 47.11667,
    "lng": 9.86667
  },
  {
    "name": "Sankt Anna am Aigen",
    "country": "AT",
    "lat": 46.83111,
    "lng": 15.97139
  },
  {
    "name": "Sankt Andrä vor dem Hagenthale",
    "country": "AT",
    "lat": 48.32202,
    "lng": 16.20724
  },
  {
    "name": "Sankt Andrä im Lungau",
    "country": "AT",
    "lat": 47.15,
    "lng": 13.78333
  },
  {
    "name": "Sankt Andrä am Zicksee",
    "country": "AT",
    "lat": 47.7841,
    "lng": 16.94195
  },
  {
    "name": "Sankt Andrä",
    "country": "AT",
    "lat": 46.76829,
    "lng": 14.81991
  },
  {
    "name": "Sankt Aegyd am Neuwalde",
    "country": "AT",
    "lat": 47.85383,
    "lng": 15.56969
  },
  {
    "name": "Sankt Aegidi",
    "country": "AT",
    "lat": 48.47929,
    "lng": 13.73737
  },
  {
    "name": "Sammersdorf",
    "country": "AT",
    "lat": 48.18091,
    "lng": 14.1667
  },
  {
    "name": "Salzburg",
    "country": "AT",
    "lat": 47.79941,
    "lng": 13.04399
  },
  {
    "name": "Sallingberg",
    "country": "AT",
    "lat": 48.46667,
    "lng": 15.23333
  },
  {
    "name": "Salla",
    "country": "AT",
    "lat": 47.1,
    "lng": 14.96667
  },
  {
    "name": "Sachsenburg",
    "country": "AT",
    "lat": 46.82917,
    "lng": 13.355
  },
  {
    "name": "Saalfelden am Steinernen Meer",
    "country": "AT",
    "lat": 47.42681,
    "lng": 12.848
  },
  {
    "name": "Saalbach",
    "country": "AT",
    "lat": 47.39138,
    "lng": 12.63642
  },
  {
    "name": "Sankt Florian",
    "country": "AT",
    "lat": 48.20568,
    "lng": 14.37836
  },
  {
    "name": "Sankt Jakob in Defereggen",
    "country": "AT",
    "lat": 46.91972,
    "lng": 12.33139
  },
  {
    "name": "Sankt Oswald ob Eibiswald",
    "country": "AT",
    "lat": 46.70833,
    "lng": 15.14667
  },
  {
    "name": "Sankt Leonhard",
    "country": "AT",
    "lat": 47.06924,
    "lng": 15.45784
  },
  {
    "name": "Salisbury",
    "country": "AU",
    "lat": -34.76667,
    "lng": 138.63333
  },
  {
    "name": "Safety Bay",
    "country": "AU",
    "lat": -32.30463,
    "lng": 115.74213
  },
  {
    "name": "Sawtell",
    "country": "AU",
    "lat": -30.36459,
    "lng": 153.10141
  },
  {
    "name": "Sassafras",
    "country": "AU",
    "lat": -37.86667,
    "lng": 145.35
  },
  {
    "name": "Sarina",
    "country": "AU",
    "lat": -21.4191,
    "lng": 149.21677
  },
  {
    "name": "San Remo",
    "country": "AU",
    "lat": -38.52547,
    "lng": 145.37616
  },
  {
    "name": "Sandringham",
    "country": "AU",
    "lat": -37.95218,
    "lng": 145.01129
  },
  {
    "name": "Sandgate",
    "country": "AU",
    "lat": -27.32198,
    "lng": 153.06951
  },
  {
    "name": "Sandford",
    "country": "AU",
    "lat": -42.93333,
    "lng": 147.5
  },
  {
    "name": "Salt Ash",
    "country": "AU",
    "lat": -32.78333,
    "lng": 151.91667
  },
  {
    "name": "Sale",
    "country": "AU",
    "lat": -38.11095,
    "lng": 147.06802
  },
  {
    "name": "Saint Peters",
    "country": "AU",
    "lat": -33.91667,
    "lng": 151.18333
  },
  {
    "name": "Saint Leonards",
    "country": "AU",
    "lat": -41.45672,
    "lng": 147.19952
  },
  {
    "name": "Saint Leonards",
    "country": "AU",
    "lat": -38.17051,
    "lng": 144.71803
  },
  {
    "name": "Saint Kilda",
    "country": "AU",
    "lat": -37.8676,
    "lng": 144.98099
  },
  {
    "name": "Saint Ives",
    "country": "AU",
    "lat": -33.72976,
    "lng": 151.15977
  },
  {
    "name": "Saint Helena",
    "country": "AU",
    "lat": -37.7,
    "lng": 145.13333
  },
  {
    "name": "Saint Andrews",
    "country": "AU",
    "lat": -37.60151,
    "lng": 145.27235
  },
  {
    "name": "Saint Albans",
    "country": "AU",
    "lat": -37.73333,
    "lng": 144.8
  },
  {
    "name": "Sans Souci",
    "country": "AU",
    "lat": -33.9899,
    "lng": 151.13334
  },
  {
    "name": "Sandy Bay",
    "country": "AU",
    "lat": -42.89449,
    "lng": 147.32439
  },
  {
    "name": "Salamander Bay",
    "country": "AU",
    "lat": -32.72253,
    "lng": 152.07945
  },
  {
    "name": "Salisbury East",
    "country": "AU",
    "lat": -34.79052,
    "lng": 138.6545
  },
  {
    "name": "Sanctuary Point",
    "country": "AU",
    "lat": -35.10361,
    "lng": 150.62667
  },
  {
    "name": "Sandy Beach",
    "country": "AU",
    "lat": -30.14681,
    "lng": 153.19238
  },
  {
    "name": "Saint Andrews Beach",
    "country": "AU",
    "lat": -38.4141,
    "lng": 144.82436
  },
  {
    "name": "Sandstone Point",
    "country": "AU",
    "lat": -27.08374,
    "lng": 153.13235
  },
  {
    "name": "San Remo",
    "country": "AU",
    "lat": -33.21469,
    "lng": 151.52102
  },
  {
    "name": "Safety Beach",
    "country": "AU",
    "lat": -38.31535,
    "lng": 145.00027
  },
  {
    "name": "Sadleir",
    "country": "AU",
    "lat": -33.91713,
    "lng": 150.89093
  },
  {
    "name": "Saratoga",
    "country": "AU",
    "lat": -33.47564,
    "lng": 151.35207
  },
  {
    "name": "Samson",
    "country": "AU",
    "lat": -32.06996,
    "lng": 115.7977
  },
  {
    "name": "Salter Point",
    "country": "AU",
    "lat": -32.02384,
    "lng": 115.86582
  },
  {
    "name": "Sadadeen",
    "country": "AU",
    "lat": -23.70399,
    "lng": 133.90043
  },
  {
    "name": "Salisbury",
    "country": "AU",
    "lat": -27.55145,
    "lng": 153.0325
  },
  {
    "name": "Sadliers Crossing",
    "country": "AU",
    "lat": -27.61251,
    "lng": 152.74577
  },
  {
    "name": "Samford Valley",
    "country": "AU",
    "lat": -27.3727,
    "lng": 152.86699
  },
  {
    "name": "Sandhurst",
    "country": "AU",
    "lat": -38.081,
    "lng": 145.20767
  },
  {
    "name": "Sandringham",
    "country": "AU",
    "lat": -33.99447,
    "lng": 151.13913
  },
  {
    "name": "Salisbury Downs",
    "country": "AU",
    "lat": -34.76772,
    "lng": 138.6221
  },
  {
    "name": "Salisbury Heights",
    "country": "AU",
    "lat": -34.7631,
    "lng": 138.67591
  },
  {
    "name": "Salisbury North",
    "country": "AU",
    "lat": -34.74956,
    "lng": 138.6206
  },
  {
    "name": "Salisbury Park",
    "country": "AU",
    "lat": -34.76155,
    "lng": 138.67029
  },
  {
    "name": "Salisbury Plain",
    "country": "AU",
    "lat": -34.77265,
    "lng": 138.6633
  },
  {
    "name": "Sapphire Beach",
    "country": "AU",
    "lat": -30.22614,
    "lng": 153.13628
  },
  {
    "name": "San Nicolas",
    "country": "AW",
    "lat": 12.43624,
    "lng": -69.90713
  },
  {
    "name": "Santa Cruz",
    "country": "AW",
    "lat": 12.50953,
    "lng": -69.98094
  },
  {
    "name": "Savaneta",
    "country": "AW",
    "lat": 12.45026,
    "lng": -69.93811
  },
  {
    "name": "Saltvik",
    "country": "AX",
    "lat": 60.28333,
    "lng": 20.05
  },
  {
    "name": "Salyan",
    "country": "AZ",
    "lat": 39.59621,
    "lng": 48.98479
  },
  {
    "name": "Saatlı",
    "country": "AZ",
    "lat": 39.93214,
    "lng": 48.36892
  },
  {
    "name": "Saray",
    "country": "AZ",
    "lat": 40.53299,
    "lng": 49.71681
  },
  {
    "name": "Sanqaçal",
    "country": "AZ",
    "lat": 40.16991,
    "lng": 49.46394
  },
  {
    "name": "Samur",
    "country": "AZ",
    "lat": 41.63671,
    "lng": 48.43028
  },
  {
    "name": "Saloğlu",
    "country": "AZ",
    "lat": 41.27524,
    "lng": 45.35293
  },
  {
    "name": "Samux",
    "country": "AZ",
    "lat": 40.76485,
    "lng": 46.40868
  },
  {
    "name": "Sabunçu",
    "country": "AZ",
    "lat": 40.4425,
    "lng": 49.94806
  },
  {
    "name": "Sabirabad",
    "country": "AZ",
    "lat": 40.00869,
    "lng": 48.47701
  },
  {
    "name": "Samuxlu",
    "country": "AZ",
    "lat": 40.50781,
    "lng": 47.16971
  },
  {
    "name": "Sarajevo",
    "country": "BA",
    "lat": 43.84864,
    "lng": 18.35644
  },
  {
    "name": "Sapna",
    "country": "BA",
    "lat": 44.5038,
    "lng": 18.99818
  },
  {
    "name": "Sanski Most",
    "country": "BA",
    "lat": 44.7667,
    "lng": 16.667
  },
  {
    "name": "Sanica",
    "country": "BA",
    "lat": 44.61354,
    "lng": 16.64062
  },
  {
    "name": "Sandwīp",
    "country": "BD",
    "lat": 22.51409,
    "lng": 91.45491
  },
  {
    "name": "Sarankhola",
    "country": "BD",
    "lat": 22.31006,
    "lng": 89.79113
  },
  {
    "name": "Sarishābāri",
    "country": "BD",
    "lat": 24.75127,
    "lng": 89.83126
  },
  {
    "name": "Samonta Bazar",
    "country": "BD",
    "lat": 23.24784,
    "lng": 88.78382
  },
  {
    "name": "Sakhipur",
    "country": "BD",
    "lat": 24.31988,
    "lng": 90.16943
  },
  {
    "name": "Savar",
    "country": "BD",
    "lat": 23.84858,
    "lng": 90.25002
  },
  {
    "name": "Saidpur",
    "country": "BD",
    "lat": 25.77769,
    "lng": 88.89169
  },
  {
    "name": "Sayani",
    "country": "BD",
    "lat": 23.79119,
    "lng": 90.16972
  },
  {
    "name": "Sauvenière",
    "country": "BE",
    "lat": 50.58157,
    "lng": 4.72466
  },
  {
    "name": "Sart-Saint-Laurent",
    "country": "BE",
    "lat": 50.40236,
    "lng": 4.74217
  },
  {
    "name": "Sart-Dames-Avelines",
    "country": "BE",
    "lat": 50.56863,
    "lng": 4.49221
  },
  {
    "name": "Sart-Bernard",
    "country": "BE",
    "lat": 50.40206,
    "lng": 4.9593
  },
  {
    "name": "Saive",
    "country": "BE",
    "lat": 50.65316,
    "lng": 5.68517
  },
  {
    "name": "Saint-Yvon",
    "country": "BE",
    "lat": 50.74335,
    "lng": 2.90992
  },
  {
    "name": "Saint-Vith",
    "country": "BE",
    "lat": 50.28146,
    "lng": 6.12724
  },
  {
    "name": "Saint-Vaast",
    "country": "BE",
    "lat": 50.45426,
    "lng": 4.16041
  },
  {
    "name": "Saint-Symphorien",
    "country": "BE",
    "lat": 50.43903,
    "lng": 4.00726
  },
  {
    "name": "Saint-Servais",
    "country": "BE",
    "lat": 50.4763,
    "lng": 4.83656
  },
  {
    "name": "Saint-Sauveur",
    "country": "BE",
    "lat": 50.70604,
    "lng": 3.59782
  },
  {
    "name": "Saint-Remy",
    "country": "BE",
    "lat": 50.69564,
    "lng": 5.70405
  },
  {
    "name": "Saint-Pierre",
    "country": "BE",
    "lat": 49.90376,
    "lng": 5.3875
  },
  {
    "name": "Saint-Nicolas",
    "country": "BE",
    "lat": 50.62837,
    "lng": 5.53243
  },
  {
    "name": "Saint-Mard",
    "country": "BE",
    "lat": 49.55403,
    "lng": 5.53427
  },
  {
    "name": "Saint-Marc",
    "country": "BE",
    "lat": 50.49218,
    "lng": 4.84749
  },
  {
    "name": "Saint-Léger",
    "country": "BE",
    "lat": 49.61196,
    "lng": 5.65688
  },
  {
    "name": "Saint-Josse-ten-Noode",
    "country": "BE",
    "lat": 50.8538,
    "lng": 4.37282
  },
  {
    "name": "Saint-Hubert",
    "country": "BE",
    "lat": 50.02668,
    "lng": 5.37401
  },
  {
    "name": "Saint-Gilles",
    "country": "BE",
    "lat": 50.82763,
    "lng": 4.34389
  },
  {
    "name": "Saint-Ghislain",
    "country": "BE",
    "lat": 50.44816,
    "lng": 3.81886
  },
  {
    "name": "Saint-Gérard",
    "country": "BE",
    "lat": 50.34645,
    "lng": 4.74098
  },
  {
    "name": "Saint-Georges-sur-Meuse",
    "country": "BE",
    "lat": 50.60007,
    "lng": 5.3574
  },
  {
    "name": "Saintes",
    "country": "BE",
    "lat": 50.70499,
    "lng": 4.16006
  },
  {
    "name": "Sainte-Ode",
    "country": "BE",
    "lat": 50.01723,
    "lng": 5.51926
  },
  {
    "name": "Sainte-Marie-sur-Semois",
    "country": "BE",
    "lat": 49.67124,
    "lng": 5.5638
  },
  {
    "name": "Saint-Denis",
    "country": "BE",
    "lat": 50.53567,
    "lng": 4.78278
  },
  {
    "name": "Saint-Denis",
    "country": "BE",
    "lat": 50.4905,
    "lng": 4.02048
  },
  {
    "name": "Saint-Amand",
    "country": "BE",
    "lat": 50.50611,
    "lng": 4.54988
  },
  {
    "name": "Sapouy",
    "country": "BF",
    "lat": 11.55444,
    "lng": -1.77361
  },
  {
    "name": "Saponé",
    "country": "BF",
    "lat": 12.05356,
    "lng": -1.60491
  },
  {
    "name": "Saonré",
    "country": "BF",
    "lat": 12.2751,
    "lng": -1.57692
  },
  {
    "name": "Sabou",
    "country": "BF",
    "lat": 12.06667,
    "lng": -2.23333
  },
  {
    "name": "Saaba",
    "country": "BF",
    "lat": 12.37136,
    "lng": -1.41468
  },
  {
    "name": "Sarnitsa",
    "country": "BG",
    "lat": 41.73835,
    "lng": 24.02435
  },
  {
    "name": "Saedinenie",
    "country": "BG",
    "lat": 42.26667,
    "lng": 24.55
  },
  {
    "name": "Satovcha",
    "country": "BG",
    "lat": 41.61667,
    "lng": 23.98333
  },
  {
    "name": "Sarafovo",
    "country": "BG",
    "lat": 42.56079,
    "lng": 27.52195
  },
  {
    "name": "Sapareva Banya",
    "country": "BG",
    "lat": 42.28923,
    "lng": 23.26313
  },
  {
    "name": "Sandanski",
    "country": "BG",
    "lat": 41.56667,
    "lng": 23.28333
  },
  {
    "name": "Samuil",
    "country": "BG",
    "lat": 43.51667,
    "lng": 26.75
  },
  {
    "name": "Samokov",
    "country": "BG",
    "lat": 42.33855,
    "lng": 23.55805
  },
  {
    "name": "Sadovo",
    "country": "BG",
    "lat": 42.13178,
    "lng": 24.93999
  },
  {
    "name": "Sanābis",
    "country": "BH",
    "lat": 26.22722,
    "lng": 50.55083
  },
  {
    "name": "Savé",
    "country": "BJ",
    "lat": 8.03424,
    "lng": 2.4866
  },
  {
    "name": "Savalou",
    "country": "BJ",
    "lat": 7.92807,
    "lng": 1.97558
  },
  {
    "name": "Sakété",
    "country": "BJ",
    "lat": 6.73618,
    "lng": 2.65866
  },
  {
    "name": "Saint George",
    "country": "BM",
    "lat": 32.38167,
    "lng": -64.67806
  },
  {
    "name": "Sandys Parish",
    "country": "BM",
    "lat": 32.29637,
    "lng": -64.86931
  },
  {
    "name": "Salambigar",
    "country": "BN",
    "lat": 4.97877,
    "lng": 114.9878
  },
  {
    "name": "San Pedro",
    "country": "BO",
    "lat": -18.28691,
    "lng": -59.81742
  },
  {
    "name": "San Matías",
    "country": "BO",
    "lat": -16.3597,
    "lng": -58.40039
  },
  {
    "name": "Santiváñez",
    "country": "BO",
    "lat": -17.54598,
    "lng": -66.2461
  },
  {
    "name": "Santa Rosa del Sara",
    "country": "BO",
    "lat": -17.10805,
    "lng": -63.59967
  },
  {
    "name": "Santa Rosa de Yacuma",
    "country": "BO",
    "lat": -14.07719,
    "lng": -66.79349
  },
  {
    "name": "Santa Rita",
    "country": "BO",
    "lat": -17.97974,
    "lng": -63.37084
  },
  {
    "name": "Santa Cruz de la Sierra",
    "country": "BO",
    "lat": -17.78629,
    "lng": -63.18117
  },
  {
    "name": "Santa Bárbara",
    "country": "BO",
    "lat": -20.91667,
    "lng": -66.05
  },
  {
    "name": "Santa Ana de Yacuma",
    "country": "BO",
    "lat": -13.74406,
    "lng": -65.42688
  },
  {
    "name": "San Ramón",
    "country": "BO",
    "lat": -13.26647,
    "lng": -64.61515
  },
  {
    "name": "San Pedro",
    "country": "BO",
    "lat": -16.23717,
    "lng": -68.85063
  },
  {
    "name": "San Pablo de Tiquina",
    "country": "BO",
    "lat": -16.21795,
    "lng": -68.8428
  },
  {
    "name": "San Julian",
    "country": "BO",
    "lat": -17.78333,
    "lng": -62.86667
  },
  {
    "name": "San Juan del Surutú",
    "country": "BO",
    "lat": -17.48333,
    "lng": -63.7
  },
  {
    "name": "San Ignacio de Velasco",
    "country": "BO",
    "lat": -16.37767,
    "lng": -60.96472
  },
  {
    "name": "San Carlos",
    "country": "BO",
    "lat": -17.40447,
    "lng": -63.732
  },
  {
    "name": "Samaipata",
    "country": "BO",
    "lat": -18.17754,
    "lng": -63.87563
  },
  {
    "name": "Sacaba",
    "country": "BO",
    "lat": -17.39799,
    "lng": -66.03825
  },
  {
    "name": "Santa Fe",
    "country": "BO",
    "lat": -17.90818,
    "lng": -63.03955
  },
  {
    "name": "San Julian",
    "country": "BO",
    "lat": -17.80623,
    "lng": -62.89536
  },
  {
    "name": "San Borja",
    "country": "BO",
    "lat": -14.85195,
    "lng": -66.74954
  },
  {
    "name": "Satuba",
    "country": "BR",
    "lat": -9.56333,
    "lng": -35.82444
  },
  {
    "name": "Sapé",
    "country": "BR",
    "lat": -7.09639,
    "lng": -35.23278
  },
  {
    "name": "Santo Inácio do Piauí",
    "country": "BR",
    "lat": -7.42387,
    "lng": -41.91406
  },
  {
    "name": "Santo Antônio do Tauá",
    "country": "BR",
    "lat": -1.15194,
    "lng": -48.12944
  },
  {
    "name": "Santo Antônio dos Lopes",
    "country": "BR",
    "lat": -4.86667,
    "lng": -44.36667
  },
  {
    "name": "Santo Antônio de Lisboa",
    "country": "BR",
    "lat": -6.98139,
    "lng": -41.23417
  },
  {
    "name": "Santo Antônio",
    "country": "BR",
    "lat": -6.31056,
    "lng": -35.47889
  },
  {
    "name": "Santo André",
    "country": "BR",
    "lat": -7.21833,
    "lng": -36.63306
  },
  {
    "name": "Santo Amaro do Maranhão",
    "country": "BR",
    "lat": -2.50375,
    "lng": -43.25065
  },
  {
    "name": "Santa Teresinha",
    "country": "BR",
    "lat": -7.03889,
    "lng": -37.44528
  },
  {
    "name": "Santa Terezinha do Tocantins",
    "country": "BR",
    "lat": -6.43519,
    "lng": -47.67272
  },
  {
    "name": "Santa Rita",
    "country": "BR",
    "lat": -7.11389,
    "lng": -34.97806
  },
  {
    "name": "Santa Rita",
    "country": "BR",
    "lat": -3.86358,
    "lng": -43.85999
  },
  {
    "name": "Santarém Novo",
    "country": "BR",
    "lat": -0.92889,
    "lng": -47.39694
  },
  {
    "name": "Santarém",
    "country": "BR",
    "lat": -2.44306,
    "lng": -54.70833
  },
  {
    "name": "Santa Quitéria do Maranhão",
    "country": "BR",
    "lat": -3.49586,
    "lng": -42.56198
  },
  {
    "name": "Santa Quitéria",
    "country": "BR",
    "lat": -4.33194,
    "lng": -40.15667
  },
  {
    "name": "Santana dos Garrotes",
    "country": "BR",
    "lat": -7.38389,
    "lng": -37.98583
  },
  {
    "name": "Santana do Mundaú",
    "country": "BR",
    "lat": -9.16806,
    "lng": -36.22222
  },
  {
    "name": "Santana do Matos",
    "country": "BR",
    "lat": -5.9575,
    "lng": -36.65556
  },
  {
    "name": "Santana do Ipanema",
    "country": "BR",
    "lat": -9.37833,
    "lng": -37.24528
  },
  {
    "name": "Santana do Cariri",
    "country": "BR",
    "lat": -7.18833,
    "lng": -39.73694
  },
  {
    "name": "Santana do Acaraú",
    "country": "BR",
    "lat": -3.46056,
    "lng": -40.21222
  },
  {
    "name": "Santana de Mangueira",
    "country": "BR",
    "lat": -7.555,
    "lng": -38.33222
  },
  {
    "name": "Santana do Seridó",
    "country": "BR",
    "lat": -6.77153,
    "lng": -36.73466
  },
  {
    "name": "Santa Rita",
    "country": "BR",
    "lat": -3.13901,
    "lng": -44.32519
  },
  {
    "name": "Santa Maria do Pará",
    "country": "BR",
    "lat": -1.35028,
    "lng": -47.57556
  },
  {
    "name": "Santa Maria das Barreiras",
    "country": "BR",
    "lat": -8.87167,
    "lng": -49.71278
  },
  {
    "name": "Santa Maria da Boa Vista",
    "country": "BR",
    "lat": -8.80778,
    "lng": -39.82556
  },
  {
    "name": "Santa Maria",
    "country": "BR",
    "lat": -5.83972,
    "lng": -35.69528
  },
  {
    "name": "Santa Luzia do Norte",
    "country": "BR",
    "lat": -9.60333,
    "lng": -35.8225
  },
  {
    "name": "Santa Luzia",
    "country": "BR",
    "lat": -7.64265,
    "lng": -47.21738
  },
  {
    "name": "Santa Luzia",
    "country": "BR",
    "lat": -6.87222,
    "lng": -36.91861
  },
  {
    "name": "Santa Luzia",
    "country": "BR",
    "lat": -5.31093,
    "lng": -35.47519
  },
  {
    "name": "Santa Isabel do Pará",
    "country": "BR",
    "lat": -1.29861,
    "lng": -48.16056
  },
  {
    "name": "Santa Inês",
    "country": "BR",
    "lat": -7.62056,
    "lng": -38.55361
  },
  {
    "name": "Santa Inês",
    "country": "BR",
    "lat": -3.66667,
    "lng": -45.38
  },
  {
    "name": "Santa Helena",
    "country": "BR",
    "lat": -6.72028,
    "lng": -38.63806
  },
  {
    "name": "Santa Helena",
    "country": "BR",
    "lat": -2.23111,
    "lng": -45.3
  },
  {
    "name": "Santa Filomena",
    "country": "BR",
    "lat": -9.11222,
    "lng": -45.92222
  },
  {
    "name": "Santa Filomena do Maranhão",
    "country": "BR",
    "lat": -5.49783,
    "lng": -44.559
  },
  {
    "name": "Santa Cruz dos Milagres",
    "country": "BR",
    "lat": -5.80028,
    "lng": -41.95944
  },
  {
    "name": "Santa Cruz do Piauí",
    "country": "BR",
    "lat": -7.18528,
    "lng": -41.7675
  },
  {
    "name": "Santa Cruz do Capibaribe",
    "country": "BR",
    "lat": -7.9575,
    "lng": -36.20472
  },
  {
    "name": "Santa Cruz do Arari",
    "country": "BR",
    "lat": -0.66333,
    "lng": -49.175
  },
  {
    "name": "Santa Cruz da Baixa Verde",
    "country": "BR",
    "lat": -7.82056,
    "lng": -38.15278
  },
  {
    "name": "Santa Cruz",
    "country": "BR",
    "lat": -6.53306,
    "lng": -38.06194
  },
  {
    "name": "Santa Cruz",
    "country": "BR",
    "lat": -6.22944,
    "lng": -36.02278
  },
  {
    "name": "Santa Brígida",
    "country": "BR",
    "lat": -9.73611,
    "lng": -38.12778
  },
  {
    "name": "Sanharó",
    "country": "BR",
    "lat": -8.36056,
    "lng": -36.56556
  },
  {
    "name": "Sambaíba",
    "country": "BR",
    "lat": -7.14028,
    "lng": -45.34611
  },
  {
    "name": "Salvaterra",
    "country": "BR",
    "lat": -0.75333,
    "lng": -48.51667
  },
  {
    "name": "Saloá",
    "country": "BR",
    "lat": -8.97583,
    "lng": -36.6875
  },
  {
    "name": "Salitre",
    "country": "BR",
    "lat": -7.28472,
    "lng": -40.45722
  },
  {
    "name": "Salinópolis",
    "country": "BR",
    "lat": -0.62099,
    "lng": -47.35422
  },
  {
    "name": "Salgueiro",
    "country": "BR",
    "lat": -8.07417,
    "lng": -39.11917
  },
  {
    "name": "Salgado de São Félix",
    "country": "BR",
    "lat": -7.35694,
    "lng": -35.44056
  },
  {
    "name": "Salgadinho",
    "country": "BR",
    "lat": -7.93639,
    "lng": -35.63278
  },
  {
    "name": "Salgadinho",
    "country": "BR",
    "lat": -7.10278,
    "lng": -36.84528
  },
  {
    "name": "Sairé",
    "country": "BR",
    "lat": -8.3275,
    "lng": -35.70556
  },
  {
    "name": "Saboeiro",
    "country": "BR",
    "lat": -6.54194,
    "lng": -39.90667
  },
  {
    "name": "Santana",
    "country": "BR",
    "lat": -0.03816,
    "lng": -51.17476
  },
  {
    "name": "Santa Filomena",
    "country": "BR",
    "lat": -8.1625,
    "lng": -40.61556
  },
  {
    "name": "Santa Cruz",
    "country": "BR",
    "lat": -8.23945,
    "lng": -40.33227
  },
  {
    "name": "Santa Rosa do Piauí",
    "country": "BR",
    "lat": -6.79726,
    "lng": -42.27932
  },
  {
    "name": "Sampaio",
    "country": "BR",
    "lat": -5.34833,
    "lng": -47.87306
  },
  {
    "name": "Santa Fé do Araguaia",
    "country": "BR",
    "lat": -7.15583,
    "lng": -48.70278
  },
  {
    "name": "Santa Maria do Tocantins",
    "country": "BR",
    "lat": -8.77542,
    "lng": -47.74745
  },
  {
    "name": "Santa Rita do Pardo",
    "country": "BR",
    "lat": -21.30156,
    "lng": -52.82879
  },
  {
    "name": "Santo Antônio das Missões",
    "country": "BR",
    "lat": -28.51069,
    "lng": -55.22726
  },
  {
    "name": "Santa Terezinha de Goiás",
    "country": "BR",
    "lat": -14.43783,
    "lng": -49.70706
  },
  {
    "name": "Saúde",
    "country": "BR",
    "lat": -10.94111,
    "lng": -40.41889
  },
  {
    "name": "Saudades",
    "country": "BR",
    "lat": -26.92417,
    "lng": -53.00306
  },
  {
    "name": "Saubara",
    "country": "BR",
    "lat": -12.7375,
    "lng": -38.76861
  },
  {
    "name": "Sarzedo",
    "country": "BR",
    "lat": -20.03528,
    "lng": -44.14472
  },
  {
    "name": "Sarutaiá",
    "country": "BR",
    "lat": -23.27306,
    "lng": -49.48028
  },
  {
    "name": "Sardoá",
    "country": "BR",
    "lat": -18.78361,
    "lng": -42.365
  },
  {
    "name": "Sarapuí",
    "country": "BR",
    "lat": -23.64056,
    "lng": -47.82472
  },
  {
    "name": "Sarandi",
    "country": "BR",
    "lat": -27.94389,
    "lng": -52.92306
  },
  {
    "name": "Sarandi",
    "country": "BR",
    "lat": -23.44361,
    "lng": -51.87389
  },
  {
    "name": "Saquarema",
    "country": "BR",
    "lat": -22.89889,
    "lng": -42.46985
  },
  {
    "name": "Sapucaí-Mirim",
    "country": "BR",
    "lat": -22.74778,
    "lng": -45.7425
  },
  {
    "name": "Sapucaia do Sul",
    "country": "BR",
    "lat": -29.81782,
    "lng": -51.14551
  },
  {
    "name": "Sapucaia",
    "country": "BR",
    "lat": -21.995,
    "lng": -42.91444
  },
  {
    "name": "Sapopema",
    "country": "BR",
    "lat": -23.91083,
    "lng": -50.58028
  },
  {
    "name": "Sapiranga",
    "country": "BR",
    "lat": -29.63806,
    "lng": -51.00694
  },
  {
    "name": "Sapeaçu",
    "country": "BR",
    "lat": -12.7275,
    "lng": -39.18194
  },
  {
    "name": "Santos Dumont",
    "country": "BR",
    "lat": -21.45667,
    "lng": -43.5525
  },
  {
    "name": "Santos",
    "country": "BR",
    "lat": -23.96083,
    "lng": -46.33361
  },
  {
    "name": "Santo Inácio",
    "country": "BR",
    "lat": -22.69778,
    "lng": -51.79389
  },
  {
    "name": "Santo Hipólito",
    "country": "BR",
    "lat": -18.29694,
    "lng": -44.22306
  },
  {
    "name": "Santo Expedito",
    "country": "BR",
    "lat": -21.85056,
    "lng": -51.39222
  },
  {
    "name": "Santo Estêvão",
    "country": "BR",
    "lat": -12.43028,
    "lng": -39.25139
  },
  {
    "name": "Santo Cristo",
    "country": "BR",
    "lat": -27.82389,
    "lng": -54.66278
  },
  {
    "name": "Santo Augusto",
    "country": "BR",
    "lat": -27.85083,
    "lng": -53.77722
  },
  {
    "name": "Santo Antônio do Sudoeste",
    "country": "BR",
    "lat": -26.07361,
    "lng": -53.72528
  },
  {
    "name": "Santo Antônio do Rio Abaixo",
    "country": "BR",
    "lat": -19.22833,
    "lng": -43.25389
  },
  {
    "name": "Santo Antônio do Pinhal",
    "country": "BR",
    "lat": -22.82722,
    "lng": -45.6625
  },
  {
    "name": "Santo Antônio do Paraíso",
    "country": "BR",
    "lat": -23.49361,
    "lng": -50.64556
  },
  {
    "name": "Santo Antônio do Monte",
    "country": "BR",
    "lat": -20.08722,
    "lng": -45.29361
  },
  {
    "name": "Santo Antônio do Leverger",
    "country": "BR",
    "lat": -15.86556,
    "lng": -56.07667
  },
  {
    "name": "Santo Antônio do Jardim",
    "country": "BR",
    "lat": -22.11505,
    "lng": -46.68357
  },
  {
    "name": "Santo Antônio do Jacinto",
    "country": "BR",
    "lat": -16.53389,
    "lng": -40.17583
  },
  {
    "name": "Santo Antônio do Itambé",
    "country": "BR",
    "lat": -18.46583,
    "lng": -43.30667
  },
  {
    "name": "Santo Antônio do Grama",
    "country": "BR",
    "lat": -20.31444,
    "lng": -42.60861
  },
  {
    "name": "Santo Antônio do Caiuá",
    "country": "BR",
    "lat": -22.73472,
    "lng": -52.34222
  },
  {
    "name": "Santo Antônio do Amparo",
    "country": "BR",
    "lat": -20.94639,
    "lng": -44.91889
  },
  {
    "name": "Santo Antônio de Posse",
    "country": "BR",
    "lat": -22.60611,
    "lng": -46.91944
  },
  {
    "name": "Santo Antônio de Pádua",
    "country": "BR",
    "lat": -21.53944,
    "lng": -42.18028
  },
  {
    "name": "Santo Antônio de Jesus",
    "country": "BR",
    "lat": -12.96889,
    "lng": -39.26139
  },
  {
    "name": "Santo Antônio da Platina",
    "country": "BR",
    "lat": -23.295,
    "lng": -50.07722
  },
  {
    "name": "Santo Antônio da Alegria",
    "country": "BR",
    "lat": -21.08694,
    "lng": -47.15111
  },
  {
    "name": "Santo Antônio da Patrulha",
    "country": "BR",
    "lat": -29.8175,
    "lng": -50.51972
  },
  {
    "name": "Santo Ângelo",
    "country": "BR",
    "lat": -28.29917,
    "lng": -54.26306
  },
  {
    "name": "Santo André",
    "country": "BR",
    "lat": -23.66389,
    "lng": -46.53833
  },
  {
    "name": "Santo Amaro das Brotas",
    "country": "BR",
    "lat": -10.78889,
    "lng": -37.05444
  },
  {
    "name": "Santo Amaro da Imperatriz",
    "country": "BR",
    "lat": -27.68806,
    "lng": -48.77861
  },
  {
    "name": "Santo Amaro",
    "country": "BR",
    "lat": -23.64542,
    "lng": -46.70394
  },
  {
    "name": "Santo Amaro",
    "country": "BR",
    "lat": -12.54667,
    "lng": -38.71194
  },
  {
    "name": "Santiago",
    "country": "BR",
    "lat": -29.19167,
    "lng": -54.86722
  },
  {
    "name": "Santa Vitória do Palmar",
    "country": "BR",
    "lat": -33.51889,
    "lng": -53.36806
  },
  {
    "name": "Santa Vitória",
    "country": "BR",
    "lat": -18.83861,
    "lng": -50.12139
  },
  {
    "name": "Santa Terezinha",
    "country": "BR",
    "lat": -12.77194,
    "lng": -39.52333
  },
  {
    "name": "Santa Terezinha",
    "country": "BR",
    "lat": -10.47059,
    "lng": -50.51359
  },
  {
    "name": "Santa Tereza",
    "country": "BR",
    "lat": -29.16889,
    "lng": -51.73528
  },
  {
    "name": "Santa Tereza do Oeste",
    "country": "BR",
    "lat": -25.05312,
    "lng": -53.61712
  },
  {
    "name": "Santa Teresa",
    "country": "BR",
    "lat": -19.93556,
    "lng": -40.60028
  },
  {
    "name": "Santa Tereza de Goiás",
    "country": "BR",
    "lat": -13.71786,
    "lng": -49.01617
  },
  {
    "name": "Santa Rosa de Viterbo",
    "country": "BR",
    "lat": -21.47278,
    "lng": -47.36306
  },
  {
    "name": "Santa Rosa de Lima",
    "country": "BR",
    "lat": -10.64639,
    "lng": -37.19389
  },
  {
    "name": "Santa Rosa",
    "country": "BR",
    "lat": -27.87083,
    "lng": -54.48139
  },
  {
    "name": "Santa Rosa do Tocantins",
    "country": "BR",
    "lat": -11.44889,
    "lng": -48.12056
  },
  {
    "name": "Santa Rita do Sapucaí",
    "country": "BR",
    "lat": -22.25222,
    "lng": -45.70333
  },
  {
    "name": "Santa Rita do Passa Quatro",
    "country": "BR",
    "lat": -21.71028,
    "lng": -47.47806
  },
  {
    "name": "Santa Rita do Itueto",
    "country": "BR",
    "lat": -19.35972,
    "lng": -41.38
  },
  {
    "name": "Santa Rita d'Oeste",
    "country": "BR",
    "lat": -20.14361,
    "lng": -50.83
  },
  {
    "name": "Santa Rita do Araguaia",
    "country": "BR",
    "lat": -17.32556,
    "lng": -53.20528
  },
  {
    "name": "Santa Rita de Jacutinga",
    "country": "BR",
    "lat": -22.14944,
    "lng": -44.095
  },
  {
    "name": "Santa Rita de Caldas",
    "country": "BR",
    "lat": -22.02861,
    "lng": -46.33667
  },
  {
    "name": "Santa Rita de Minas",
    "country": "BR",
    "lat": -19.87432,
    "lng": -42.13221
  },
  {
    "name": "Santanópolis",
    "country": "BR",
    "lat": -12.02494,
    "lng": -38.8657
  },
  {
    "name": "Santana dos Montes",
    "country": "BR",
    "lat": -20.78778,
    "lng": -43.69167
  },
  {
    "name": "Santana do Paraíso",
    "country": "BR",
    "lat": -19.36361,
    "lng": -42.56861
  },
  {
    "name": "Santana do Manhuaçu",
    "country": "BR",
    "lat": -20.1075,
    "lng": -41.92528
  },
  {
    "name": "Sant'Ana do Livramento",
    "country": "BR",
    "lat": -30.89083,
    "lng": -55.53278
  },
  {
    "name": "Santana do Jacaré",
    "country": "BR",
    "lat": -20.89778,
    "lng": -45.13083
  },
  {
    "name": "Santana do Itararé",
    "country": "BR",
    "lat": -23.755,
    "lng": -49.62917
  },
  {
    "name": "Santana do Garambéu",
    "country": "BR",
    "lat": -21.60139,
    "lng": -44.10444
  },
  {
    "name": "Santana do Deserto",
    "country": "BR",
    "lat": -21.95,
    "lng": -43.16639
  },
  {
    "name": "Santana de Pirapama",
    "country": "BR",
    "lat": -19.00611,
    "lng": -44.04306
  },
  {
    "name": "Santana de Parnaíba",
    "country": "BR",
    "lat": -23.44417,
    "lng": -46.91778
  },
  {
    "name": "Santana de Cataguases",
    "country": "BR",
    "lat": -21.28722,
    "lng": -42.55722
  },
  {
    "name": "Santana da Vargem",
    "country": "BR",
    "lat": -21.24917,
    "lng": -45.50667
  },
  {
    "name": "Santana da Ponte Pensa",
    "country": "BR",
    "lat": -20.25306,
    "lng": -50.79722
  },
  {
    "name": "Santana da Boa Vista",
    "country": "BR",
    "lat": -30.87194,
    "lng": -53.11528
  },
  {
    "name": "Santana",
    "country": "BR",
    "lat": -14.46667,
    "lng": -41.8
  },
  {
    "name": "Santana",
    "country": "BR",
    "lat": -12.98333,
    "lng": -44.05111
  },
  {
    "name": "Santa Mercedes",
    "country": "BR",
    "lat": -21.35083,
    "lng": -51.75528
  },
  {
    "name": "Santa Mariana",
    "country": "BR",
    "lat": -23.15083,
    "lng": -50.51861
  },
  {
    "name": "Santa Maria Madalena",
    "country": "BR",
    "lat": -21.95528,
    "lng": -42.00806
  },
  {
    "name": "Santa Maria do Suaçuí",
    "country": "BR",
    "lat": -18.19028,
    "lng": -42.41417
  },
  {
    "name": "Santa Maria do Salto",
    "country": "BR",
    "lat": -16.24889,
    "lng": -40.14944
  },
  {
    "name": "Santa Maria do Herval",
    "country": "BR",
    "lat": -29.49806,
    "lng": -50.99278
  },
  {
    "name": "Santa Maria de Itabira",
    "country": "BR",
    "lat": -19.44944,
    "lng": -43.1125
  },
  {
    "name": "Santa Maria da Vitória",
    "country": "BR",
    "lat": -13.38814,
    "lng": -44.19868
  },
  {
    "name": "Santa Maria da Serra",
    "country": "BR",
    "lat": -22.56722,
    "lng": -48.16056
  },
  {
    "name": "Santa Maria",
    "country": "BR",
    "lat": -29.68417,
    "lng": -53.80694
  },
  {
    "name": "Santa Margarida",
    "country": "BR",
    "lat": -20.38389,
    "lng": -42.25056
  },
  {
    "name": "Santa Luzia do Itanhy",
    "country": "BR",
    "lat": -11.35525,
    "lng": -37.44943
  },
  {
    "name": "Santa Luzia",
    "country": "BR",
    "lat": -19.76972,
    "lng": -43.85139
  },
  {
    "name": "Santaluz",
    "country": "BR",
    "lat": -11.25583,
    "lng": -39.37472
  },
  {
    "name": "Santa Lúcia",
    "country": "BR",
    "lat": -21.685,
    "lng": -48.08417
  },
  {
    "name": "Santa Leopoldina",
    "country": "BR",
    "lat": -20.10056,
    "lng": -40.52972
  },
  {
    "name": "Santa Juliana",
    "country": "BR",
    "lat": -19.30861,
    "lng": -47.52528
  },
  {
    "name": "Santa Isabel do Ivaí",
    "country": "BR",
    "lat": -23.00278,
    "lng": -53.19667
  },
  {
    "name": "Santa Isabel",
    "country": "BR",
    "lat": -23.31556,
    "lng": -46.22139
  },
  {
    "name": "Santa Inês",
    "country": "BR",
    "lat": -22.6375,
    "lng": -51.9025
  },
  {
    "name": "Santa Inês",
    "country": "BR",
    "lat": -13.29222,
    "lng": -39.81889
  },
  {
    "name": "Santa Helena de Goiás",
    "country": "BR",
    "lat": -17.81361,
    "lng": -50.59694
  },
  {
    "name": "Santa Helena",
    "country": "BR",
    "lat": -24.86028,
    "lng": -54.33278
  },
  {
    "name": "Santa Gertrudes",
    "country": "BR",
    "lat": -22.45667,
    "lng": -47.53028
  },
  {
    "name": "Santa Fé do Sul",
    "country": "BR",
    "lat": -20.21111,
    "lng": -50.92583
  },
  {
    "name": "Santa Fé",
    "country": "BR",
    "lat": -23.0375,
    "lng": -51.80528
  },
  {
    "name": "Santa Ernestina",
    "country": "BR",
    "lat": -21.46278,
    "lng": -48.39083
  },
  {
    "name": "Santa Efigênia de Minas",
    "country": "BR",
    "lat": -18.82507,
    "lng": -42.43846
  },
  {
    "name": "Santa Cruz do Sul",
    "country": "BR",
    "lat": -29.7175,
    "lng": -52.42583
  },
  {
    "name": "Santa Cruz do Rio Pardo",
    "country": "BR",
    "lat": -22.89889,
    "lng": -49.6325
  },
  {
    "name": "Santa Cruz de Monte Castelo",
    "country": "BR",
    "lat": -22.95333,
    "lng": -53.29722
  },
  {
    "name": "Santa Cruz do Escalvado",
    "country": "BR",
    "lat": -20.23611,
    "lng": -42.81389
  },
  {
    "name": "Santa Cruz de Salinas",
    "country": "BR",
    "lat": -16.09833,
    "lng": -41.74639
  },
  {
    "name": "Santa Cruz de Goiás",
    "country": "BR",
    "lat": -17.31583,
    "lng": -48.48167
  },
  {
    "name": "Santa Cruz da Vitória",
    "country": "BR",
    "lat": -14.96111,
    "lng": -39.81167
  },
  {
    "name": "Santa Cruz das Palmeiras",
    "country": "BR",
    "lat": -21.82694,
    "lng": -47.24861
  },
  {
    "name": "Santa Cruz da Conceição",
    "country": "BR",
    "lat": -22.14028,
    "lng": -47.45194
  },
  {
    "name": "Santa Cruz Cabrália",
    "country": "BR",
    "lat": -16.27806,
    "lng": -39.02472
  },
  {
    "name": "Santa Clara do Sul",
    "country": "BR",
    "lat": -29.46889,
    "lng": -52.0875
  },
  {
    "name": "Santa Clara d'Oeste",
    "country": "BR",
    "lat": -20.09389,
    "lng": -50.92639
  },
  {
    "name": "Santa Cecília do Pavão",
    "country": "BR",
    "lat": -23.51722,
    "lng": -50.78361
  },
  {
    "name": "Santa Cecília do Sul",
    "country": "BR",
    "lat": -28.16111,
    "lng": -51.93111
  },
  {
    "name": "Santa Cecília",
    "country": "BR",
    "lat": -26.96083,
    "lng": -50.42694
  },
  {
    "name": "Santa Branca",
    "country": "BR",
    "lat": -23.39667,
    "lng": -45.88389
  },
  {
    "name": "Santa Bárbara do Sul",
    "country": "BR",
    "lat": -28.35833,
    "lng": -53.24722
  },
  {
    "name": "Santa Bárbara do Monte Verde",
    "country": "BR",
    "lat": -21.95917,
    "lng": -43.70222
  },
  {
    "name": "Santa Bárbara d'Oeste",
    "country": "BR",
    "lat": -22.75361,
    "lng": -47.41361
  },
  {
    "name": "Santa Bárbara do Leste",
    "country": "BR",
    "lat": -19.9778,
    "lng": -42.14261
  },
  {
    "name": "Santa Bárbara",
    "country": "BR",
    "lat": -19.95944,
    "lng": -43.41528
  },
  {
    "name": "Santa Bárbara de Goiás",
    "country": "BR",
    "lat": -16.57762,
    "lng": -49.69759
  },
  {
    "name": "Santa Amélia",
    "country": "BR",
    "lat": -23.26583,
    "lng": -50.42417
  },
  {
    "name": "Santa Albertina",
    "country": "BR",
    "lat": -20.03194,
    "lng": -50.72778
  },
  {
    "name": "Santa Adélia",
    "country": "BR",
    "lat": -21.24278,
    "lng": -48.80417
  },
  {
    "name": "Sangão",
    "country": "BR",
    "lat": -28.63778,
    "lng": -49.12917
  },
  {
    "name": "Sandovalina",
    "country": "BR",
    "lat": -22.45611,
    "lng": -51.76306
  },
  {
    "name": "Sananduva",
    "country": "BR",
    "lat": -27.94972,
    "lng": -51.80667
  },
  {
    "name": "Salvador",
    "country": "BR",
    "lat": -12.97563,
    "lng": -38.49096
  },
  {
    "name": "Salto Grande",
    "country": "BR",
    "lat": -22.89278,
    "lng": -49.98556
  },
  {
    "name": "Salto do Itararé",
    "country": "BR",
    "lat": -23.60139,
    "lng": -49.62583
  },
  {
    "name": "Salto de Pirapora",
    "country": "BR",
    "lat": -23.64889,
    "lng": -47.57333
  },
  {
    "name": "Salto da Divisa",
    "country": "BR",
    "lat": -16.00278,
    "lng": -39.94694
  },
  {
    "name": "Salto Veloso",
    "country": "BR",
    "lat": -26.90655,
    "lng": -51.40626
  },
  {
    "name": "Salto",
    "country": "BR",
    "lat": -23.20083,
    "lng": -47.28694
  },
  {
    "name": "Saltinho",
    "country": "BR",
    "lat": -22.84667,
    "lng": -47.67694
  },
  {
    "name": "Salmourão",
    "country": "BR",
    "lat": -21.62417,
    "lng": -50.86056
  },
  {
    "name": "Salinas da Margarida",
    "country": "BR",
    "lat": -12.87111,
    "lng": -38.76444
  },
  {
    "name": "Salinas",
    "country": "BR",
    "lat": -16.17028,
    "lng": -42.29028
  },
  {
    "name": "Salgado Filho",
    "country": "BR",
    "lat": -26.17028,
    "lng": -53.36139
  },
  {
    "name": "Salgado",
    "country": "BR",
    "lat": -11.03194,
    "lng": -37.475
  },
  {
    "name": "Salesópolis",
    "country": "BR",
    "lat": -23.52909,
    "lng": -45.84904
  },
  {
    "name": "Sales Oliveira",
    "country": "BR",
    "lat": -20.77194,
    "lng": -47.83806
  },
  {
    "name": "Sales",
    "country": "BR",
    "lat": -21.34194,
    "lng": -49.49871
  },
  {
    "name": "Saldanha Marinho",
    "country": "BR",
    "lat": -28.39333,
    "lng": -53.09472
  },
  {
    "name": "Sagres",
    "country": "BR",
    "lat": -21.88361,
    "lng": -50.95611
  },
  {
    "name": "Sacramento",
    "country": "BR",
    "lat": -19.86528,
    "lng": -47.44
  },
  {
    "name": "Sabinópolis",
    "country": "BR",
    "lat": -18.66611,
    "lng": -43.08389
  },
  {
    "name": "Sabino",
    "country": "BR",
    "lat": -21.45972,
    "lng": -49.57833
  },
  {
    "name": "Sabáudia",
    "country": "BR",
    "lat": -23.3175,
    "lng": -51.5525
  },
  {
    "name": "Sabará",
    "country": "BR",
    "lat": -19.88639,
    "lng": -43.80667
  },
  {
    "name": "Salete",
    "country": "BR",
    "lat": -26.97904,
    "lng": -50.00518
  },
  {
    "name": "Santana do Riacho",
    "country": "BR",
    "lat": -19.169,
    "lng": -43.71387
  },
  {
    "name": "Santo Antônio do Retiro",
    "country": "BR",
    "lat": -15.34276,
    "lng": -42.62226
  },
  {
    "name": "Santa Bárbara",
    "country": "BR",
    "lat": -11.95833,
    "lng": -38.975
  },
  {
    "name": "Santa Rita de Ibitipoca",
    "country": "BR",
    "lat": -21.56278,
    "lng": -43.91472
  },
  {
    "name": "Santa Rita de Cássia",
    "country": "BR",
    "lat": -11.00861,
    "lng": -44.51944
  },
  {
    "name": "Santa Cruz da Esperança",
    "country": "BR",
    "lat": -21.29083,
    "lng": -47.42972
  },
  {
    "name": "Santa Fé de Minas",
    "country": "BR",
    "lat": -16.69453,
    "lng": -45.41321
  },
  {
    "name": "Santa Helena de Minas",
    "country": "BR",
    "lat": -16.93858,
    "lng": -40.68278
  },
  {
    "name": "Santo Antônio do Aventureiro",
    "country": "BR",
    "lat": -21.75856,
    "lng": -42.81522
  },
  {
    "name": "Santo Afonso",
    "country": "BR",
    "lat": -14.49549,
    "lng": -57.00268
  },
  {
    "name": "Sandolândia",
    "country": "BR",
    "lat": -12.53722,
    "lng": -49.925
  },
  {
    "name": "Santa Rita do Tocantins",
    "country": "BR",
    "lat": -10.8646,
    "lng": -48.90796
  },
  {
    "name": "Santa Tereza do Tocantins",
    "country": "BR",
    "lat": -10.28222,
    "lng": -47.80833
  },
  {
    "name": "Santo Antônio do Içá",
    "country": "BR",
    "lat": -3.10222,
    "lng": -67.93972
  },
  {
    "name": "Santa Rosa do Purus",
    "country": "BR",
    "lat": -9.4383,
    "lng": -70.49104
  },
  {
    "name": "Santa Isabel do Rio Negro",
    "country": "BR",
    "lat": -0.41389,
    "lng": -65.01917
  },
  {
    "name": "Santo Anastácio",
    "country": "BR",
    "lat": -21.97583,
    "lng": -51.65139
  },
  {
    "name": "Sagrada Família",
    "country": "BR",
    "lat": -27.70694,
    "lng": -53.13556
  },
  {
    "name": "Saltinho",
    "country": "BR",
    "lat": -26.60917,
    "lng": -53.05611
  },
  {
    "name": "Salto do Céu",
    "country": "BR",
    "lat": -15.12972,
    "lng": -58.12667
  },
  {
    "name": "Salto do Jacuí",
    "country": "BR",
    "lat": -29.08833,
    "lng": -53.2125
  },
  {
    "name": "Salto do Lontra",
    "country": "BR",
    "lat": -25.78389,
    "lng": -53.30861
  },
  {
    "name": "Salvador das Missões",
    "country": "BR",
    "lat": -28.12639,
    "lng": -54.83528
  },
  {
    "name": "Sanclerlândia",
    "country": "BR",
    "lat": -16.1975,
    "lng": -50.31444
  },
  {
    "name": "Santa Bárbara do Pará",
    "country": "BR",
    "lat": -1.22361,
    "lng": -48.29444
  },
  {
    "name": "Santa Bárbara do Tugúrio",
    "country": "BR",
    "lat": -21.24611,
    "lng": -43.55944
  },
  {
    "name": "Santa Cecília",
    "country": "BR",
    "lat": -7.73944,
    "lng": -35.87944
  },
  {
    "name": "Santa Cruz de Minas",
    "country": "BR",
    "lat": -21.11972,
    "lng": -44.22333
  },
  {
    "name": "Santa Cruz Do Xingu",
    "country": "BR",
    "lat": -10.15556,
    "lng": -52.39444
  },
  {
    "name": "Santa Fé de Goiás",
    "country": "BR",
    "lat": -15.76917,
    "lng": -51.10556
  },
  {
    "name": "Santa Helena",
    "country": "BR",
    "lat": -26.9375,
    "lng": -53.61917
  },
  {
    "name": "Santa Isabel",
    "country": "BR",
    "lat": -15.29806,
    "lng": -49.42667
  },
  {
    "name": "Santa Izabel do Oeste",
    "country": "BR",
    "lat": -25.82111,
    "lng": -53.48444
  },
  {
    "name": "Santa Lúcia",
    "country": "BR",
    "lat": -25.40694,
    "lng": -53.56583
  },
  {
    "name": "Santa Luz",
    "country": "BR",
    "lat": -8.95389,
    "lng": -44.12944
  },
  {
    "name": "Santa Luzia",
    "country": "BR",
    "lat": -15.42944,
    "lng": -39.33417
  },
  {
    "name": "Santa Luzia",
    "country": "BR",
    "lat": -3.96333,
    "lng": -45.65833
  },
  {
    "name": "Santa Luzia do Pará",
    "country": "BR",
    "lat": -1.52361,
    "lng": -46.8975
  },
  {
    "name": "Santa Luzia d'Oeste",
    "country": "BR",
    "lat": -11.90806,
    "lng": -61.77889
  },
  {
    "name": "Santa Maria de Jetibá",
    "country": "BR",
    "lat": -20.02745,
    "lng": -40.74336
  },
  {
    "name": "Santa Maria do Cambucá",
    "country": "BR",
    "lat": -7.82917,
    "lng": -35.88056
  },
  {
    "name": "Santa Maria do Oeste",
    "country": "BR",
    "lat": -24.93946,
    "lng": -51.87072
  },
  {
    "name": "Santa Maria do Tocantins",
    "country": "BR",
    "lat": -8.79694,
    "lng": -47.79472
  },
  {
    "name": "Santa Mônica",
    "country": "BR",
    "lat": -23.10833,
    "lng": -53.10861
  },
  {
    "name": "Santa Rita do Novo Destino",
    "country": "BR",
    "lat": -15.13528,
    "lng": -49.12028
  },
  {
    "name": "Santa Rosa da Serra",
    "country": "BR",
    "lat": -19.52972,
    "lng": -45.96639
  },
  {
    "name": "Santa Rosa de Goiás",
    "country": "BR",
    "lat": -16.085,
    "lng": -49.49361
  },
  {
    "name": "Santa Rosa de Lima",
    "country": "BR",
    "lat": -28.03917,
    "lng": -49.12778
  },
  {
    "name": "Santa Rosa do Sul",
    "country": "BR",
    "lat": -29.13611,
    "lng": -49.7
  },
  {
    "name": "Santa Salete",
    "country": "BR",
    "lat": -20.24472,
    "lng": -50.68833
  },
  {
    "name": "Santa Terezinha",
    "country": "BR",
    "lat": -26.77861,
    "lng": -50.00806
  },
  {
    "name": "Santa Terezinha",
    "country": "BR",
    "lat": -7.37778,
    "lng": -37.48
  },
  {
    "name": "Santa Terezinha de Itaipu",
    "country": "BR",
    "lat": -25.43998,
    "lng": -54.40161
  },
  {
    "name": "Santa Terezinha do Progresso",
    "country": "BR",
    "lat": -26.61889,
    "lng": -53.20167
  },
  {
    "name": "Santana do Araguaia",
    "country": "BR",
    "lat": -9.335,
    "lng": -50.35
  },
  {
    "name": "Santana do Maranhão",
    "country": "BR",
    "lat": -3.11611,
    "lng": -42.41167
  },
  {
    "name": "Santana do Piauí",
    "country": "BR",
    "lat": -6.94778,
    "lng": -41.51861
  },
  {
    "name": "Santana do São Francisco",
    "country": "BR",
    "lat": -10.29111,
    "lng": -36.60806
  },
  {
    "name": "Santiago do Sul",
    "country": "BR",
    "lat": -26.63944,
    "lng": -52.68472
  },
  {
    "name": "Santo Antônio da Barra",
    "country": "BR",
    "lat": -17.56139,
    "lng": -50.63417
  },
  {
    "name": "Santo Antônio de Goiás",
    "country": "BR",
    "lat": -16.48361,
    "lng": -49.31111
  },
  {
    "name": "Santo Antônio do Aracanguá",
    "country": "BR",
    "lat": -20.93667,
    "lng": -50.49556
  },
  {
    "name": "Santo Antônio do Descoberto",
    "country": "BR",
    "lat": -15.93972,
    "lng": -48.255
  },
  {
    "name": "Santo Antônio do Palma",
    "country": "BR",
    "lat": -28.49694,
    "lng": -52.02472
  },
  {
    "name": "Santo Antônio do Planalto",
    "country": "BR",
    "lat": -28.39611,
    "lng": -52.69111
  },
  {
    "name": "Santo Antônio dos Milagres",
    "country": "BR",
    "lat": -6.04694,
    "lng": -42.70972
  },
  {
    "name": "Santo Expedito do Sul",
    "country": "BR",
    "lat": -27.90833,
    "lng": -51.64472
  },
  {
    "name": "Santópolis do Aguapeí",
    "country": "BR",
    "lat": -21.6375,
    "lng": -50.50028
  },
  {
    "name": "Sapopemba",
    "country": "BR",
    "lat": -23.59556,
    "lng": -46.52472
  },
  {
    "name": "Sapucaia",
    "country": "BR",
    "lat": -6.94722,
    "lng": -49.68222
  },
  {
    "name": "Saudade do Iguaçu",
    "country": "BR",
    "lat": -25.69444,
    "lng": -52.61889
  },
  {
    "name": "Salvador do Sul",
    "country": "BR",
    "lat": -29.43833,
    "lng": -51.51139
  },
  {
    "name": "Santo Cristo",
    "country": "BR",
    "lat": -22.89865,
    "lng": -43.20133
  },
  {
    "name": "Santa Teresa",
    "country": "BR",
    "lat": -22.91769,
    "lng": -43.18812
  },
  {
    "name": "Santa Monica",
    "country": "BR",
    "lat": -27.59137,
    "lng": -48.50756
  },
  {
    "name": "Saco dos Limoes",
    "country": "BR",
    "lat": -27.60864,
    "lng": -48.53605
  },
  {
    "name": "Saúde",
    "country": "BR",
    "lat": -22.89755,
    "lng": -43.18472
  },
  {
    "name": "Santana",
    "country": "BR",
    "lat": -23.49032,
    "lng": -46.6387
  },
  {
    "name": "Sapezal",
    "country": "BR",
    "lat": -13.54209,
    "lng": -58.82011
  },
  {
    "name": "Sao Lucas",
    "country": "BR",
    "lat": -23.59468,
    "lng": -46.54359
  },
  {
    "name": "Santa Cecilia",
    "country": "BR",
    "lat": -23.5318,
    "lng": -46.65288
  },
  {
    "name": "Sao Domingos",
    "country": "BR",
    "lat": -23.49337,
    "lng": -46.74761
  },
  {
    "name": "Sacomã",
    "country": "BR",
    "lat": -23.63083,
    "lng": -46.59817
  },
  {
    "name": "Sao Rafael",
    "country": "BR",
    "lat": -23.62821,
    "lng": -46.45395
  },
  {
    "name": "Santa Maria",
    "country": "BR",
    "lat": -16.03095,
    "lng": -48.02929
  },
  {
    "name": "Samambaia",
    "country": "BR",
    "lat": -15.88231,
    "lng": -48.10428
  },
  {
    "name": "Santa Luzia do Paruá",
    "country": "BR",
    "lat": -2.54389,
    "lng": -45.77546
  },
  {
    "name": "Satubinha",
    "country": "BR",
    "lat": -4.03757,
    "lng": -45.23816
  },
  {
    "name": "Santa Carmem",
    "country": "BR",
    "lat": -11.97457,
    "lng": -55.27881
  },
  {
    "name": "Santa Rita do Trivelato",
    "country": "BR",
    "lat": -13.81506,
    "lng": -55.27561
  },
  {
    "name": "Santo Antônio do Leste",
    "country": "BR",
    "lat": -14.80151,
    "lng": -53.61026
  },
  {
    "name": "Santa Margarida do Sul",
    "country": "BR",
    "lat": -30.33969,
    "lng": -54.08157
  },
  {
    "name": "San Andros",
    "country": "BS",
    "lat": 25.06667,
    "lng": -78.05
  },
  {
    "name": "Sarpang",
    "country": "BT",
    "lat": 26.86395,
    "lng": 90.26745
  },
  {
    "name": "Samtse",
    "country": "BT",
    "lat": 26.89903,
    "lng": 89.09951
  },
  {
    "name": "Samdrup Jongkhar",
    "country": "BT",
    "lat": 26.80069,
    "lng": 91.50519
  },
  {
    "name": "Salajwe",
    "country": "BW",
    "lat": -23.69637,
    "lng": 24.71748
  },
  {
    "name": "Sasnovy Bor",
    "country": "BY",
    "lat": 52.5194,
    "lng": 29.5988
  },
  {
    "name": "Sarachy",
    "country": "BY",
    "lat": 52.7867,
    "lng": 28.0186
  },
  {
    "name": "Samakhvalavichy",
    "country": "BY",
    "lat": 53.7396,
    "lng": 27.5037
  },
  {
    "name": "Sarteneja",
    "country": "BZ",
    "lat": 18.35334,
    "lng": -88.14541
  },
  {
    "name": "San Victor",
    "country": "BZ",
    "lat": 18.25864,
    "lng": -88.57601
  },
  {
    "name": "Santa Familia",
    "country": "BZ",
    "lat": 17.18594,
    "lng": -89.07435
  },
  {
    "name": "Santa Elena",
    "country": "BZ",
    "lat": 17.16142,
    "lng": -89.05462
  },
  {
    "name": "San Pedro",
    "country": "BZ",
    "lat": 17.91598,
    "lng": -87.9659
  },
  {
    "name": "San Pedro",
    "country": "BZ",
    "lat": 16.27153,
    "lng": -88.95437
  },
  {
    "name": "San Pablo",
    "country": "BZ",
    "lat": 18.21061,
    "lng": -88.56605
  },
  {
    "name": "San Narciso",
    "country": "BZ",
    "lat": 18.30396,
    "lng": -88.52085
  },
  {
    "name": "San Lazaro",
    "country": "BZ",
    "lat": 18.03849,
    "lng": -88.66316
  },
  {
    "name": "San Jose Soccoths",
    "country": "BZ",
    "lat": 17.08454,
    "lng": -89.13007
  },
  {
    "name": "San Jose Palmar",
    "country": "BZ",
    "lat": 18.06204,
    "lng": -88.5635
  },
  {
    "name": "San Jose",
    "country": "BZ",
    "lat": 18.1958,
    "lng": -88.57121
  },
  {
    "name": "San Joaquin",
    "country": "BZ",
    "lat": 18.35271,
    "lng": -88.44199
  },
  {
    "name": "San Ignacio",
    "country": "BZ",
    "lat": 17.1588,
    "lng": -89.0696
  },
  {
    "name": "San Felipe",
    "country": "BZ",
    "lat": 17.873,
    "lng": -88.77334
  },
  {
    "name": "San Estevan",
    "country": "BZ",
    "lat": 18.15413,
    "lng": -88.51129
  },
  {
    "name": "Sand Hill",
    "country": "BZ",
    "lat": 17.64038,
    "lng": -88.36828
  },
  {
    "name": "San Antonio",
    "country": "BZ",
    "lat": 17.07861,
    "lng": -89.02361
  },
  {
    "name": "San Antonio",
    "country": "BZ",
    "lat": 16.24361,
    "lng": -89.02417
  },
  {
    "name": "San Andres",
    "country": "BZ",
    "lat": 18.38922,
    "lng": -88.40939
  },
  {
    "name": "Santa Rosa Village",
    "country": "BZ",
    "lat": 16.6662,
    "lng": -88.45437
  },
  {
    "name": "San Roman Village",
    "country": "BZ",
    "lat": 16.65281,
    "lng": -88.47416
  },
  {
    "name": "San Juan",
    "country": "BZ",
    "lat": 16.56232,
    "lng": -88.51528
  },
  {
    "name": "Santa Cruz",
    "country": "BZ",
    "lat": 16.6975,
    "lng": -88.42548
  },
  {
    "name": "Saanich",
    "country": "CA",
    "lat": 48.54964,
    "lng": -123.36931
  },
  {
    "name": "Saanichton",
    "country": "CA",
    "lat": 48.6,
    "lng": -123.41667
  },
  {
    "name": "Sackville",
    "country": "CA",
    "lat": 45.89868,
    "lng": -64.36836
  },
  {
    "name": "Saguenay",
    "country": "CA",
    "lat": 48.41675,
    "lng": -71.06573
  },
  {
    "name": "Sahali",
    "country": "CA",
    "lat": 50.65,
    "lng": -120.33333
  },
  {
    "name": "Saint-Adolphe-d'Howard",
    "country": "CA",
    "lat": 45.96679,
    "lng": -74.33253
  },
  {
    "name": "Saint-Alexandre",
    "country": "CA",
    "lat": 50.02539,
    "lng": -66.86155
  },
  {
    "name": "Saint-Alexandre",
    "country": "CA",
    "lat": 45.5001,
    "lng": -75.74935
  },
  {
    "name": "Saint-Amable",
    "country": "CA",
    "lat": 45.65008,
    "lng": -73.29916
  },
  {
    "name": "Saint-Ambroise",
    "country": "CA",
    "lat": 48.55447,
    "lng": -71.32148
  },
  {
    "name": "Saint-Ambroise",
    "country": "CA",
    "lat": 46.07647,
    "lng": -73.55636
  },
  {
    "name": "Saint-André-Avellin",
    "country": "CA",
    "lat": 45.7168,
    "lng": -75.06599
  },
  {
    "name": "Saint Andrews",
    "country": "CA",
    "lat": 45.0737,
    "lng": -67.05312
  },
  {
    "name": "Saint-Antoine",
    "country": "CA",
    "lat": 46.36294,
    "lng": -64.74985
  },
  {
    "name": "Saint-Augustin",
    "country": "CA",
    "lat": 51.22602,
    "lng": -58.65017
  },
  {
    "name": "Saint-Barnabé-Sud",
    "country": "CA",
    "lat": 45.72977,
    "lng": -72.92244
  },
  {
    "name": "Saint-Basile-le-Grand",
    "country": "CA",
    "lat": 45.53338,
    "lng": -73.28246
  },
  {
    "name": "Saint-Boniface",
    "country": "CA",
    "lat": 46.50011,
    "lng": -75.98264
  },
  {
    "name": "Saint-Bruno",
    "country": "CA",
    "lat": 48.46679,
    "lng": -71.6491
  },
  {
    "name": "Saint-Bruno-de-Guigues",
    "country": "CA",
    "lat": 47.46685,
    "lng": -79.43296
  },
  {
    "name": "Saint-Bruno-de-Montarville",
    "country": "CA",
    "lat": 45.53341,
    "lng": -73.34916
  },
  {
    "name": "Saint-Canut",
    "country": "CA",
    "lat": 45.71502,
    "lng": -74.08376
  },
  {
    "name": "Saint-Césaire",
    "country": "CA",
    "lat": 45.41678,
    "lng": -72.99914
  },
  {
    "name": "Saint-Charles",
    "country": "CA",
    "lat": 45.70288,
    "lng": -73.55417
  },
  {
    "name": "Saint-Charles-Borromée",
    "country": "CA",
    "lat": 46.05007,
    "lng": -73.46586
  },
  {
    "name": "Saint-Colomban",
    "country": "CA",
    "lat": 45.73338,
    "lng": -74.13251
  },
  {
    "name": "Saint-Côme--Linière",
    "country": "CA",
    "lat": 46.06677,
    "lng": -70.51573
  },
  {
    "name": "Saint-Constant",
    "country": "CA",
    "lat": 45.36678,
    "lng": -73.56588
  },
  {
    "name": "Saint-Cyrille-de-Wendover",
    "country": "CA",
    "lat": 45.93336,
    "lng": -72.43241
  },
  {
    "name": "Saint-Damase",
    "country": "CA",
    "lat": 45.53341,
    "lng": -72.99914
  },
  {
    "name": "Saint-Denis-sur-Richelieu",
    "country": "CA",
    "lat": 45.78338,
    "lng": -73.14915
  },
  {
    "name": "Saint-Donat-de-Montcalm",
    "country": "CA",
    "lat": 46.31868,
    "lng": -74.22171
  },
  {
    "name": "Sainte-Adèle",
    "country": "CA",
    "lat": 45.95008,
    "lng": -74.13251
  },
  {
    "name": "Sainte-Agathe-des-Monts",
    "country": "CA",
    "lat": 46.05009,
    "lng": -74.28252
  },
  {
    "name": "Sainte-Anne-de-Bellevue",
    "country": "CA",
    "lat": 45.40618,
    "lng": -73.9456
  },
  {
    "name": "Sainte-Anne-des-Monts",
    "country": "CA",
    "lat": 49.12402,
    "lng": -66.49243
  },
  {
    "name": "Sainte-Anne-des-Plaines",
    "country": "CA",
    "lat": 45.76468,
    "lng": -73.81156
  },
  {
    "name": "Sainte-Béatrix",
    "country": "CA",
    "lat": 46.20007,
    "lng": -73.61587
  },
  {
    "name": "Sainte-Catherine",
    "country": "CA",
    "lat": 45.40008,
    "lng": -73.58248
  },
  {
    "name": "Sainte-Catherine",
    "country": "CA",
    "lat": 46.31836,
    "lng": -72.56632
  },
  {
    "name": "Sainte-Clotilde-de-Horton",
    "country": "CA",
    "lat": 45.98336,
    "lng": -72.2324
  },
  {
    "name": "Sainte-Croix",
    "country": "CA",
    "lat": 45.13368,
    "lng": -72.80083
  },
  {
    "name": "Saint-Édouard",
    "country": "CA",
    "lat": 45.23338,
    "lng": -73.51588
  },
  {
    "name": "Sainte-Julie",
    "country": "CA",
    "lat": 45.58338,
    "lng": -73.33246
  },
  {
    "name": "Sainte-Julienne",
    "country": "CA",
    "lat": 45.96677,
    "lng": -73.71587
  },
  {
    "name": "Saint-Élie-de-Caxton",
    "country": "CA",
    "lat": 46.48336,
    "lng": -72.96584
  },
  {
    "name": "Saint-Elzéar",
    "country": "CA",
    "lat": 45.60338,
    "lng": -73.72698
  },
  {
    "name": "Sainte-Madeleine",
    "country": "CA",
    "lat": 45.60008,
    "lng": -73.09914
  },
  {
    "name": "Sainte-Marguerite-du-Lac-Masson",
    "country": "CA",
    "lat": 46.03338,
    "lng": -74.0659
  },
  {
    "name": "Sainte-Marthe-sur-le-Lac",
    "country": "CA",
    "lat": 45.53338,
    "lng": -73.9325
  },
  {
    "name": "Sainte-Martine",
    "country": "CA",
    "lat": 45.25008,
    "lng": -73.79919
  },
  {
    "name": "Sainte-Monique",
    "country": "CA",
    "lat": 48.73339,
    "lng": -71.84911
  },
  {
    "name": "Saint-Éphrem-de-Beauce",
    "country": "CA",
    "lat": 46.06677,
    "lng": -70.94905
  },
  {
    "name": "Sainte-Sophie",
    "country": "CA",
    "lat": 45.81678,
    "lng": -73.89919
  },
  {
    "name": "Sainte-Thècle",
    "country": "CA",
    "lat": 46.81676,
    "lng": -72.49911
  },
  {
    "name": "Sainte-Thérèse",
    "country": "CA",
    "lat": 45.63922,
    "lng": -73.82757
  },
  {
    "name": "Saint-Eustache",
    "country": "CA",
    "lat": 45.565,
    "lng": -73.90554
  },
  {
    "name": "Saint-Félicien",
    "country": "CA",
    "lat": 48.65007,
    "lng": -72.44906
  },
  {
    "name": "Saint-Félix-de-Valois",
    "country": "CA",
    "lat": 46.16977,
    "lng": -73.42525
  },
  {
    "name": "Saint-Gabriel",
    "country": "CA",
    "lat": 46.30007,
    "lng": -73.38245
  },
  {
    "name": "Saint-Gédéon",
    "country": "CA",
    "lat": 48.50009,
    "lng": -71.76581
  },
  {
    "name": "Saint-Germain-de-Grantham",
    "country": "CA",
    "lat": 45.83337,
    "lng": -72.56582
  },
  {
    "name": "Saint-Hippolyte",
    "country": "CA",
    "lat": 45.93338,
    "lng": -74.0159
  },
  {
    "name": "Saint-Honoré",
    "country": "CA",
    "lat": 48.53338,
    "lng": -71.08236
  },
  {
    "name": "Saint-Hubert",
    "country": "CA",
    "lat": 45.50008,
    "lng": -73.41583
  },
  {
    "name": "Saint-Hyacinthe",
    "country": "CA",
    "lat": 45.63076,
    "lng": -72.95699
  },
  {
    "name": "Saint-Isidore",
    "country": "CA",
    "lat": 47.43345,
    "lng": -79.29965
  },
  {
    "name": "Saint-Isidore-de-Laprairie",
    "country": "CA",
    "lat": 45.30008,
    "lng": -73.67998
  },
  {
    "name": "Saint-Jacques",
    "country": "CA",
    "lat": 45.94867,
    "lng": -73.57026
  },
  {
    "name": "Saint-Jacques-le-Mineur",
    "country": "CA",
    "lat": 45.28338,
    "lng": -73.41587
  },
  {
    "name": "Saint-Jean-Baptiste",
    "country": "CA",
    "lat": 45.3806,
    "lng": -74.0121
  },
  {
    "name": "Saint-Jean-sur-Richelieu",
    "country": "CA",
    "lat": 45.30713,
    "lng": -73.26259
  },
  {
    "name": "Saint-Jérôme",
    "country": "CA",
    "lat": 45.78036,
    "lng": -74.00365
  },
  {
    "name": "Saint John",
    "country": "CA",
    "lat": 45.27076,
    "lng": -66.05616
  },
  {
    "name": "Saint-Joseph",
    "country": "CA",
    "lat": 45.95817,
    "lng": -73.22025
  },
  {
    "name": "Saint-Joseph-de-Coleraine",
    "country": "CA",
    "lat": 45.96677,
    "lng": -71.36577
  },
  {
    "name": "Saint-Joseph-du-Lac",
    "country": "CA",
    "lat": 45.53338,
    "lng": -73.9992
  },
  {
    "name": "Saint-Laurent",
    "country": "CA",
    "lat": 45.50008,
    "lng": -73.66585
  },
  {
    "name": "Saint-Lazare",
    "country": "CA",
    "lat": 45.40008,
    "lng": -74.13256
  },
  {
    "name": "Saint-Léonard",
    "country": "CA",
    "lat": 45.58773,
    "lng": -73.59501
  },
  {
    "name": "Saint-Léonard-d'Aston",
    "country": "CA",
    "lat": 46.10723,
    "lng": -72.3735
  },
  {
    "name": "Saint-Liboire",
    "country": "CA",
    "lat": 45.65068,
    "lng": -72.76348
  },
  {
    "name": "Saint-Lin-Laurentides",
    "country": "CA",
    "lat": 45.85008,
    "lng": -73.76588
  },
  {
    "name": "Saint-Marc-des-Carrières",
    "country": "CA",
    "lat": 46.68335,
    "lng": -72.0491
  },
  {
    "name": "Saint-Mathieu",
    "country": "CA",
    "lat": 45.31678,
    "lng": -73.51587
  },
  {
    "name": "Saint-Michel",
    "country": "CA",
    "lat": 45.56758,
    "lng": -73.62168
  },
  {
    "name": "Saint-Michel-des-Saints",
    "country": "CA",
    "lat": 46.67702,
    "lng": -73.91881
  },
  {
    "name": "Saint-Narcisse",
    "country": "CA",
    "lat": 46.56395,
    "lng": -72.47051
  },
  {
    "name": "Saint-Nazaire",
    "country": "CA",
    "lat": 48.58944,
    "lng": -71.55247
  },
  {
    "name": "Saint-Philippe",
    "country": "CA",
    "lat": 45.37597,
    "lng": -73.48111
  },
  {
    "name": "Saint-Philippe-de-La Prairie",
    "country": "CA",
    "lat": 45.35723,
    "lng": -73.47706
  },
  {
    "name": "Saint-Pie",
    "country": "CA",
    "lat": 45.50277,
    "lng": -72.9089
  },
  {
    "name": "Saint-Pie-V",
    "country": "CA",
    "lat": 46.00351,
    "lng": -72.74689
  },
  {
    "name": "Saint-Pierre-les-Becquets",
    "country": "CA",
    "lat": 46.50005,
    "lng": -72.1991
  },
  {
    "name": "Saint-Placide",
    "country": "CA",
    "lat": 45.53338,
    "lng": -74.19923
  },
  {
    "name": "Saint-Polycarpe",
    "country": "CA",
    "lat": 45.30009,
    "lng": -74.29924
  },
  {
    "name": "Saint-Prime",
    "country": "CA",
    "lat": 48.59242,
    "lng": -72.33555
  },
  {
    "name": "Saint-Raphaël",
    "country": "CA",
    "lat": 46.25011,
    "lng": -76.01605
  },
  {
    "name": "Saint-Raymond",
    "country": "CA",
    "lat": 45.46698,
    "lng": -73.60948
  },
  {
    "name": "Saint-Rémi",
    "country": "CA",
    "lat": 45.26678,
    "lng": -73.61588
  },
  {
    "name": "Saint-Rémi-de-Tingwick",
    "country": "CA",
    "lat": 45.86677,
    "lng": -71.81581
  },
  {
    "name": "Saint-Sauveur",
    "country": "CA",
    "lat": 45.88686,
    "lng": -74.17943
  },
  {
    "name": "Saint-Sauveur-des-Monts",
    "country": "CA",
    "lat": 45.90008,
    "lng": -74.16591
  },
  {
    "name": "Saint-Thomas",
    "country": "CA",
    "lat": 46.01677,
    "lng": -73.34915
  },
  {
    "name": "Saint-Tite",
    "country": "CA",
    "lat": 46.73336,
    "lng": -72.56581
  },
  {
    "name": "Saint-Ubalde",
    "country": "CA",
    "lat": 46.75006,
    "lng": -72.2658
  },
  {
    "name": "Saint-Valère",
    "country": "CA",
    "lat": 46.06676,
    "lng": -72.09909
  },
  {
    "name": "Saint-Victor",
    "country": "CA",
    "lat": 45.61118,
    "lng": -73.51527
  },
  {
    "name": "Saint-Zotique",
    "country": "CA",
    "lat": 45.25009,
    "lng": -74.24924
  },
  {
    "name": "Salaberry-de-Valleyfield",
    "country": "CA",
    "lat": 45.25008,
    "lng": -74.13253
  },
  {
    "name": "Salisbury",
    "country": "CA",
    "lat": 46.03905,
    "lng": -65.04628
  },
  {
    "name": "Salluit",
    "country": "CA",
    "lat": 62.20411,
    "lng": -75.64344
  },
  {
    "name": "Salmo",
    "country": "CA",
    "lat": 49.19554,
    "lng": -117.27704
  },
  {
    "name": "Salmon Arm",
    "country": "CA",
    "lat": 50.6998,
    "lng": -119.30237
  },
  {
    "name": "Saltair",
    "country": "CA",
    "lat": 48.94963,
    "lng": -123.76939
  },
  {
    "name": "Sanikiluaq",
    "country": "CA",
    "lat": 56.54106,
    "lng": -79.22576
  },
  {
    "name": "Sardis",
    "country": "CA",
    "lat": 49.13333,
    "lng": -121.95
  },
  {
    "name": "Sarnia",
    "country": "CA",
    "lat": 42.97866,
    "lng": -82.40407
  },
  {
    "name": "Saskatoon",
    "country": "CA",
    "lat": 52.13238,
    "lng": -106.66892
  },
  {
    "name": "Sault Ste. Marie",
    "country": "CA",
    "lat": 46.51677,
    "lng": -84.33325
  },
  {
    "name": "Saint-Lazare-de-Bellechasse",
    "country": "CA",
    "lat": 46.65306,
    "lng": -70.80701
  },
  {
    "name": "Saint-Georges",
    "country": "CA",
    "lat": 46.11353,
    "lng": -70.66526
  },
  {
    "name": "Sainte Catherine de la Jacques Cartier",
    "country": "CA",
    "lat": 46.85244,
    "lng": -71.62056
  },
  {
    "name": "Saint-Quentin",
    "country": "CA",
    "lat": 47.51326,
    "lng": -67.39288
  },
  {
    "name": "Sacré-Coeur",
    "country": "CA",
    "lat": 48.2297,
    "lng": -69.80061
  },
  {
    "name": "Saint-Anselme",
    "country": "CA",
    "lat": 46.62922,
    "lng": -70.9734
  },
  {
    "name": "Sainte-Marie",
    "country": "CA",
    "lat": 46.43401,
    "lng": -71.01168
  },
  {
    "name": "Saint-Pamphile",
    "country": "CA",
    "lat": 46.9578,
    "lng": -69.7806
  },
  {
    "name": "Saint-Augustin-de-Desmaures",
    "country": "CA",
    "lat": 46.74064,
    "lng": -71.45131
  },
  {
    "name": "Saint-Joseph-de-Beauce",
    "country": "CA",
    "lat": 46.3,
    "lng": -70.86667
  },
  {
    "name": "Saint-Léonard",
    "country": "CA",
    "lat": 47.16317,
    "lng": -67.9246
  },
  {
    "name": "Saint-Antoine-de-Tilly",
    "country": "CA",
    "lat": 46.66346,
    "lng": -71.57335
  },
  {
    "name": "Saint-Henri",
    "country": "CA",
    "lat": 46.69314,
    "lng": -71.06927
  },
  {
    "name": "Saint-Lambert-de-Lauzon",
    "country": "CA",
    "lat": 46.58624,
    "lng": -71.20892
  },
  {
    "name": "Saint-Siméon",
    "country": "CA",
    "lat": 47.84431,
    "lng": -69.87837
  },
  {
    "name": "Saint-Ulric",
    "country": "CA",
    "lat": 48.78698,
    "lng": -67.70226
  },
  {
    "name": "Saint-Pascal",
    "country": "CA",
    "lat": 47.51813,
    "lng": -69.80301
  },
  {
    "name": "Saint-Apollinaire",
    "country": "CA",
    "lat": 46.61289,
    "lng": -71.51258
  },
  {
    "name": "Saint-Antonin",
    "country": "CA",
    "lat": 47.7607,
    "lng": -69.47745
  },
  {
    "name": "Saint-Norbert",
    "country": "CA",
    "lat": 46.16949,
    "lng": -73.31494
  },