[
  {
    "name": "Sdot Yam",
    "country": "IL",
    "lat": 32.49213,
    "lng": 34.89224
  },
  {
    "name": "Sde Ya‘aqov",
    "country": "IL",
    "lat": 32.69,
    "lng": 35.13861
  },
  {
    "name": "Sde Warburg",
    "country": "IL",
    "lat": 32.20361,
    "lng": 34.90722
  },
  {
    "name": "Sde ‘Uziyyahu",
    "country": "IL",
    "lat": 31.75,
    "lng": 34.68333
  },
  {
    "name": "Sderot",
    "country": "IL",
    "lat": 31.525,
    "lng": 34.59693
  },
  {
    "name": "Sde Neẖemya",
    "country": "IL",
    "lat": 33.18756,
    "lng": 35.62235
  },
  {
    "name": "Sde H̱emed",
    "country": "IL",
    "lat": 32.16043,
    "lng": 34.94347
  },
  {
    "name": "Sdach Kong Khang Cheung",
    "country": "KH",
    "lat": 10.60595,
    "lng": 104.55338
  },
  {
    "name": "Sdach Kong Khang Lech",
    "country": "KH",
    "lat": 10.62973,
    "lng": 104.5356
  }
]