[
  {
    "name": "Spīn Bōldak",
    "country": "AF",
    "lat": 31.00575,
    "lng": 66.40001
  },
  {
    "name": "Spērah",
    "country": "AF",
    "lat": 33.20204,
    "lng": 69.5152
  },
  {
    "name": "Spitak",
    "country": "AM",
    "lat": 40.83131,
    "lng": 44.27019
  },
  {
    "name": "Spandaryan",
    "country": "AM",
    "lat": 40.66105,
    "lng": 44.01551
  },
  {
    "name": "Spratzern",
    "country": "AT",
    "lat": 48.17044,
    "lng": 15.61844
  },
  {
    "name": "Spitz",
    "country": "AT",
    "lat": 48.3656,
    "lng": 15.41416
  },
  {
    "name": "Spittal an der Drau",
    "country": "AT",
    "lat": 46.8,
    "lng": 13.5
  },
  {
    "name": "Spital am Semmering",
    "country": "AT",
    "lat": 47.61345,
    "lng": 15.75096
  },
  {
    "name": "Spital am Pyhrn",
    "country": "AT",
    "lat": 47.66487,
    "lng": 14.34014
  },
  {
    "name": "Spillern",
    "country": "AT",
    "lat": 48.38333,
    "lng": 16.25
  },
  {
    "name": "Spielfeld",
    "country": "AT",
    "lat": 46.70556,
    "lng": 15.63722
  },
  {
    "name": "Spielberg bei Knittelfeld",
    "country": "AT",
    "lat": 47.21667,
    "lng": 14.78333
  },
  {
    "name": "Spatenhof",
    "country": "AT",
    "lat": 46.9625,
    "lng": 15.36111
  },
  {
    "name": "Spannberg",
    "country": "AT",
    "lat": 48.46393,
    "lng": 16.73647
  },
  {
    "name": "Spearwood",
    "country": "AU",
    "lat": -32.10534,
    "lng": 115.77797
  },
  {
    "name": "Springwood",
    "country": "AU",
    "lat": -33.7,
    "lng": 150.55
  },
  {
    "name": "Springvale South",
    "country": "AU",
    "lat": -37.96667,
    "lng": 145.15
  },
  {
    "name": "Springvale",
    "country": "AU",
    "lat": -37.94853,
    "lng": 145.15274
  },
  {
    "name": "Springsure",
    "country": "AU",
    "lat": -24.11478,
    "lng": 148.08849
  },
  {
    "name": "Spring Hill",
    "country": "AU",
    "lat": -27.46141,
    "lng": 153.02311
  },
  {
    "name": "Spreyton",
    "country": "AU",
    "lat": -41.23524,
    "lng": 146.35108
  },
  {
    "name": "Spotswood",
    "country": "AU",
    "lat": -37.82975,
    "lng": 144.88516
  },
  {
    "name": "Springfield Lakes",
    "country": "AU",
    "lat": -27.66757,
    "lng": 152.92488
  },
  {
    "name": "Springwood",
    "country": "AU",
    "lat": -27.61183,
    "lng": 153.12899
  },
  {
    "name": "Spalding",
    "country": "AU",
    "lat": -28.73525,
    "lng": 114.63651
  },
  {
    "name": "Springdale Heights",
    "country": "AU",
    "lat": -36.03095,
    "lng": 146.94783
  },
  {
    "name": "Spencer Park",
    "country": "AU",
    "lat": -35.00515,
    "lng": 117.90005
  },
  {
    "name": "Speers Point",
    "country": "AU",
    "lat": -32.96383,
    "lng": 151.62618
  },
  {
    "name": "Spence",
    "country": "AU",
    "lat": -35.19873,
    "lng": 149.06438
  },
  {
    "name": "Springvale",
    "country": "AU",
    "lat": -35.16687,
    "lng": 147.33058
  },
  {
    "name": "Springfield",
    "country": "AU",
    "lat": -27.65365,
    "lng": 152.91716
  },
  {
    "name": "Spring Farm",
    "country": "AU",
    "lat": -34.06851,
    "lng": 150.71182
  },
  {
    "name": "Speightstown",
    "country": "BB",
    "lat": 13.25072,
    "lng": -59.64396
  },
  {
    "name": "Spy",
    "country": "BE",
    "lat": 50.48143,
    "lng": 4.70944
  },
  {
    "name": "Sprimont",
    "country": "BE",
    "lat": 50.50922,
    "lng": 5.6595
  },
  {
    "name": "Spiere",
    "country": "BE",
    "lat": 50.7189,
    "lng": 3.35626
  },
  {
    "name": "Spalbeek",
    "country": "BE",
    "lat": 50.94918,
    "lng": 5.22391
  },
  {
    "name": "Spa",
    "country": "BE",
    "lat": 50.48375,
    "lng": 5.86674
  },
  {
    "name": "Spasovo",
    "country": "BG",
    "lat": 43.70168,
    "lng": 28.30399
  },
  {
    "name": "Spanish Wells",
    "country": "BS",
    "lat": 25.54717,
    "lng": -76.76405
  },
  {
    "name": "Spanish Lookout",
    "country": "BZ",
    "lat": 17.26278,
    "lng": -89.00917
  },
  {
    "name": "Sparwood",
    "country": "CA",
    "lat": 49.73332,
    "lng": -114.88532
  },
  {
    "name": "Spirit River",
    "country": "CA",
    "lat": 55.78327,
    "lng": -118.83607
  },
  {
    "name": "Springdale",
    "country": "CA",
    "lat": 49.49995,
    "lng": -56.06492
  },
  {
    "name": "Springhill",
    "country": "CA",
    "lat": 45.65015,
    "lng": -64.04873
  },
  {
    "name": "Spruce Grove",
    "country": "CA",
    "lat": 53.53344,
    "lng": -113.91874
  },
  {
    "name": "Springbrook",
    "country": "CA",
    "lat": 52.1792,
    "lng": -113.87981
  },
  {
    "name": "Spallumcheen",
    "country": "CA",
    "lat": 50.40146,
    "lng": -119.22039
  },
  {
    "name": "Spreitenbach",
    "country": "CH",
    "lat": 47.42285,
    "lng": 8.36792
  },
  {
    "name": "Spiez",
    "country": "CH",
    "lat": 46.68473,
    "lng": 7.69111
  },
  {
    "name": "Speicher",
    "country": "CH",
    "lat": 47.4109,
    "lng": 9.44335
  },
  {
    "name": "Sports Square",
    "country": "CN",
    "lat": 22.72421,
    "lng": 113.8311
  },
  {
    "name": "Spytihněv",
    "country": "CZ",
    "lat": 49.14115,
    "lng": 17.49808
  },
  {
    "name": "Spálené Poříčí",
    "country": "CZ",
    "lat": 49.61371,
    "lng": 13.60556
  },
  {
    "name": "Sprockhövel",
    "country": "DE",
    "lat": 51.34669,
    "lng": 7.24343
  },
  {
    "name": "Springe",
    "country": "DE",
    "lat": 52.20845,
    "lng": 9.55416
  },
  {
    "name": "Sprendlingen",
    "country": "DE",
    "lat": 49.86667,
    "lng": 7.98333
  },
  {
    "name": "Spreenhagen",
    "country": "DE",
    "lat": 52.34325,
    "lng": 13.87663
  },
  {
    "name": "Sprakensehl",
    "country": "DE",
    "lat": 52.76668,
    "lng": 10.49177
  },
  {
    "name": "Spraitbach",
    "country": "DE",
    "lat": 48.88065,
    "lng": 9.76217
  },
  {
    "name": "Spornitz",
    "country": "DE",
    "lat": 53.40749,
    "lng": 11.71864
  },
  {
    "name": "Spiesheim",
    "country": "DE",
    "lat": 49.81028,
    "lng": 8.1275
  },
  {
    "name": "Spiesen-Elversberg",
    "country": "DE",
    "lat": 49.31667,
    "lng": 7.13333
  },
  {
    "name": "Spiegelberg",
    "country": "DE",
    "lat": 49.04083,
    "lng": 9.44444
  },
  {
    "name": "Speyer",
    "country": "DE",
    "lat": 49.32083,
    "lng": 8.43111
  },
  {
    "name": "Spergau",
    "country": "DE",
    "lat": 51.29347,
    "lng": 12.02292
  },
  {
    "name": "Sperenberg",
    "country": "DE",
    "lat": 52.14113,
    "lng": 13.365
  },
  {
    "name": "Spenge",
    "country": "DE",
    "lat": 52.14021,
    "lng": 8.48475
  },
  {
    "name": "Spelle",
    "country": "DE",
    "lat": 52.36667,
    "lng": 7.46667
  },
  {
    "name": "Speinshart",
    "country": "DE",
    "lat": 49.79002,
    "lng": 11.81949
  },
  {
    "name": "Speichersdorf",
    "country": "DE",
    "lat": 49.87133,
    "lng": 11.78123
  },
  {
    "name": "Speicher",
    "country": "DE",
    "lat": 49.93333,
    "lng": 6.63333
  },
  {
    "name": "Spechbach",
    "country": "DE",
    "lat": 49.34639,
    "lng": 8.88333
  },
  {
    "name": "Sparneck",
    "country": "DE",
    "lat": 50.16214,
    "lng": 11.84349
  },
  {
    "name": "Spardorf",
    "country": "DE",
    "lat": 49.60854,
    "lng": 11.05585
  },
  {
    "name": "Spangenberg",
    "country": "DE",
    "lat": 51.11644,
    "lng": 9.6627
  },
  {
    "name": "Spalt",
    "country": "DE",
    "lat": 49.17553,
    "lng": 10.92453
  },
  {
    "name": "Spaichingen",
    "country": "DE",
    "lat": 48.07477,
    "lng": 8.73508
  },
  {
    "name": "Spabrücken",
    "country": "DE",
    "lat": 49.9,
    "lng": 7.71667
  },
  {
    "name": "Spiegelau",
    "country": "DE",
    "lat": 48.91517,
    "lng": 13.36229
  },
  {
    "name": "Spay",
    "country": "DE",
    "lat": 50.25881,
    "lng": 7.64839
  },
  {
    "name": "Spandau",
    "country": "DE",
    "lat": 52.5511,
    "lng": 13.19921
  },
  {
    "name": "Spentrup",
    "country": "DK",
    "lat": 56.53703,
    "lng": 10.03792
  },
  {
    "name": "Spycker",
    "country": "FR",
    "lat": 50.96915,
    "lng": 2.32184
  },
  {
    "name": "Spicheren",
    "country": "FR",
    "lat": 49.19252,
    "lng": 6.96611
  },
  {
    "name": "Spézet",
    "country": "FR",
    "lat": 48.19226,
    "lng": -3.71585
  },
  {
    "name": "Spéracèdes",
    "country": "FR",
    "lat": 43.6485,
    "lng": 6.85889
  },
  {
    "name": "Spay",
    "country": "FR",
    "lat": 47.92382,
    "lng": 0.1508
  },
  {
    "name": "Sproatley",
    "country": "GB",
    "lat": 53.79379,
    "lng": -0.1913
  },
  {
    "name": "Springside",
    "country": "GB",
    "lat": 55.61514,
    "lng": -4.59062
  },
  {
    "name": "Spratton",
    "country": "GB",
    "lat": 52.32447,
    "lng": -0.95386
  },
  {
    "name": "Spofforth",
    "country": "GB",
    "lat": 53.95427,
    "lng": -1.44848
  },
  {
    "name": "Spixworth",
    "country": "GB",
    "lat": 52.68529,
    "lng": 1.32027
  },
  {
    "name": "Spittal",
    "country": "GB",
    "lat": 51.86889,
    "lng": -4.9425
  },
  {
    "name": "Spitalfields",
    "country": "GB",
    "lat": 51.5202,
    "lng": -0.07436
  },
  {
    "name": "Spilsby",
    "country": "GB",
    "lat": 53.17363,
    "lng": 0.09373
  },
  {
    "name": "Spennymoor",
    "country": "GB",
    "lat": 54.6988,
    "lng": -1.60229
  },
  {
    "name": "Speldhurst",
    "country": "GB",
    "lat": 51.15076,
    "lng": 0.21947
  },
  {
    "name": "Speke",
    "country": "GB",
    "lat": 53.34071,
    "lng": -2.841
  },
  {
    "name": "Spalding",
    "country": "GB",
    "lat": 52.78709,
    "lng": -0.15141
  },
  {
    "name": "Spétses",
    "country": "GR",
    "lat": 37.26191,
    "lng": 23.15943
  },
  {
    "name": "Sperchógeia",
    "country": "GR",
    "lat": 37.07405,
    "lng": 22.06248
  },
  {
    "name": "Spercheiáda",
    "country": "GR",
    "lat": 38.90656,
    "lng": 22.12792
  },
  {
    "name": "Spáta",
    "country": "GR",
    "lat": 37.96163,
    "lng": 23.91514
  },
  {
    "name": "Sparta",
    "country": "GR",
    "lat": 37.07446,
    "lng": 22.43009
  },
  {
    "name": "Split",
    "country": "HR",
    "lat": 43.50891,
    "lng": 16.43915
  },
  {
    "name": "Spilinga",
    "country": "IT",
    "lat": 38.62825,
    "lng": 15.90572
  },
  {
    "name": "Spezzano Piccolo",
    "country": "IT",
    "lat": 39.2901,
    "lng": 16.34211
  },
  {
    "name": "Spezzano della Sila",
    "country": "IT",
    "lat": 39.30033,
    "lng": 16.33923
  },
  {
    "name": "Spezzano Albanese",
    "country": "IT",
    "lat": 39.66854,
    "lng": 16.30939
  },
  {
    "name": "Sperlinga",
    "country": "IT",
    "lat": 37.76653,
    "lng": 14.35075
  },
  {
    "name": "Specchia",
    "country": "IT",
    "lat": 39.93913,
    "lng": 18.29784
  },
  {
    "name": "Sparta'",
    "country": "IT",
    "lat": 38.29371,
    "lng": 15.53503
  },
  {
    "name": "Spadafora",
    "country": "IT",
    "lat": 38.22349,
    "lng": 15.38178
  },
  {
    "name": "Spresiano",
    "country": "IT",
    "lat": 45.77908,
    "lng": 12.25628
  },
  {
    "name": "Spotorno",
    "country": "IT",
    "lat": 44.22638,
    "lng": 8.41647
  },
  {
    "name": "Sporminore",
    "country": "IT",
    "lat": 46.23692,
    "lng": 11.02919
  },
  {
    "name": "Spormaggiore",
    "country": "IT",
    "lat": 46.21853,
    "lng": 11.04805
  },
  {
    "name": "Spongano",
    "country": "IT",
    "lat": 40.01782,
    "lng": 18.36563
  },
  {
    "name": "Spoltore",
    "country": "IT",
    "lat": 42.45501,
    "lng": 14.13988
  },
  {
    "name": "Spoleto",
    "country": "IT",
    "lat": 42.74071,
    "lng": 12.73899
  },
  {
    "name": "Spirano",
    "country": "IT",
    "lat": 45.58144,
    "lng": 9.66863
  },
  {
    "name": "Spinoso",
    "country": "IT",
    "lat": 40.26921,
    "lng": 15.96658
  },
  {
    "name": "Spino d'Adda",
    "country": "IT",
    "lat": 45.40086,
    "lng": 9.48674
  },
  {
    "name": "Spinetta Marengo",
    "country": "IT",
    "lat": 44.88554,
    "lng": 8.6775
  },
  {
    "name": "Spinetoli",
    "country": "IT",
    "lat": 42.88984,
    "lng": 13.76497
  },
  {
    "name": "Spinete",
    "country": "IT",
    "lat": 41.54431,
    "lng": 14.48743
  },
  {
    "name": "Spineda",
    "country": "IT",
    "lat": 45.0614,
    "lng": 10.51165
  },
  {
    "name": "Spinazzola",
    "country": "IT",
    "lat": 40.96399,
    "lng": 16.09111
  },
  {
    "name": "Spilimbergo",
    "country": "IT",
    "lat": 46.11345,
    "lng": 12.89241
  },
  {
    "name": "Spilamberto",
    "country": "IT",
    "lat": 44.53273,
    "lng": 11.01697
  },
  {
    "name": "Spigno Saturnia Superiore",
    "country": "IT",
    "lat": 41.31425,
    "lng": 13.70888
  },
  {
    "name": "Spigno Monferrato",
    "country": "IT",
    "lat": 44.54314,
    "lng": 8.33395
  },
  {
    "name": "Spianate",
    "country": "IT",
    "lat": 43.81075,
    "lng": 10.7151
  },
  {
    "name": "Sperlonga",
    "country": "IT",
    "lat": 41.25897,
    "lng": 13.43302
  },
  {
    "name": "Spello",
    "country": "IT",
    "lat": 42.99231,
    "lng": 12.66632
  },
  {
    "name": "Sparone",
    "country": "IT",
    "lat": 45.41442,
    "lng": 7.54516
  },
  {
    "name": "Sparanise",
    "country": "IT",
    "lat": 41.18788,
    "lng": 14.09628
  },
  {
    "name": "Spinea-Orgnano",
    "country": "IT",
    "lat": 45.49107,
    "lng": 12.155
  },
  {
    "name": "Spinone al Lago",
    "country": "IT",
    "lat": 45.76476,
    "lng": 9.92157
  },
  {
    "name": "Spinadesco",
    "country": "IT",
    "lat": 45.14917,
    "lng": 9.92637
  },
  {
    "name": "Spineto Scrivia",
    "country": "IT",
    "lat": 44.83735,
    "lng": 8.87375
  },
  {
    "name": "Spriana",
    "country": "IT",
    "lat": 46.2203,
    "lng": 9.86425
  },
  {
    "name": "Spessa",
    "country": "IT",
    "lat": 45.11356,
    "lng": 9.34856
  },
  {
    "name": "Sperone",
    "country": "IT",
    "lat": 40.95251,
    "lng": 14.60524
  },
  {
    "name": "Spera",
    "country": "IT",
    "lat": 46.07031,
    "lng": 11.50899
  },
  {
    "name": "Spiazzo",
    "country": "IT",
    "lat": 46.1036,
    "lng": 10.73937
  },
  {
    "name": "Spadola",
    "country": "IT",
    "lat": 38.60378,
    "lng": 16.337
  },
  {
    "name": "Spicchio-Sovigliana",
    "country": "IT",
    "lat": 43.73016,
    "lng": 10.93921
  },
  {
    "name": "Spinimbecco",
    "country": "IT",
    "lat": 45.14398,
    "lng": 11.37202
  },
  {
    "name": "Spartimento",
    "country": "IT",
    "lat": 40.89105,
    "lng": 14.47236
  },
  {
    "name": "Spigno Saturnia Inferiore",
    "country": "IT",
    "lat": 41.31146,
    "lng": 13.73685
  },
  {
    "name": "Spanish Town",
    "country": "JM",
    "lat": 17.99107,
    "lng": -76.95742
  },
  {
    "name": "Spean Thma",
    "country": "KH",
    "lat": 11.46702,
    "lng": 104.89139
  },
  {
    "name": "Spotts",
    "country": "KY",
    "lat": 19.2742,
    "lng": -81.31256
  },
  {
    "name": "Spuž",
    "country": "ME",
    "lat": 42.515,
    "lng": 19.195
  },
  {
    "name": "Spaoh",
    "country": "MY",
    "lat": 1.5,
    "lng": 111.5
  },
  {
    "name": "Sprundel",
    "country": "NL",
    "lat": 51.5375,
    "lng": 4.59722
  },
  {
    "name": "Spoorwijk",
    "country": "NL",
    "lat": 52.05347,
    "lng": 4.31339
  },
  {
    "name": "Spijkenisse",
    "country": "NL",
    "lat": 51.845,
    "lng": 4.32917
  },
  {
    "name": "Spijk",
    "country": "NL",
    "lat": 53.39,
    "lng": 6.8375
  },
  {
    "name": "Spierdijk",
    "country": "NL",
    "lat": 52.65083,
    "lng": 4.94306
  },
  {
    "name": "Spekholzerheide",
    "country": "NL",
    "lat": 50.85559,
    "lng": 6.02471
  },
  {
    "name": "Spaubeek",
    "country": "NL",
    "lat": 50.94,
    "lng": 5.84306
  },
  {
    "name": "Spangen",
    "country": "NL",
    "lat": 51.91688,
    "lng": 4.43539
  },
  {
    "name": "Spakenburg",
    "country": "NL",
    "lat": 52.25,
    "lng": 5.36667
  },
  {
    "name": "Sprenkelaar",
    "country": "NL",
    "lat": 52.22512,
    "lng": 5.99922
  },
  {
    "name": "Sprengenweg-Noord",
    "country": "NL",
    "lat": 52.21839,
    "lng": 5.95068
  },
  {
    "name": "Sprengenbos",
    "country": "NL",
    "lat": 52.21902,
    "lng": 5.94163
  },
  {
    "name": "Spainkbos",
    "country": "NL",
    "lat": 52.22228,
    "lng": 5.94738
  },
  {
    "name": "Speelheide",
    "country": "NL",
    "lat": 51.50607,
    "lng": 5.40519
  },
  {
    "name": "Spechtenkamp",
    "country": "NL",
    "lat": 52.13926,
    "lng": 5.01758
  },
  {
    "name": "Spydeberg",
    "country": "NO",
    "lat": 59.61709,
    "lng": 11.08559
  },
  {
    "name": "Spetalen",
    "country": "NO",
    "lat": 60.18333,
    "lng": 11.9
  },
  {
    "name": "Spreydon",
    "country": "NZ",
    "lat": -43.5567,
    "lng": 172.61689
  },
  {
    "name": "Spotswood",
    "country": "NZ",
    "lat": -39.07224,
    "lng": 174.03438
  },
  {
    "name": "Springlands",
    "country": "NZ",
    "lat": -41.50851,
    "lng": 173.93726
  },
  {
    "name": "Spiczyn",
    "country": "PL",
    "lat": 51.34128,
    "lng": 22.75354
  },
  {
    "name": "Spytkowice",
    "country": "PL",
    "lat": 49.99671,
    "lng": 19.51103
  },
  {
    "name": "Spytkowice",
    "country": "PL",
    "lat": 49.57744,
    "lng": 19.83341
  },
  {
    "name": "Spulber",
    "country": "RO",
    "lat": 45.75186,
    "lng": 26.7608
  },
  {
    "name": "Sprâncenata",
    "country": "RO",
    "lat": 44.08333,
    "lng": 24.63333
  },
  {
    "name": "Spiru Haret",
    "country": "RO",
    "lat": 44.86715,
    "lng": 27.74463
  },
  {
    "name": "Spinuş",
    "country": "RO",
    "lat": 47.2,
    "lng": 22.2
  },
  {
    "name": "Spermezeu",
    "country": "RO",
    "lat": 47.3,
    "lng": 24.15
  },
  {
    "name": "Speriețeni",
    "country": "RO",
    "lat": 44.76611,
    "lng": 25.45223
  },
  {
    "name": "Spătărei",
    "country": "RO",
    "lat": 43.88848,
    "lng": 25.1365
  },
  {
    "name": "Spanţov",
    "country": "RO",
    "lat": 44.11667,
    "lng": 26.78333
  },
  {
    "name": "Spokoynaya",
    "country": "RU",
    "lat": 44.2468,
    "lng": 41.4015
  },
  {
    "name": "Spitsevka",
    "country": "RU",
    "lat": 45.12306,
    "lng": 42.5125
  },
  {
    "name": "Spirovo",
    "country": "RU",
    "lat": 57.41963,
    "lng": 34.98102
  },
  {
    "name": "Spiridonovka",
    "country": "RU",
    "lat": 53.09248,
    "lng": 50.64621
  },
  {
    "name": "Spas-Zaulok",
    "country": "RU",
    "lat": 56.48333,
    "lng": 36.56667
  },
  {
    "name": "Spassk-Ryazanskiy",
    "country": "RU",
    "lat": 54.40844,
    "lng": 40.37664
  },
  {
    "name": "Spasskoye-Lutovinovo",
    "country": "RU",
    "lat": 53.37012,
    "lng": 36.62297
  },
  {
    "name": "Spasskoye",
    "country": "RU",
    "lat": 55.85811,
    "lng": 45.69608
  },
  {
    "name": "Spas-Klepiki",
    "country": "RU",
    "lat": 55.13758,
    "lng": 40.17997
  },
  {
    "name": "Spas-Demensk",
    "country": "RU",
    "lat": 54.41222,
    "lng": 34.02257
  },
  {
    "name": "Spassk",
    "country": "RU",
    "lat": 53.92559,
    "lng": 43.18394
  },
  {
    "name": "Spassk",
    "country": "RU",
    "lat": 52.747,
    "lng": 87.7545
  },
  {
    "name": "Spasskoye",
    "country": "RU",
    "lat": 44.61208,
    "lng": 132.79884
  },
  {
    "name": "Spassk-Dal’niy",
    "country": "RU",
    "lat": 44.60059,
    "lng": 132.82042
  },
  {
    "name": "Spodnji Duplek",
    "country": "SI",
    "lat": 46.50362,
    "lng": 15.74523
  },
  {
    "name": "Spodnje Hoče",
    "country": "SI",
    "lat": 46.49956,
    "lng": 15.64886
  },
  {
    "name": "Spodnja Idrija",
    "country": "SI",
    "lat": 46.03194,
    "lng": 14.02722
  },
  {
    "name": "Spodnje Škofije",
    "country": "SI",
    "lat": 45.57167,
    "lng": 13.7925
  },
  {
    "name": "Spišské Vlachy",
    "country": "SK",
    "lat": 48.94746,
    "lng": 20.79574
  },
  {
    "name": "Spišské Podhradie",
    "country": "SK",
    "lat": 49.00088,
    "lng": 20.75307
  },
  {
    "name": "Spišská Stará Ves",
    "country": "SK",
    "lat": 49.38297,
    "lng": 20.35959
  },
  {
    "name": "Spišská Nová Ves",
    "country": "SK",
    "lat": 48.94464,
    "lng": 20.56153
  },
  {
    "name": "Spišská Belá",
    "country": "SK",
    "lat": 49.18725,
    "lng": 20.45948
  },
  {
    "name": "Spisska Sobota",
    "country": "SK",
    "lat": 49.06487,
    "lng": 20.31784
  },
  {
    "name": "Spaske",
    "country": "UA",
    "lat": 48.6577,
    "lng": 35.04966
  },
  {
    "name": "Spas",
    "country": "UA",
    "lat": 48.88727,
    "lng": 24.06164
  },
  {
    "name": "Spartak",
    "country": "UA",
    "lat": 48.08054,
    "lng": 37.76854
  },
  {
    "name": "Spanish Fort",
    "country": "US",
    "lat": 30.67491,
    "lng": -87.91527
  },
  {
    "name": "Springville",
    "country": "US",
    "lat": 33.77505,
    "lng": -86.47191
  },
  {
    "name": "Springdale",
    "country": "US",
    "lat": 36.18674,
    "lng": -94.12881
  },
  {
    "name": "Spring Hill",
    "country": "US",
    "lat": 28.47688,
    "lng": -82.52546
  },
  {
    "name": "Springfield",
    "country": "US",
    "lat": 30.15326,
    "lng": -85.61132
  },
  {
    "name": "Sparks",
    "country": "US",
    "lat": 31.16686,
    "lng": -83.43738
  },
  {
    "name": "Sparks",
    "country": "US",
    "lat": 33.08793,
    "lng": -82.73764
  },
  {
    "name": "Sparta",
    "country": "US",
    "lat": 33.2757,
    "lng": -82.97626
  },
  {
    "name": "Springfield",
    "country": "US",
    "lat": 32.37241,
    "lng": -81.3115
  },
  {
    "name": "Sparta",
    "country": "US",
    "lat": 38.12311,
    "lng": -89.70177
  },
  {
    "name": "Springfield",
    "country": "US",
    "lat": 39.80172,
    "lng": -89.64371
  },
  {
    "name": "Speedway",
    "country": "US",
    "lat": 39.80227,
    "lng": -86.26721
  },
  {
    "name": "Spencer",
    "country": "US",
    "lat": 39.28671,
    "lng": -86.76251
  },
  {
    "name": "Spring Hill",
    "country": "US",
    "lat": 38.74306,
    "lng": -94.82552
  },
  {
    "name": "Springfield",
    "country": "US",
    "lat": 37.68534,
    "lng": -85.22218
  },
  {
    "name": "Springhill",
    "country": "US",
    "lat": 33.00597,
    "lng": -93.46684
  },
  {
    "name": "Spencerville",
    "country": "US",
    "lat": 39.11427,
    "lng": -76.97831
  },
  {
    "name": "Spring Ridge",
    "country": "US",
    "lat": 39.40149,
    "lng": -77.35248
  },
  {
    "name": "Springdale",
    "country": "US",
    "lat": 38.93761,
    "lng": -76.83886
  },
  {
    "name": "Spanish Lake",
    "country": "US",
    "lat": 38.78783,
    "lng": -90.21594
  },
  {
    "name": "Sparta",
    "country": "US",
    "lat": 37.00116,
    "lng": -93.08157
  },
  {
    "name": "Springfield",
    "country": "US",
    "lat": 37.21533,
    "lng": -93.29824
  },
  {
    "name": "Sparta",
    "country": "US",
    "lat": 36.50541,
    "lng": -81.12092
  },
  {
    "name": "Spencer",
    "country": "US",
    "lat": 35.69236,
    "lng": -80.43478
  },
  {
    "name": "Spindale",
    "country": "US",
    "lat": 35.36012,
    "lng": -81.92927
  },
  {
    "name": "Spring Hope",
    "country": "US",
    "lat": 35.94515,
    "lng": -78.11193
  },
  {
    "name": "Spring Lake",
    "country": "US",
    "lat": 35.16794,
    "lng": -78.97281
  },
  {
    "name": "Spruce Pine",
    "country": "US",
    "lat": 35.9154,
    "lng": -82.06456
  },
  {
    "name": "Springdale",
    "country": "US",
    "lat": 39.881,
    "lng": -74.97
  },
  {
    "name": "Springboro",
    "country": "US",
    "lat": 39.55228,
    "lng": -84.23327
  },
  {
    "name": "Springdale",
    "country": "US",
    "lat": 39.287,
    "lng": -84.48522
  },
  {
    "name": "Springfield",
    "country": "US",
    "lat": 39.92423,
    "lng": -83.80882
  },
  {
    "name": "Spencer",
    "country": "US",
    "lat": 35.52284,
    "lng": -97.37726
  },
  {
    "name": "Sperry",
    "country": "US",
    "lat": 36.29731,
    "lng": -95.99139
  },
  {
    "name": "Spiro",
    "country": "US",
    "lat": 35.24121,
    "lng": -94.61994
  },
  {
    "name": "Spring Grove",
    "country": "US",
    "lat": 39.87454,
    "lng": -76.86581
  },
  {
    "name": "Springfield",
    "country": "US",
    "lat": 39.93067,
    "lng": -75.32019
  },
  {
    "name": "Spruce Hill",
    "country": "US",
    "lat": 39.95273,
    "lng": -75.21034
  },
  {
    "name": "Spry",
    "country": "US",
    "lat": 39.91843,
    "lng": -76.68497
  },
  {
    "name": "Spartanburg",
    "country": "US",
    "lat": 34.94957,
    "lng": -81.93205
  },
  {
    "name": "Springdale",
    "country": "US",
    "lat": 34.68931,
    "lng": -80.78618
  },
  {
    "name": "Springdale",
    "country": "US",
    "lat": 33.95932,
    "lng": -81.10898
  },
  {
    "name": "Sparta",
    "country": "US",
    "lat": 35.9259,
    "lng": -85.46414
  },
  {
    "name": "Spencer",
    "country": "US",
    "lat": 35.74729,
    "lng": -85.46664
  },
  {
    "name": "Spring City",
    "country": "US",
    "lat": 35.69201,
    "lng": -84.86078
  },
  {
    "name": "Spring Hill",
    "country": "US",
    "lat": 35.75118,
    "lng": -86.93
  },
  {
    "name": "Springfield",
    "country": "US",
    "lat": 36.50921,
    "lng": -86.885
  },
  {
    "name": "Spurgeon",
    "country": "US",
    "lat": 36.43955,
    "lng": -82.4557
  },
  {
    "name": "Sparks",
    "country": "US",
    "lat": 30.92852,
    "lng": -97.35972
  },
  {
    "name": "Splendora",
    "country": "US",
    "lat": 30.23299,
    "lng": -95.16104
  },
  {
    "name": "Spring",
    "country": "US",
    "lat": 30.07994,
    "lng": -95.41716
  },
  {
    "name": "Spring Valley",
    "country": "US",
    "lat": 29.78967,
    "lng": -95.50355
  },
  {
    "name": "Springtown",
    "country": "US",
    "lat": 32.96596,
    "lng": -97.68364
  },
  {
    "name": "Spotsylvania",
    "country": "US",
    "lat": 38.20096,
    "lng": -77.58915
  },
  {
    "name": "Spotsylvania Courthouse",
    "country": "US",
    "lat": 38.19791,
    "lng": -77.58777
  },
  {
    "name": "Springfield",
    "country": "US",
    "lat": 38.78928,
    "lng": -77.1872
  },
  {
    "name": "Springville",
    "country": "US",
    "lat": 37.19651,
    "lng": -81.40288
  },
  {
    "name": "Spencer",
    "country": "US",
    "lat": 38.80203,
    "lng": -81.35095
  },
  {
    "name": "Spencer",
    "country": "US",
    "lat": 43.14136,
    "lng": -95.14444
  },
  {
    "name": "Spirit Lake",
    "country": "US",
    "lat": 43.42218,
    "lng": -95.10222
  },
  {
    "name": "Springville",
    "country": "US",
    "lat": 42.05945,
    "lng": -91.44267
  },
  {
    "name": "Spring Grove",
    "country": "US",
    "lat": 42.44363,
    "lng": -88.23648
  },
  {
    "name": "Spring Valley",
    "country": "US",
    "lat": 41.32754,
    "lng": -89.19981
  },
  {
    "name": "Spencer",
    "country": "US",
    "lat": 42.24398,
    "lng": -71.9923
  },
  {
    "name": "Spring Hill",
    "country": "US",
    "lat": 42.38591,
    "lng": -71.10927
  },
  {
    "name": "Springfield",
    "country": "US",
    "lat": 42.10148,
    "lng": -72.58981
  },
  {
    "name": "Springvale",
    "country": "US",
    "lat": 43.46675,
    "lng": -70.79367
  },
  {
    "name": "Sparta",
    "country": "US",
    "lat": 43.16086,
    "lng": -85.71004
  },
  {
    "name": "Spring Arbor",
    "country": "US",
    "lat": 42.20504,
    "lng": -84.55274
  },
  {
    "name": "Spring Lake",
    "country": "US",
    "lat": 43.07696,
    "lng": -86.197
  },
  {
    "name": "Springfield",
    "country": "US",
    "lat": 42.32643,
    "lng": -85.23916
  },
  {
    "name": "Spicer",
    "country": "US",
    "lat": 45.23302,
    "lng": -94.94001
  },
  {
    "name": "Spring Grove",
    "country": "US",
    "lat": 43.56108,
    "lng": -91.63598
  },
  {
    "name": "Spring Lake Park",
    "country": "US",
    "lat": 45.10774,
    "lng": -93.238
  },
  {
    "name": "Spring Park",
    "country": "US",
    "lat": 44.93524,
    "lng": -93.63218
  },
  {
    "name": "Spring Valley",
    "country": "US",
    "lat": 43.68691,
    "lng": -92.38906
  },
  {
    "name": "Springfield",
    "country": "US",
    "lat": 44.23885,
    "lng": -94.97582
  },
  {
    "name": "Springfield",
    "country": "US",
    "lat": 41.08194,
    "lng": -96.13446
  },
  {
    "name": "Springview",
    "country": "US",
    "lat": 42.82444,
    "lng": -99.74901
  },
  {
    "name": "Springfield",
    "country": "US",
    "lat": 43.49507,
    "lng": -72.03342
  },
  {
    "name": "Sparta",
    "country": "US",
    "lat": 41.03343,
    "lng": -74.63849
  },
  {
    "name": "Spotswood",
    "country": "US",
    "lat": 40.39177,
    "lng": -74.39848
  },
  {
    "name": "Spring Lake",
    "country": "US",
    "lat": 40.15345,
    "lng": -74.02819
  },
  {
    "name": "Spring Lake Heights",
    "country": "US",
    "lat": 40.152,
    "lng": -74.039
  },
  {
    "name": "Springfield",
    "country": "US",
    "lat": 40.70491,
    "lng": -74.31723
  },
  {
    "name": "Spackenkill",
    "country": "US",
    "lat": 41.65593,
    "lng": -73.91347
  },
  {
    "name": "Sparkill",
    "country": "US",
    "lat": 41.03121,
    "lng": -73.92708
  },
  {
    "name": "Sparrow Bush",
    "country": "US",
    "lat": 41.40009,
    "lng": -74.72322
  },
  {
    "name": "Spencerport",
    "country": "US",
    "lat": 43.18645,
    "lng": -77.8039
  },
  {
    "name": "Springfield",
    "country": "US",
    "lat": 42.83618,
    "lng": -74.85348
  },
  {
    "name": "Springfield Gardens",
    "country": "US",
    "lat": 40.66312,
    "lng": -73.76221
  },
  {
    "name": "Springs",
    "country": "US",
    "lat": 41.01621,
    "lng": -72.15924
  },
  {
    "name": "Springville",
    "country": "US",
    "lat": 42.5084,
    "lng": -78.66725
  },
  {
    "name": "Spring Valley",
    "country": "US",
    "lat": 41.11315,
    "lng": -74.04375
  },
  {
    "name": "Spuyten Duyvil",
    "country": "US",
    "lat": 40.88121,
    "lng": -73.91736
  },
  {
    "name": "Spencerville",
    "country": "US",
    "lat": 40.70894,
    "lng": -84.35356
  },
  {
    "name": "Spangler",
    "country": "US",
    "lat": 40.64285,
    "lng": -78.7728
  },
  {
    "name": "Speers",
    "country": "US",
    "lat": 40.12452,
    "lng": -79.87977
  },
  {
    "name": "Spinnerstown",
    "country": "US",
    "lat": 40.43899,
    "lng": -75.43712
  },
  {
    "name": "Spring City",
    "country": "US",
    "lat": 40.17677,
    "lng": -75.54769
  },
  {
    "name": "Spring House",
    "country": "US",
    "lat": 40.18539,
    "lng": -75.22768
  },
  {
    "name": "Spring Mount",
    "country": "US",
    "lat": 40.27566,
    "lng": -75.45657
  },
  {
    "name": "Spring Ridge",
    "country": "US",
    "lat": 40.35287,
    "lng": -75.98994
  },
  {
    "name": "Springdale",
    "country": "US",
    "lat": 40.5409,
    "lng": -79.78394
  },
  {
    "name": "Springfield",
    "country": "US",
    "lat": 42.85417,
    "lng": -97.89729
  },
  {
    "name": "Springfield",
    "country": "US",
    "lat": 43.29841,
    "lng": -72.48231
  },
  {
    "name": "Sparta",
    "country": "US",
    "lat": 43.94413,
    "lng": -90.81291
  },
  {
    "name": "Spencer",
    "country": "US",
    "lat": 44.75774,
    "lng": -90.2968
  },
  {
    "name": "Spooner",
    "country": "US",
    "lat": 45.82245,
    "lng": -91.88934
  },
  {
    "name": "Spring Green",
    "country": "US",
    "lat": 43.17527,
    "lng": -90.0679
  },
  {
    "name": "Spring Valley",
    "country": "US",
    "lat": 44.84524,
    "lng": -92.2388
  },
  {
    "name": "Spring Valley",
    "country": "US",
    "lat": 34.34503,
    "lng": -112.15905
  },
  {
    "name": "Springerville",
    "country": "US",
    "lat": 34.13355,
    "lng": -109.28834
  },
  {
    "name": "Spring Valley",
    "country": "US",
    "lat": 32.74477,
    "lng": -116.99892
  },
  {
    "name": "Springfield",
    "country": "US",
    "lat": 37.40835,
    "lng": -102.61436
  },
  {
    "name": "Spencerville",
    "country": "US",
    "lat": 36.82,
    "lng": -108.05813
  },
  {
    "name": "Spanish Springs",
    "country": "US",
    "lat": 39.64908,
    "lng": -119.70741
  },
  {
    "name": "Sparks",
    "country": "US",
    "lat": 39.53491,
    "lng": -119.75269
  },
  {
    "name": "Spring Valley",
    "country": "US",
    "lat": 36.10803,
    "lng": -115.245
  },
  {
    "name": "Sparks",
    "country": "US",
    "lat": 31.67261,
    "lng": -106.2397
  },
  {
    "name": "Spearman",
    "country": "US",
    "lat": 36.19837,
    "lng": -101.19238
  },
  {
    "name": "Spring City",
    "country": "US",
    "lat": 39.48246,
    "lng": -111.49602
  },
  {
    "name": "Spring Glen",
    "country": "US",
    "lat": 39.65941,
    "lng": -110.85349
  },
  {
    "name": "Spur",
    "country": "US",
    "lat": 33.47648,
    "lng": -100.85569
  },
  {
    "name": "Spirit Lake",
    "country": "US",
    "lat": 47.96629,
    "lng": -116.86853
  },
  {
    "name": "Spring Creek",
    "country": "US",
    "lat": 40.72659,
    "lng": -115.5859
  },
  {
    "name": "Springfield",
    "country": "US",
    "lat": 44.04624,
    "lng": -123.02203
  },
  {
    "name": "Spearfish",
    "country": "US",
    "lat": 44.49082,
    "lng": -103.85937
  },
  {
    "name": "Spanish Fork",
    "country": "US",
    "lat": 40.11496,
    "lng": -111.65492
  },
  {
    "name": "Springville",
    "country": "US",
    "lat": 40.16523,
    "lng": -111.61075
  },
  {
    "name": "Spanaway",
    "country": "US",
    "lat": 47.10399,
    "lng": -122.43457
  },
  {
    "name": "Spokane",
    "country": "US",
    "lat": 47.65966,
    "lng": -117.42908
  },
  {
    "name": "Spokane Valley",
    "country": "US",
    "lat": 47.67323,
    "lng": -117.23937
  },
  {
    "name": "Spreckelsville",
    "country": "US",
    "lat": 20.89694,
    "lng": -156.415
  },
  {
    "name": "Spring Valley Lake",
    "country": "US",
    "lat": 34.49364,
    "lng": -117.26832
  },
  {
    "name": "Springs",
    "country": "ZA",
    "lat": -26.25,
    "lng": 28.4
  },
  {
    "name": "Springs",
    "country": "ZA",
    "lat": -26.25837,
    "lng": 28.47173
  },
  {
    "name": "Springfontein",
    "country": "ZA",
    "lat": -30.26391,
    "lng": 25.70401
  },
  {
    "name": "Springbok",
    "country": "ZA",
    "lat": -29.66434,
    "lng": 17.8865
  }
]