[
  {
    "name": "Tzucacab",
    "country": "MX",
    "lat": 20.07237,
    "lng": -89.05022
  },
  {
    "name": "Tzompantepec",
    "country": "MX",
    "lat": 19.37608,
    "lng": -98.09014
  },
  {
    "name": "Tzinacapan",
    "country": "MX",
    "lat": 20.02944,
    "lng": -97.54047
  },
  {
    "name": "Tzimol",
    "country": "MX",
    "lat": 16.17935,
    "lng": -92.18544
  },
  {
    "name": "Tzicatlán",
    "country": "MX",
    "lat": 20.67396,
    "lng": -98.23604
  },
  {
    "name": "Tzicatlacoyan",
    "country": "MX",
    "lat": 18.84071,
    "lng": -98.0484
  },
  {
    "name": "Tzajalá",
    "country": "MX",
    "lat": 17.13559,
    "lng": -92.39328
  },
  {
    "name": "Tzontehuitz",
    "country": "MX",
    "lat": 16.83314,
    "lng": -92.57965
  },
  {
    "name": "Tzajalchén",
    "country": "MX",
    "lat": 16.84165,
    "lng": -92.46014
  },
  {
    "name": "Tziscao",
    "country": "MX",
    "lat": 16.08155,
    "lng": -91.66641
  },
  {
    "name": "Tzicatlán",
    "country": "MX",
    "lat": 18.45073,
    "lng": -98.75574
  },
  {
    "name": "Tziritzícuaro",
    "country": "MX",
    "lat": 19.95609,
    "lng": -100.45945
  },
  {
    "name": "Tzitzio",
    "country": "MX",
    "lat": 19.58582,
    "lng": -100.92472
  },
  {
    "name": "Tzintzuntzán",
    "country": "MX",
    "lat": 19.62847,
    "lng": -101.57831
  },
  {
    "name": "Tzintzingareo",
    "country": "MX",
    "lat": 19.76376,
    "lng": -100.48524
  },
  {
    "name": "Tz'Aquiviljok",
    "country": "MX",
    "lat": 16.85528,
    "lng": -92.45972
  },
  {
    "name": "Tzeltal",
    "country": "MX",
    "lat": 16.93944,
    "lng": -92.47778
  },
  {
    "name": "Tzintzimeo",
    "country": "MX",
    "lat": 19.87028,
    "lng": -100.97778
  },
  {
    "name": "Tzoeptic",
    "country": "MX",
    "lat": 16.88278,
    "lng": -92.56806
  },
  {
    "name": "Tzopilja",
    "country": "MX",
    "lat": 16.73972,
    "lng": -92.30917
  },
  {
    "name": "Tzinil",
    "country": "MX",
    "lat": 16.25778,
    "lng": -92.32222
  },
  {
    "name": "Tzummarum",
    "country": "NL",
    "lat": 53.23733,
    "lng": 5.54612
  },
  {
    "name": "Tzaneen",
    "country": "ZA",
    "lat": -23.83322,
    "lng": 30.16351
  }
]