[
  {
    "name": "Uitkerke",
    "country": "BE",
    "lat": 51.30684,
    "lng": 3.13712
  },
  {
    "name": "Uitbergen",
    "country": "BE",
    "lat": 51.02152,
    "lng": 3.95505
  },
  {
    "name": "Uikhoven",
    "country": "BE",
    "lat": 50.92386,
    "lng": 5.71921
  },
  {
    "name": "Uiraúna",
    "country": "BR",
    "lat": -6.51833,
    "lng": -38.41222
  },
  {
    "name": "Uibaí",
    "country": "BR",
    "lat": -11.33694,
    "lng": -42.1325
  },
  {
    "name": "Uiramutã",
    "country": "BR",
    "lat": 4.59556,
    "lng": -60.16778
  },
  {
    "name": "Uirapuru",
    "country": "BR",
    "lat": -14.285,
    "lng": -49.92167
  },
  {
    "name": "Uitikon",
    "country": "CH",
    "lat": 47.36911,
    "lng": 8.45699
  },
  {
    "name": "Uichteritz",
    "country": "DE",
    "lat": 51.20652,
    "lng": 11.92215
  },
  {
    "name": "Uimbí",
    "country": "EC",
    "lat": 0.95798,
    "lng": -78.77188
  },
  {
    "name": "Uitao",
    "country": "ID",
    "lat": -10.1907,
    "lng": 123.4073
  },
  {
    "name": "Uiju",
    "country": "KP",
    "lat": 40.19944,
    "lng": 124.53167
  },
  {
    "name": "Uijeongbu-si",
    "country": "KR",
    "lat": 37.7415,
    "lng": 127.0474
  },
  {
    "name": "Uiwang",
    "country": "KR",
    "lat": 37.36528,
    "lng": 126.94778
  },
  {
    "name": "Uil",
    "country": "KZ",
    "lat": 49.0725,
    "lng": 54.66304
  },
  {
    "name": "Uis",
    "country": "NA",
    "lat": -21.2177,
    "lng": 14.86569
  },
  {
    "name": "Uithuizermeeden",
    "country": "NL",
    "lat": 53.41417,
    "lng": 6.72361
  },
  {
    "name": "Uithuizen",
    "country": "NL",
    "lat": 53.4075,
    "lng": 6.67083
  },
  {
    "name": "Uithoorn",
    "country": "NL",
    "lat": 52.2375,
    "lng": 4.82639
  },
  {
    "name": "Uitgeest",
    "country": "NL",
    "lat": 52.52917,
    "lng": 4.70972
  },
  {
    "name": "Uivar",
    "country": "RO",
    "lat": 45.65806,
    "lng": 20.90583
  },
  {
    "name": "Uioara de Jos",
    "country": "RO",
    "lat": 46.37087,
    "lng": 23.83863
  },
  {
    "name": "Uileacu de Beiuș",
    "country": "RO",
    "lat": 46.68532,
    "lng": 22.22148
  },
  {
    "name": "Uinskoye",
    "country": "RU",
    "lat": 56.88085,
    "lng": 56.58056
  },
  {
    "name": "Uintah",
    "country": "US",
    "lat": 41.14411,
    "lng": -111.92327
  }
]