[
  {
    "name": "Ukwā",
    "country": "IN",
    "lat": 21.97102,
    "lng": 80.46625
  },
  {
    "name": "Uklāna",
    "country": "IN",
    "lat": 29.51124,
    "lng": 75.87823
  },
  {
    "name": "Ukhrul",
    "country": "IN",
    "lat": 25.11957,
    "lng": 94.36417
  },
  {
    "name": "Ukal",
    "country": "IN",
    "lat": 21.23743,
    "lng": 73.57788
  },
  {
    "name": "Uken",
    "country": "JP",
    "lat": 28.3,
    "lng": 129.23333
  },
  {
    "name": "Ukima",
    "country": "JP",
    "lat": 35.791,
    "lng": 139.69777
  },
  {
    "name": "Ukiha",
    "country": "JP",
    "lat": 33.35634,
    "lng": 130.74966
  },
  {
    "name": "Uki",
    "country": "JP",
    "lat": 32.62217,
    "lng": 130.66177
  },
  {
    "name": "Ukunda",
    "country": "KE",
    "lat": -4.2929,
    "lng": 39.56404
  },
  {
    "name": "Ukmerge",
    "country": "LT",
    "lat": 55.25,
    "lng": 24.75
  },
  {
    "name": "Ukúm",
    "country": "MX",
    "lat": 19.24197,
    "lng": -89.33529
  },
  {
    "name": "Ukpor",
    "country": "NG",
    "lat": 5.94211,
    "lng": 6.92931
  },
  {
    "name": "Ukpo",
    "country": "NG",
    "lat": 6.21407,
    "lng": 6.96657
  },
  {
    "name": "Ukata",
    "country": "NG",
    "lat": 10.83122,
    "lng": 5.82494
  },
  {
    "name": "Ukhta",
    "country": "RU",
    "lat": 63.56904,
    "lng": 53.69141
  },
  {
    "name": "Ukholovo",
    "country": "RU",
    "lat": 53.79212,
    "lng": 40.48658
  },
  {
    "name": "Uk",
    "country": "RU",
    "lat": 55.079,
    "lng": 98.8586
  },
  {
    "name": "Ukromnoye",
    "country": "UA",
    "lat": 45.04272,
    "lng": 34.00312
  },
  {
    "name": "Ukrainsk",
    "country": "UA",
    "lat": 48.09777,
    "lng": 37.36526
  },
  {
    "name": "Ukrainka",
    "country": "UA",
    "lat": 50.14317,
    "lng": 30.74612
  },
  {
    "name": "Ukrayinka",
    "country": "UA",
    "lat": 46.82595,
    "lng": 32.14239
  },
  {
    "name": "Ukrainka",
    "country": "UA",
    "lat": 44.8865,
    "lng": 34.1407
  },
  {
    "name": "Ukiah",
    "country": "US",
    "lat": 39.15017,
    "lng": -123.20778
  }
]