[
  {
    "name": "Ungrej",
    "country": "AL",
    "lat": 41.87528,
    "lng": 19.79472
  },
  {
    "name": "Unquillo",
    "country": "AR",
    "lat": -31.23717,
    "lng": -64.31176
  },
  {
    "name": "Unión",
    "country": "AR",
    "lat": -35.15378,
    "lng": -65.94619
  },
  {
    "name": "Unterwart",
    "country": "AT",
    "lat": 47.26399,
    "lng": 16.22901
  },
  {
    "name": "Unterwaltersdorf",
    "country": "AT",
    "lat": 47.95,
    "lng": 16.41667
  },
  {
    "name": "Unterwagram",
    "country": "AT",
    "lat": 48.21243,
    "lng": 15.64951
  },
  {
    "name": "Untertauern",
    "country": "AT",
    "lat": 47.3,
    "lng": 13.5
  },
  {
    "name": "Unterstinkenbrunn",
    "country": "AT",
    "lat": 48.6677,
    "lng": 16.34607
  },
  {
    "name": "Untersiebenbrunn",
    "country": "AT",
    "lat": 48.25674,
    "lng": 16.74526
  },
  {
    "name": "Unterpremstätten",
    "country": "AT",
    "lat": 46.96472,
    "lng": 15.40417
  },
  {
    "name": "Unterperfuss",
    "country": "AT",
    "lat": 47.26667,
    "lng": 11.25
  },
  {
    "name": "Unterlangkampfen",
    "country": "AT",
    "lat": 47.55,
    "lng": 12.1
  },
  {
    "name": "Unterlamm",
    "country": "AT",
    "lat": 46.97694,
    "lng": 16.06389
  },
  {
    "name": "Unterkohlstätten",
    "country": "AT",
    "lat": 47.38333,
    "lng": 16.31667
  },
  {
    "name": "Unterfrauenhaid",
    "country": "AT",
    "lat": 47.57116,
    "lng": 16.49885
  },
  {
    "name": "Unterfladnitz",
    "country": "AT",
    "lat": 47.18333,
    "lng": 15.66667
  },
  {
    "name": "Untere Fellach",
    "country": "AT",
    "lat": 46.62504,
    "lng": 13.82681
  },
  {
    "name": "Unterbergla",
    "country": "AT",
    "lat": 46.80746,
    "lng": 15.31516
  },
  {
    "name": "Unterauersbach",
    "country": "AT",
    "lat": 46.86556,
    "lng": 15.77028
  },
  {
    "name": "Unken",
    "country": "AT",
    "lat": 47.64966,
    "lng": 12.72946
  },
  {
    "name": "Ungerdorf",
    "country": "AT",
    "lat": 47.08333,
    "lng": 15.66667
  },
  {
    "name": "Ungenach",
    "country": "AT",
    "lat": 48.04756,
    "lng": 13.61472
  },
  {
    "name": "Untertilliach",
    "country": "AT",
    "lat": 46.70346,
    "lng": 12.67758
  },
  {
    "name": "Unternberg",
    "country": "AT",
    "lat": 47.11269,
    "lng": 13.74261
  },
  {
    "name": "Unterjosefstal",
    "country": "AT",
    "lat": 48.29216,
    "lng": 14.57525
  },
  {
    "name": "Untereisenfeld",
    "country": "AT",
    "lat": 48.168,
    "lng": 14.041
  },
  {
    "name": "Unley",
    "country": "AU",
    "lat": -34.95,
    "lng": 138.6
  },
  {
    "name": "Unanderra",
    "country": "AU",
    "lat": -34.45306,
    "lng": 150.84746
  },
  {
    "name": "Underwood",
    "country": "AU",
    "lat": -27.60885,
    "lng": 153.1113
  },
  {
    "name": "Underdale",
    "country": "AU",
    "lat": -34.91803,
    "lng": 138.54704
  },
  {
    "name": "Unley Park",
    "country": "AU",
    "lat": -34.96388,
    "lng": 138.60776
  },
  {
    "name": "Uncía",
    "country": "BO",
    "lat": -18.46713,
    "lng": -66.5671
  },
  {
    "name": "União dos Palmares",
    "country": "BR",
    "lat": -9.16278,
    "lng": -36.03194
  },
  {
    "name": "União",
    "country": "BR",
    "lat": -4.58583,
    "lng": -42.86417
  },
  {
    "name": "Unistalda",
    "country": "BR",
    "lat": -29.04722,
    "lng": -55.15028
  },
  {
    "name": "Uniflor",
    "country": "BR",
    "lat": -23.08694,
    "lng": -52.15722
  },
  {
    "name": "União da Vitória",
    "country": "BR",
    "lat": -26.23,
    "lng": -51.08639
  },
  {
    "name": "União Paulista",
    "country": "BR",
    "lat": -20.88824,
    "lng": -49.89815
  },
  {
    "name": "Unaí",
    "country": "BR",
    "lat": -16.3575,
    "lng": -46.90611
  },
  {
    "name": "Una",
    "country": "BR",
    "lat": -15.29333,
    "lng": -39.07528
  },
  {
    "name": "Universidade Rural",
    "country": "BR",
    "lat": -22.76639,
    "lng": -43.69139
  },
  {
    "name": "União da Serra",
    "country": "BR",
    "lat": -28.79528,
    "lng": -52.03694
  },
  {
    "name": "União do Oeste",
    "country": "BR",
    "lat": -26.76111,
    "lng": -52.85528
  },
  {
    "name": "União do Sul",
    "country": "BR",
    "lat": -11.53306,
    "lng": -54.35333
  },
  {
    "name": "União de Minas",
    "country": "BR",
    "lat": -19.5288,
    "lng": -50.3342
  },
  {
    "name": "União da Serra",
    "country": "BR",
    "lat": -28.75297,
    "lng": -52.01563
  },
  {
    "name": "Unitedville",
    "country": "BZ",
    "lat": 17.21031,
    "lng": -88.93385
  },
  {
    "name": "Union Bay",
    "country": "CA",
    "lat": 49.58377,
    "lng": -124.88611
  },
  {
    "name": "Unity",
    "country": "CA",
    "lat": 52.45014,
    "lng": -109.16816
  },
  {
    "name": "University",
    "country": "CA",
    "lat": 43.66251,
    "lng": -79.40118
  },
  {
    "name": "University Endowment Lands",
    "country": "CA",
    "lat": 49.26418,
    "lng": -123.239
  },
  {
    "name": "Untervaz",
    "country": "CH",
    "lat": 46.9275,
    "lng": 9.53422
  },
  {
    "name": "Untersiggenthal",
    "country": "CH",
    "lat": 47.50213,
    "lng": 8.25554
  },
  {
    "name": "Unterseen",
    "country": "CH",
    "lat": 46.6853,
    "lng": 7.84722
  },
  {
    "name": "Unterlunkhofen",
    "country": "CH",
    "lat": 47.3212,
    "lng": 8.38102
  },
  {
    "name": "Unterkulm",
    "country": "CH",
    "lat": 47.30998,
    "lng": 8.11371
  },
  {
    "name": "Unteriberg",
    "country": "CH",
    "lat": 47.06258,
    "lng": 8.8052
  },
  {
    "name": "Unterengstringen",
    "country": "CH",
    "lat": 47.41396,
    "lng": 8.44761
  },
  {
    "name": "Unterägeri",
    "country": "CH",
    "lat": 47.13645,
    "lng": 8.5853
  },
  {
    "name": "Unguía",
    "country": "CO",
    "lat": 8.04364,
    "lng": -77.09137
  },
  {
    "name": "Une",
    "country": "CO",
    "lat": 4.40306,
    "lng": -74.02528
  },
  {
    "name": "Unión de Reyes",
    "country": "CU",
    "lat": 22.79505,
    "lng": -81.53617
  },
  {
    "name": "Uničov",
    "country": "CZ",
    "lat": 49.77092,
    "lng": 17.12144
  },
  {
    "name": "Unhošť",
    "country": "CZ",
    "lat": 50.08535,
    "lng": 14.13007
  },
  {
    "name": "Untrasried",
    "country": "DE",
    "lat": 47.83333,
    "lng": 10.38333
  },
  {
    "name": "Unterwössen",
    "country": "DE",
    "lat": 47.73333,
    "lng": 12.46667
  },
  {
    "name": "Unterwellenborn",
    "country": "DE",
    "lat": 50.65,
    "lng": 11.43333
  },
  {
    "name": "Unterthingau",
    "country": "DE",
    "lat": 47.77155,
    "lng": 10.50446
  },
  {
    "name": "Untersteinach",
    "country": "DE",
    "lat": 50.13333,
    "lng": 11.51667
  },
  {
    "name": "Untersiemau",
    "country": "DE",
    "lat": 50.19415,
    "lng": 10.97448
  },
  {
    "name": "Unterschneidheim",
    "country": "DE",
    "lat": 48.93333,
    "lng": 10.36667
  },
  {
    "name": "Unterschleißheim",
    "country": "DE",
    "lat": 48.28038,
    "lng": 11.57684
  },
  {
    "name": "Unterschefflenz",
    "country": "DE",
    "lat": 49.39324,
    "lng": 9.2696
  },
  {
    "name": "Unterreit",
    "country": "DE",
    "lat": 48.11667,
    "lng": 12.33333
  },
  {
    "name": "Unterreichenbach",
    "country": "DE",
    "lat": 48.82496,
    "lng": 8.70885
  },
  {
    "name": "Unterpleichfeld",
    "country": "DE",
    "lat": 49.86886,
    "lng": 10.04399
  },
  {
    "name": "Unterneukirchen",
    "country": "DE",
    "lat": 48.16667,
    "lng": 12.61667
  },
  {
    "name": "Untermünkheim",
    "country": "DE",
    "lat": 49.15255,
    "lng": 9.73384
  },
  {
    "name": "Untermerzbach",
    "country": "DE",
    "lat": 50.12754,
    "lng": 10.85634
  },
  {
    "name": "Untermeitingen",
    "country": "DE",
    "lat": 48.16082,
    "lng": 10.80694
  },
  {
    "name": "Untermaßfeld",
    "country": "DE",
    "lat": 50.53333,
    "lng": 10.41667
  },
  {
    "name": "Unterlüß",
    "country": "DE",
    "lat": 52.83471,
    "lng": 10.29685
  },
  {
    "name": "Unterleinleiter",
    "country": "DE",
    "lat": 49.82303,
    "lng": 11.18906
  },
  {
    "name": "Unterkirnach",
    "country": "DE",
    "lat": 48.07946,
    "lng": 8.36575
  },
  {
    "name": "Unterjettingen",
    "country": "DE",
    "lat": 48.5623,
    "lng": 8.78445
  },
  {
    "name": "Unterhausen",
    "country": "DE",
    "lat": 48.4298,
    "lng": 9.25504
  },
  {
    "name": "Unterhaching",
    "country": "DE",
    "lat": 48.06598,
    "lng": 11.61564
  },
  {
    "name": "Untergruppenbach",
    "country": "DE",
    "lat": 49.0894,
    "lng": 9.27516
  },
  {
    "name": "Untergriesbach",
    "country": "DE",
    "lat": 48.57434,
    "lng": 13.66725
  },
  {
    "name": "Unterföhring",
    "country": "DE",
    "lat": 48.19253,
    "lng": 11.64293
  },
  {
    "name": "Unterensingen",
    "country": "DE",
    "lat": 48.65452,
    "lng": 9.35799
  },
  {
    "name": "Untereisesheim",
    "country": "DE",
    "lat": 49.21111,
    "lng": 9.20194
  },
  {
    "name": "Unteregg",
    "country": "DE",
    "lat": 47.96667,
    "lng": 10.46667
  },
  {
    "name": "Unterdietfurt",
    "country": "DE",
    "lat": 48.38333,
    "lng": 12.66667
  },
  {
    "name": "Unterdießen",
    "country": "DE",
    "lat": 47.98333,
    "lng": 10.83333
  },
  {
    "name": "Unterbreizbach",
    "country": "DE",
    "lat": 50.81667,
    "lng": 9.98333
  },
  {
    "name": "Unterkrozingen",
    "country": "DE",
    "lat": 47.91933,
    "lng": 7.69045
  },
  {
    "name": "Unterammergau",
    "country": "DE",
    "lat": 47.61658,
    "lng": 11.02718
  },
  {
    "name": "Unter-Abtsteinach",
    "country": "DE",
    "lat": 49.52711,
    "lng": 8.78679
  },
  {
    "name": "Unseburg",
    "country": "DE",
    "lat": 51.93284,
    "lng": 11.51281
  },
  {
    "name": "Unnau",
    "country": "DE",
    "lat": 50.64881,
    "lng": 7.90827
  },
  {
    "name": "Unna",
    "country": "DE",
    "lat": 51.53795,
    "lng": 7.68969
  },
  {
    "name": "Unlingen",
    "country": "DE",
    "lat": 48.16734,
    "lng": 9.52219
  },
  {
    "name": "Unkel",
    "country": "DE",
    "lat": 50.59653,
    "lng": 7.21888
  },
  {
    "name": "Ungerhausen",
    "country": "DE",
    "lat": 48.00566,
    "lng": 10.26672
  },
  {
    "name": "Undenheim",
    "country": "DE",
    "lat": 49.83806,
    "lng": 8.21889
  },
  {
    "name": "Universitäts- und Hansestadt Greifswald",
    "country": "DE",
    "lat": 54.08905,
    "lng": 13.40244
  },
  {
    "name": "Undløse",
    "country": "DK",
    "lat": 55.60451,
    "lng": 11.58826
  },
  {
    "name": "Unzué",
    "country": "ES",
    "lat": 42.65252,
    "lng": -1.62598
  },
  {
    "name": "Undués de Lerda",
    "country": "ES",
    "lat": 42.56572,
    "lng": -1.16944
  },
  {
    "name": "Uncastillo",
    "country": "ES",
    "lat": 42.35963,
    "lng": -1.12842
  },
  {
    "name": "Universidad",
    "country": "ES",
    "lat": 40.42567,
    "lng": -3.70707
  },
  {
    "name": "Unanu",
    "country": "FM",
    "lat": 8.75,
    "lng": 150.341
  },
  {
    "name": "Unverre",
    "country": "FR",
    "lat": 48.19829,
    "lng": 1.09207
  },
  {
    "name": "Unieux",
    "country": "FR",
    "lat": 45.40395,
    "lng": 4.27094
  },
  {
    "name": "Ungersheim",
    "country": "FR",
    "lat": 47.87848,
    "lng": 7.30797
  },
  {
    "name": "Uny Lelant",
    "country": "GB",
    "lat": 50.18298,
    "lng": -5.44047
  },
  {
    "name": "Undy",
    "country": "GB",
    "lat": 51.57526,
    "lng": -2.81453
  },
  {
    "name": "Unión",
    "country": "GT",
    "lat": 15.92176,
    "lng": -91.77647
  },
  {
    "name": "Un Chau Estate",
    "country": "HK",
    "lat": 22.33633,
    "lng": 114.15616
  },
  {
    "name": "Unešić",
    "country": "HR",
    "lat": 43.74056,
    "lng": 16.18972
  },
  {
    "name": "Ungaran",
    "country": "ID",
    "lat": -7.13972,
    "lng": 110.405
  },
  {
    "name": "Unaaha",
    "country": "ID",
    "lat": -3.8539,
    "lng": 122.042
  },
  {
    "name": "Unnāo",
    "country": "IN",
    "lat": 26.54706,
    "lng": 80.48781
  },
  {
    "name": "Unjha",
    "country": "IN",
    "lat": 23.80366,
    "lng": 72.39101
  },
  {
    "name": "Uniāra",
    "country": "IN",
    "lat": 26.15336,
    "lng": 75.21523
  },
  {
    "name": "Uniāra",
    "country": "IN",
    "lat": 25.91502,
    "lng": 76.026
  },
  {
    "name": "Unhel",
    "country": "IN",
    "lat": 23.33794,
    "lng": 75.55931
  },
  {
    "name": "Unchahra",
    "country": "IN",
    "lat": 24.38251,
    "lng": 80.78088
  },
  {
    "name": "Unchagao",
    "country": "IN",
    "lat": 16.69746,
    "lng": 74.27325
  },
  {
    "name": "Una",
    "country": "IN",
    "lat": 31.46493,
    "lng": 76.26914
  },
  {
    "name": "Una",
    "country": "IN",
    "lat": 20.82318,
    "lng": 71.03795
  },
  {
    "name": "Un",
    "country": "IN",
    "lat": 23.88745,
    "lng": 71.76975
  },
  {
    "name": "Unamaucheri",
    "country": "IN",
    "lat": 12.8608,
    "lng": 80.10659
  },
  {
    "name": "Unjalūr",
    "country": "IN",
    "lat": 11.1278,
    "lng": 77.86959
  },
  {
    "name": "Undera",
    "country": "IN",
    "lat": 22.34835,
    "lng": 73.13313
  },
  {
    "name": "Unnamalaikadai",
    "country": "IN",
    "lat": 8.29957,
    "lng": 77.24062
  },
  {
    "name": "Unzen",
    "country": "JP",
    "lat": 32.77111,
    "lng": 130.24841
  },
  {
    "name": "Unnan",
    "country": "JP",
    "lat": 35.2431,
    "lng": 132.89989
  },
  {
    "name": "Ungsang-nodongjagu",
    "country": "KP",
    "lat": 42.35778,
    "lng": 130.46222
  },
  {
    "name": "Ungsang",
    "country": "KP",
    "lat": 42.35146,
    "lng": 130.48817
  },
  {
    "name": "Unggi",
    "country": "KP",
    "lat": 42.34166,
    "lng": 130.41081
  },
  {
    "name": "Ungsang",
    "country": "KR",
    "lat": 35.40611,
    "lng": 129.16861
  },
  {
    "name": "Unawatuna",
    "country": "LK",
    "lat": 6.0212,
    "lng": 80.2503
  },
  {
    "name": "Ungheni",
    "country": "MD",
    "lat": 47.21023,
    "lng": 27.80013
  },
  {
    "name": "Undurkhaan",
    "country": "MN",
    "lat": 47.31944,
    "lng": 110.65556
  },
  {
    "name": "Undur Sume",
    "country": "MN",
    "lat": 50.47278,
    "lng": 100.92778
  },
  {
    "name": "Un’goofaaru",
    "country": "MV",
    "lat": 5.66812,
    "lng": 73.03017
  },
  {
    "name": "Unión Roja",
    "country": "MX",
    "lat": 15.04658,
    "lng": -92.21653
  },
  {
    "name": "Unión Juárez",
    "country": "MX",
    "lat": 15.06233,
    "lng": -92.0809
  },
  {
    "name": "Unión Hidalgo",
    "country": "MX",
    "lat": 16.4723,
    "lng": -94.82952
  },
  {
    "name": "Unión Buenavista",
    "country": "MX",
    "lat": 15.79527,
    "lng": -92.54417
  },
  {
    "name": "Unión Juárez",
    "country": "MX",
    "lat": 16.12833,
    "lng": -91.93312
  },
  {
    "name": "Unión Buena Vista",
    "country": "MX",
    "lat": 16.48582,
    "lng": -92.81823
  },
  {
    "name": "Unidad San Miguel Jagüeyes",
    "country": "MX",
    "lat": 19.82361,
    "lng": -99.28889
  },
  {
    "name": "Unión de Tula",
    "country": "MX",
    "lat": 19.95646,
    "lng": -104.26805
  },
  {
    "name": "Unión de San Antonio",
    "country": "MX",
    "lat": 21.12714,
    "lng": -102.00619
  },
  {
    "name": "Unión de Corrientes",
    "country": "MX",
    "lat": 21.97644,
    "lng": -105.43026
  },
  {
    "name": "Unidad Habitacional José María Morelos y Pavón",
    "country": "MX",
    "lat": 18.82028,
    "lng": -99.26222
  },
  {
    "name": "Unión y Progreso",
    "country": "MX",
    "lat": 18.87278,
    "lng": -97.11917
  },
  {
    "name": "Unidad Minera 11 de Julio",
    "country": "MX",
    "lat": 20.10472,
    "lng": -98.72278
  },
  {
    "name": "Unidad Acaquilpan",
    "country": "MX",
    "lat": 19.36694,
    "lng": -98.93917
  },
  {
    "name": "Unidad Habitacional José María Morelos y Pavón",
    "country": "MX",
    "lat": 18.62019,
    "lng": -99.2188
  },
  {
    "name": "Unidades Habitacionales",
    "country": "MX",
    "lat": 20.06389,
    "lng": -98.42056
  },
  {
    "name": "Unidad Habitacional Rinconada Acolapa",
    "country": "MX",
    "lat": 18.89722,
    "lng": -99.13139
  },
  {
    "name": "Unidad Habitacional Santa Teresa",
    "country": "MX",
    "lat": 19.21611,
    "lng": -99.55222
  },
  {
    "name": "Unión Ejidal Tierra y Libertad",
    "country": "MX",
    "lat": 19.6575,
    "lng": -98.3375
  },
  {
    "name": "Unidad Habitacional Antonio Osorio de León (Bojay)",
    "country": "MX",
    "lat": 20.04389,
    "lng": -99.24472
  },
  {
    "name": "Unidad Habitacional 10 de Abril",
    "country": "MX",
    "lat": 18.75444,
    "lng": -98.91611
  },
  {
    "name": "Unidad Grajales INFONAVIT",
    "country": "MX",
    "lat": 19.24126,
    "lng": -97.81068
  },
  {
    "name": "Unidad Habitacional Mariano Matamoros",
    "country": "MX",
    "lat": 18.7475,
    "lng": -98.85222
  },
  {
    "name": "Unión Agropecuarios Lázaro Cárdenas del Norte",
    "country": "MX",
    "lat": 25.83222,
    "lng": -100.38417
  },
  {
    "name": "Unión Juárez",
    "country": "MX",
    "lat": 17.28083,
    "lng": -92.39972
  },
  {
    "name": "Unidos Avanzamos",
    "country": "MX",
    "lat": 22.43389,
    "lng": -97.97167
  },
  {
    "name": "Ungogo",
    "country": "NG",
    "lat": 12.09171,
    "lng": 8.49531
  },
  {
    "name": "Unsworth Heights",
    "country": "NZ",
    "lat": -36.75374,
    "lng": 174.7215
  },
  {
    "name": "Unión Chocó",
    "country": "PA",
    "lat": 8.08404,
    "lng": -77.53507
  },
  {
    "name": "Unión de Azuero",
    "country": "PA",
    "lat": 9.15771,
    "lng": -79.16783
  },
  {
    "name": "Unión Santeña",
    "country": "PA",
    "lat": 8.83502,
    "lng": -78.6489
  },
  {
    "name": "Unzad",
    "country": "PH",
    "lat": 15.91889,
    "lng": 120.53917
  },
  {
    "name": "Unisan",
    "country": "PH",
    "lat": 13.84132,
    "lng": 121.97522
  },
  {
    "name": "Union",
    "country": "PH",
    "lat": 11.7612,
    "lng": 121.8963
  },
  {
    "name": "Union",
    "country": "PH",
    "lat": 10.6695,
    "lng": 124.3252
  },
  {
    "name": "Union",
    "country": "PH",
    "lat": 10.0475,
    "lng": 124.5151
  },
  {
    "name": "Union",
    "country": "PH",
    "lat": 9.75667,
    "lng": 126.11028
  },
  {
    "name": "Unidos",
    "country": "PH",
    "lat": 11.90677,
    "lng": 122.00051
  },
  {
    "name": "Unidos",
    "country": "PH",
    "lat": 8.5942,
    "lng": 123.668
  },
  {
    "name": "Unidad",
    "country": "PH",
    "lat": 8.53556,
    "lng": 126.22865
  },
  {
    "name": "Ungca",
    "country": "PH",
    "lat": 10.75,
    "lng": 122.55
  },
  {
    "name": "Ungus-Ungus",
    "country": "PH",
    "lat": 5.05083,
    "lng": 119.83972
  },
  {
    "name": "Unisław",
    "country": "PL",
    "lat": 53.21241,
    "lng": 18.38622
  },
  {
    "name": "Uniejów",
    "country": "PL",
    "lat": 51.97428,
    "lng": 18.79308
  },
  {
    "name": "Unhos",
    "country": "PT",
    "lat": 38.81958,
    "lng": -9.12007
  },
  {
    "name": "Unión",
    "country": "PY",
    "lat": -24.8079,
    "lng": -56.52148
  },
  {
    "name": "Unţeni",
    "country": "RO",
    "lat": 47.8,
    "lng": 26.78333
  },
  {
    "name": "Unirea",
    "country": "RO",
    "lat": 47.1606,
    "lng": 24.53078
  },
  {
    "name": "Unirea",
    "country": "RO",
    "lat": 46.40387,
    "lng": 23.81314
  },
  {
    "name": "Unirea",
    "country": "RO",
    "lat": 45.7402,
    "lng": 27.10741
  },
  {
    "name": "Unirea",
    "country": "RO",
    "lat": 45.10967,
    "lng": 27.78667
  },
  {
    "name": "Unirea",
    "country": "RO",
    "lat": 44.26667,
    "lng": 27.63333
  },
  {
    "name": "Unirea",
    "country": "RO",
    "lat": 44.15,
    "lng": 23.18333
  },
  {
    "name": "Unguriu",
    "country": "RO",
    "lat": 45.27933,
    "lng": 26.63208
  },
  {
    "name": "Ungureni-Jianu",
    "country": "RO",
    "lat": 47.88333,
    "lng": 26.78333
  },
  {
    "name": "Ungureni",
    "country": "RO",
    "lat": 46.51667,
    "lng": 26.95
  },
  {
    "name": "Ungureni",
    "country": "RO",
    "lat": 47.54631,
    "lng": 23.95241
  },
  {
    "name": "Ungureni",
    "country": "RO",
    "lat": 46.52283,
    "lng": 27.11186
  },
  {
    "name": "Ungureni",
    "country": "RO",
    "lat": 45.91307,
    "lng": 27.47
  },
  {
    "name": "Ungureni",
    "country": "RO",
    "lat": 44.87147,
    "lng": 25.3918
  },
  {
    "name": "Ungureni",
    "country": "RO",
    "lat": 44.57804,
    "lng": 25.50006
  },
  {
    "name": "Unguraş",
    "country": "RO",
    "lat": 47.11667,
    "lng": 24.05
  },
  {
    "name": "Ungra",
    "country": "RO",
    "lat": 45.98333,
    "lng": 25.26667
  },
  {
    "name": "Ungheni",
    "country": "RO",
    "lat": 46.48333,
    "lng": 24.46667
  },
  {
    "name": "Ungheni",
    "country": "RO",
    "lat": 44.5,
    "lng": 24.96667
  },
  {
    "name": "Ungureni",
    "country": "RO",
    "lat": 47.88176,
    "lng": 26.79899
  },
  {
    "name": "Untsukul’",
    "country": "RU",
    "lat": 42.71149,
    "lng": 46.78663
  },
  {
    "name": "Uni",
    "country": "RU",
    "lat": 57.75545,
    "lng": 51.48927
  },
  {
    "name": "Undory",
    "country": "RU",
    "lat": 54.60849,
    "lng": 48.39276
  },
  {
    "name": "Unecha",
    "country": "RU",
    "lat": 52.84294,
    "lng": 32.68761
  },
  {
    "name": "Untolovo",
    "country": "RU",
    "lat": 60.0122,
    "lng": 30.20897
  },
  {
    "name": "Unaizah",
    "country": "SA",
    "lat": 26.08793,
    "lng": 43.96368
  },
  {
    "name": "Unaizah",
    "country": "SA",
    "lat": 26.1,
    "lng": 44.0
  },
  {
    "name": "Unín",
    "country": "SK",
    "lat": 48.72525,
    "lng": 17.21452
  },
  {
    "name": "Union Springs",
    "country": "US",
    "lat": 32.14432,
    "lng": -85.71495
  },
  {
    "name": "Uniontown",
    "country": "US",
    "lat": 32.44958,
    "lng": -87.51417
  },
  {
    "name": "Union Park",
    "country": "US",
    "lat": 28.56806,
    "lng": -81.28618
  },
  {
    "name": "University Park",
    "country": "US",
    "lat": 25.74649,
    "lng": -80.36755
  },
  {
    "name": "Unadilla",
    "country": "US",
    "lat": 32.26155,
    "lng": -83.73657
  },
  {
    "name": "Union City",
    "country": "US",
    "lat": 33.58706,
    "lng": -84.54243
  },
  {
    "name": "Union Point",
    "country": "US",
    "lat": 33.61568,
    "lng": -83.0746
  },
  {
    "name": "Unionville",
    "country": "US",
    "lat": 31.43491,
    "lng": -83.50961
  },
  {
    "name": "Union",
    "country": "US",
    "lat": 38.9459,
    "lng": -84.6805
  },
  {
    "name": "University Park",
    "country": "US",
    "lat": 38.97039,
    "lng": -76.94192
  },
  {
    "name": "Union",
    "country": "US",
    "lat": 38.45005,
    "lng": -91.00848
  },
  {
    "name": "University City",
    "country": "US",
    "lat": 38.65588,
    "lng": -90.30928
  },
  {
    "name": "Union",
    "country": "US",
    "lat": 32.57153,
    "lng": -89.12145
  },
  {
    "name": "University",
    "country": "US",
    "lat": 34.36594,
    "lng": -89.52536
  },
  {
    "name": "Unionville",
    "country": "US",
    "lat": 35.08737,
    "lng": -80.50896
  },
  {
    "name": "Union",
    "country": "US",
    "lat": 39.89783,
    "lng": -84.30633
  },
  {
    "name": "Union City",
    "country": "US",
    "lat": 35.39172,
    "lng": -97.94144
  },
  {
    "name": "Uniontown",
    "country": "US",
    "lat": 39.90008,
    "lng": -79.71643
  },
  {
    "name": "University City",
    "country": "US",
    "lat": 39.95071,
    "lng": -75.19476
  },
  {
    "name": "Union",
    "country": "US",
    "lat": 34.71541,
    "lng": -81.62371
  },
  {
    "name": "Unicoi",
    "country": "US",
    "lat": 36.19539,
    "lng": -82.34958
  },
  {
    "name": "Union City",
    "country": "US",
    "lat": 36.42423,
    "lng": -89.05701
  },
  {
    "name": "Unionville",
    "country": "US",
    "lat": 35.62174,
    "lng": -86.5925
  },
  {
    "name": "Universal City",
    "country": "US",
    "lat": 29.54801,
    "lng": -98.29112
  },
  {
    "name": "University of Texas",
    "country": "US",
    "lat": 30.28604,
    "lng": -97.73889
  },
  {
    "name": "University Park",
    "country": "US",
    "lat": 32.85013,
    "lng": -96.80028
  },
  {
    "name": "Union Hall",
    "country": "US",
    "lat": 37.01875,
    "lng": -79.68642
  },
  {
    "name": "University Center",
    "country": "US",
    "lat": 39.05705,
    "lng": -77.44415
  },
  {
    "name": "Union",
    "country": "US",
    "lat": 37.59151,
    "lng": -80.54368
  },
  {
    "name": "Union",
    "country": "US",
    "lat": 44.21147,
    "lng": -69.27421
  },
  {
    "name": "Uncasville",
    "country": "US",
    "lat": 41.43454,
    "lng": -72.1098
  },
  {
    "name": "University Heights",
    "country": "US",
    "lat": 41.65502,
    "lng": -91.55684
  },
  {
    "name": "Union City",
    "country": "US",
    "lat": 40.20199,
    "lng": -84.80913
  },
  {
    "name": "Union City",
    "country": "US",
    "lat": 42.06671,
    "lng": -85.13609
  },
  {
    "name": "Unionville",
    "country": "US",
    "lat": 40.47696,
    "lng": -93.00326
  },
  {
    "name": "Unity",
    "country": "US",
    "lat": 43.29396,
    "lng": -72.26037
  },
  {
    "name": "Union",
    "country": "US",
    "lat": 40.6976,
    "lng": -74.2632
  },
  {
    "name": "Union Beach",
    "country": "US",
    "lat": 40.4465,
    "lng": -74.1782
  },
  {
    "name": "Union City",
    "country": "US",
    "lat": 40.77955,
    "lng": -74.02375
  },
  {
    "name": "Unadilla",
    "country": "US",
    "lat": 42.32536,
    "lng": -75.3124
  },
  {
    "name": "Union Springs",
    "country": "US",
    "lat": 42.83979,
    "lng": -76.69328
  },
  {
    "name": "Uniondale",
    "country": "US",
    "lat": 40.70038,
    "lng": -73.59291
  },
  {
    "name": "Unionport",
    "country": "US",
    "lat": 40.82732,
    "lng": -73.85013
  },
  {
    "name": "University Gardens",
    "country": "US",
    "lat": 40.77732,
    "lng": -73.72263
  },
  {
    "name": "University Heights",
    "country": "US",
    "lat": 40.8601,
    "lng": -73.9093
  },
  {
    "name": "Uniontown",
    "country": "US",
    "lat": 40.97506,
    "lng": -81.40817
  },
  {
    "name": "University Heights",
    "country": "US",
    "lat": 41.49783,
    "lng": -81.53735
  },
  {
    "name": "Union City",
    "country": "US",
    "lat": 41.8995,
    "lng": -79.84533
  },
  {
    "name": "Union Grove",
    "country": "US",
    "lat": 42.68807,
    "lng": -88.05147
  },
  {
    "name": "Union City",
    "country": "US",
    "lat": 37.59577,
    "lng": -122.01913
  },
  {
    "name": "Universal City",
    "country": "US",
    "lat": 34.1389,
    "lng": -118.35341
  },
  {
    "name": "University Park",
    "country": "US",
    "lat": 32.28343,
    "lng": -106.75334
  },
  {
    "name": "Union",
    "country": "US",
    "lat": 45.20847,
    "lng": -117.86521
  },
  {
    "name": "Union Gap",
    "country": "US",
    "lat": 46.55735,
    "lng": -120.47506
  },
  {
    "name": "University Place",
    "country": "US",
    "lat": 47.23565,
    "lng": -122.5504
  },
  {
    "name": "Unalaska",
    "country": "US",
    "lat": 53.87413,
    "lng": -166.53408
  },
  {
    "name": "Underwood-Petersville",
    "country": "US",
    "lat": 34.87695,
    "lng": -87.69717
  },
  {
    "name": "University",
    "country": "US",
    "lat": 28.07389,
    "lng": -82.43902
  },
  {
    "name": "Union Hill-Novelty Hill",
    "country": "US",
    "lat": 47.67887,
    "lng": -122.02833
  },
  {
    "name": "University Park",
    "country": "US",
    "lat": 41.44298,
    "lng": -87.6836
  },
  {
    "name": "Union City",
    "country": "US",
    "lat": 40.19938,
    "lng": -84.80353
  },
  {
    "name": "Union Square",
    "country": "US",
    "lat": 39.28668,
    "lng": -76.64154
  },
  {
    "name": "University Town Center",
    "country": "US",
    "lat": 33.65157,
    "lng": -117.83427
  },
  {
    "name": "University Park",
    "country": "US",
    "lat": 33.66246,
    "lng": -117.80953
  },
  {
    "name": "Union Square",
    "country": "US",
    "lat": 42.37972,
    "lng": -71.09653
  },
  {
    "name": "Union Market",
    "country": "US",
    "lat": 38.90857,
    "lng": -76.99819
  },
  {
    "name": "Uniondale",
    "country": "ZA",
    "lat": -33.65895,
    "lng": 23.12317
  },
  {
    "name": "Underberg",
    "country": "ZA",
    "lat": -29.79084,
    "lng": 29.49448
  }
]