[
  {
    "name": "Uznovë",
    "country": "AL",
    "lat": 40.69722,
    "lng": 19.98028
  },
  {
    "name": "Uzda",
    "country": "BY",
    "lat": 53.4627,
    "lng": 27.2137
  },
  {
    "name": "Uzwil",
    "country": "CH",
    "lat": 47.43653,
    "lng": 9.13422
  },
  {
    "name": "Uznach",
    "country": "CH",
    "lat": 47.22421,
    "lng": 8.98263
  },
  {
    "name": "Uzhcurrumi",
    "country": "EC",
    "lat": -3.32313,
    "lng": -79.59543
  },
  {
    "name": "Uzès",
    "country": "FR",
    "lat": 44.01251,
    "lng": 4.41973
  },
  {
    "name": "Uzerche",
    "country": "FR",
    "lat": 45.42462,
    "lng": 1.56341
  },
  {
    "name": "Uzemain",
    "country": "FR",
    "lat": 48.08572,
    "lng": 6.34443
  },
  {
    "name": "Uzein",
    "country": "FR",
    "lat": 43.39951,
    "lng": -0.43321
  },
  {
    "name": "Uzzano",
    "country": "IT",
    "lat": 43.89728,
    "lng": 10.70403
  },
  {
    "name": "Uzgen",
    "country": "KG",
    "lat": 40.76994,
    "lng": 73.30068
  },
  {
    "name": "Uzunagach",
    "country": "KZ",
    "lat": 43.22259,
    "lng": 76.31871
  },
  {
    "name": "Uzynköl",
    "country": "KZ",
    "lat": 54.03782,
    "lng": 65.3354
  },
  {
    "name": "Uzeta",
    "country": "MX",
    "lat": 21.11497,
    "lng": -104.60171
  },
  {
    "name": "Uzunu",
    "country": "RO",
    "lat": 44.14716,
    "lng": 25.96719
  },
  {
    "name": "Uzdin",
    "country": "RS",
    "lat": 45.20512,
    "lng": 20.62342
  },
  {
    "name": "Uzveće",
    "country": "RS",
    "lat": 44.87861,
    "lng": 19.60356
  },
  {
    "name": "Uzunovo",
    "country": "RU",
    "lat": 54.53858,
    "lng": 38.61734
  },
  {
    "name": "Uzlovaya",
    "country": "RU",
    "lat": 53.9839,
    "lng": 38.15984
  },
  {
    "name": "Uzhur",
    "country": "RU",
    "lat": 55.3175,
    "lng": 89.83129
  },
  {
    "name": "Uzunkuyu",
    "country": "TR",
    "lat": 38.27858,
    "lng": 26.54315
  },
  {
    "name": "Uzungeçit",
    "country": "TR",
    "lat": 37.49425,
    "lng": 42.99303
  },
  {
    "name": "Uzunbağ",
    "country": "TR",
    "lat": 36.14023,
    "lng": 36.03603
  },
  {
    "name": "Uzunkavak",
    "country": "TR",
    "lat": 36.3524,
    "lng": 36.41952
  },
  {
    "name": "Uzunköprü",
    "country": "TR",
    "lat": 41.26914,
    "lng": 26.68598
  },
  {
    "name": "Uzunisa",
    "country": "TR",
    "lat": 40.924,
    "lng": 37.861
  },
  {
    "name": "Uzungöl",
    "country": "TR",
    "lat": 40.61594,
    "lng": 40.28853
  },
  {
    "name": "Uzundere",
    "country": "TR",
    "lat": 40.53218,
    "lng": 41.53832
  },
  {
    "name": "Uzyn",
    "country": "UA",
    "lat": 49.8246,
    "lng": 30.42523
  },
  {
    "name": "Uzhhorod",
    "country": "UA",
    "lat": 48.6242,
    "lng": 22.2947
  }
]