[
  {
    "name": "Wy Yung",
    "country": "AU",
    "lat": -37.8,
    "lng": 147.58333
  },
  {
    "name": "Wyreema",
    "country": "AU",
    "lat": -27.65583,
    "lng": 151.85532
  },
  {
    "name": "Wyongah",
    "country": "AU",
    "lat": -33.27468,
    "lng": 151.48898
  },
  {
    "name": "Wyong",
    "country": "AU",
    "lat": -33.28254,
    "lng": 151.42327
  },
  {
    "name": "Wynyard",
    "country": "AU",
    "lat": -40.9897,
    "lng": 145.72617
  },
  {
    "name": "Wynnum",
    "country": "AU",
    "lat": -27.44527,
    "lng": 153.15813
  },
  {
    "name": "Wyee",
    "country": "AU",
    "lat": -33.18252,
    "lng": 151.48804
  },
  {
    "name": "Wyndham Vale",
    "country": "AU",
    "lat": -37.89138,
    "lng": 144.62368
  },
  {
    "name": "Wynn Vale",
    "country": "AU",
    "lat": -34.79942,
    "lng": 138.68714
  },
  {
    "name": "Wyoming",
    "country": "AU",
    "lat": -33.40387,
    "lng": 151.36254
  },
  {
    "name": "Wyee Point",
    "country": "AU",
    "lat": -33.14585,
    "lng": 151.50783
  },
  {
    "name": "Wynnum West",
    "country": "AU",
    "lat": -27.45824,
    "lng": 153.15319
  },
  {
    "name": "Wychwood",
    "country": "CA",
    "lat": 43.67757,
    "lng": -79.4218
  },
  {
    "name": "Wynyard",
    "country": "CA",
    "lat": 51.76674,
    "lng": -104.18436
  },
  {
    "name": "Wyssachen",
    "country": "CH",
    "lat": 47.07851,
    "lng": 7.82922
  },
  {
    "name": "Wynigen",
    "country": "CH",
    "lat": 47.10586,
    "lng": 7.66681
  },
  {
    "name": "Wynau",
    "country": "CH",
    "lat": 47.2557,
    "lng": 7.81626
  },
  {
    "name": "Wyk auf Föhr",
    "country": "DE",
    "lat": 54.6914,
    "lng": 8.56702
  },
  {
    "name": "Wyhl",
    "country": "DE",
    "lat": 48.16617,
    "lng": 7.64917
  },
  {
    "name": "Wymeswold",
    "country": "GB",
    "lat": 52.80536,
    "lng": -1.11288
  },
  {
    "name": "Wylam",
    "country": "GB",
    "lat": 54.97654,
    "lng": -1.82187
  },
  {
    "name": "Wye",
    "country": "GB",
    "lat": 51.18249,
    "lng": 0.93678
  },
  {
    "name": "Wychbold",
    "country": "GB",
    "lat": 52.29045,
    "lng": -2.11555
  },
  {
    "name": "Wyszogród",
    "country": "PL",
    "lat": 52.38988,
    "lng": 20.19081
  },
  {
    "name": "Wyszków",
    "country": "PL",
    "lat": 52.59278,
    "lng": 21.4584
  },
  {
    "name": "Wyszki",
    "country": "PL",
    "lat": 52.84129,
    "lng": 22.98119
  },
  {
    "name": "Wysokie Mazowieckie",
    "country": "PL",
    "lat": 52.91661,
    "lng": 22.51712
  },
  {
    "name": "Wysokie",
    "country": "PL",
    "lat": 50.91093,
    "lng": 22.666
  },
  {
    "name": "Wysoka Strzyżowska",
    "country": "PL",
    "lat": 49.83056,
    "lng": 21.74074
  },
  {
    "name": "Wysoka Głogowska",
    "country": "PL",
    "lat": 50.16019,
    "lng": 22.02124
  },
  {
    "name": "Wysoka",
    "country": "PL",
    "lat": 50.04474,
    "lng": 22.26002
  },
  {
    "name": "Wyśmierzyce",
    "country": "PL",
    "lat": 51.62494,
    "lng": 20.81394
  },
  {
    "name": "Wydminy",
    "country": "PL",
    "lat": 53.98194,
    "lng": 22.03239
  },
  {
    "name": "Wysoka",
    "country": "PL",
    "lat": 53.18091,
    "lng": 17.08353
  },
  {
    "name": "Wysoka",
    "country": "PL",
    "lat": 50.42989,
    "lng": 19.35368
  },
  {
    "name": "Wysoka",
    "country": "PL",
    "lat": 49.90713,
    "lng": 19.60356
  },
  {
    "name": "Wyrzysk",
    "country": "PL",
    "lat": 53.153,
    "lng": 17.26802
  },
  {
    "name": "Wyry",
    "country": "PL",
    "lat": 50.13296,
    "lng": 18.90052
  },
  {
    "name": "Wymiarki",
    "country": "PL",
    "lat": 51.51109,
    "lng": 15.08208
  },
  {
    "name": "Wyspa Sobieszewska",
    "country": "PL",
    "lat": 54.33263,
    "lng": 18.89065
  },
  {
    "name": "Wynne",
    "country": "US",
    "lat": 35.22453,
    "lng": -90.78678
  },
  {
    "name": "Wyoming",
    "country": "US",
    "lat": 39.11817,
    "lng": -75.55881
  },
  {
    "name": "Wyoming",
    "country": "US",
    "lat": 39.23117,
    "lng": -84.46578
  },
  {
    "name": "Wynnewood",
    "country": "US",
    "lat": 34.64342,
    "lng": -97.16447
  },
  {
    "name": "Wyldwood",
    "country": "US",
    "lat": 30.12938,
    "lng": -97.47277
  },
  {
    "name": "Wylie",
    "country": "US",
    "lat": 33.01512,
    "lng": -96.53888
  },
  {
    "name": "Wyndham",
    "country": "US",
    "lat": 37.69848,
    "lng": -77.61249
  },
  {
    "name": "Wytheville",
    "country": "US",
    "lat": 36.94845,
    "lng": -81.08481
  },
  {
    "name": "Wyoming",
    "country": "US",
    "lat": 41.0617,
    "lng": -89.77316
  },
  {
    "name": "Wyandotte",
    "country": "US",
    "lat": 42.21421,
    "lng": -83.14992
  },
  {
    "name": "Wyoming",
    "country": "US",
    "lat": 42.91336,
    "lng": -85.70531
  },
  {
    "name": "Wyoming",
    "country": "US",
    "lat": 45.33636,
    "lng": -92.99716
  },
  {
    "name": "Wymore",
    "country": "US",
    "lat": 40.12222,
    "lng": -96.66252
  },
  {
    "name": "Wyckoff",
    "country": "US",
    "lat": 41.00954,
    "lng": -74.17292
  },
  {
    "name": "Wyandanch",
    "country": "US",
    "lat": 40.75399,
    "lng": -73.3604
  },
  {
    "name": "Wykagyl",
    "country": "US",
    "lat": 40.94149,
    "lng": -73.79902
  },
  {
    "name": "Wynantskill",
    "country": "US",
    "lat": 42.69675,
    "lng": -73.64428
  },
  {
    "name": "Wyncote",
    "country": "US",
    "lat": 40.09455,
    "lng": -75.14879
  },
  {
    "name": "Wyndmoor",
    "country": "US",
    "lat": 40.08122,
    "lng": -75.18934
  },
  {
    "name": "Wynnefield Heights",
    "country": "US",
    "lat": 40.00345,
    "lng": -75.20462
  },
  {
    "name": "Wyoming",
    "country": "US",
    "lat": 41.31175,
    "lng": -75.83742
  },
  {
    "name": "Wyomissing",
    "country": "US",
    "lat": 40.32954,
    "lng": -75.96521
  },
  {
    "name": "Wyomissing Hills",
    "country": "US",
    "lat": 40.33759,
    "lng": -75.97966
  }
]