[
  {
    "name": "Xibër-Murrizë",
    "country": "AL",
    "lat": 41.45472,
    "lng": 20.02556
  },
  {
    "name": "Xique-Xique",
    "country": "BR",
    "lat": -10.82294,
    "lng": -42.72815
  },
  {
    "name": "Xinguara",
    "country": "BR",
    "lat": -7.09829,
    "lng": -49.9435
  },
  {
    "name": "Xireg",
    "country": "CN",
    "lat": 36.91866,
    "lng": 98.44463
  },
  {
    "name": "Xinyuan",
    "country": "CN",
    "lat": 37.3,
    "lng": 99.0
  },
  {
    "name": "Xinyuan",
    "country": "CN",
    "lat": 43.42649,
    "lng": 83.24959
  },
  {
    "name": "Xinhe",
    "country": "CN",
    "lat": 41.5468,
    "lng": 82.6096
  },
  {
    "name": "Xincheng",
    "country": "CN",
    "lat": 41.71497,
    "lng": 82.93249
  },
  {
    "name": "Xininglu",
    "country": "CN",
    "lat": 44.33957,
    "lng": 84.90425
  },
  {
    "name": "Xindu",
    "country": "CN",
    "lat": 33.33987,
    "lng": 120.14594
  },
  {
    "name": "Xinglou",
    "country": "CN",
    "lat": 34.56667,
    "lng": 117.82778
  },
  {
    "name": "Xianshui",
    "country": "CN",
    "lat": 30.99145,
    "lng": 101.12701
  },
  {
    "name": "Xinghua",
    "country": "CN",
    "lat": 32.93917,
    "lng": 119.83417
  },
  {
    "name": "Xiping",
    "country": "CN",
    "lat": 25.59784,
    "lng": 103.79613
  },
  {
    "name": "Xiushui",
    "country": "CN",
    "lat": 38.10379,
    "lng": 113.38865
  },
  {
    "name": "Xiyan",
    "country": "CN",
    "lat": 26.61639,
    "lng": 110.47361
  },
  {
    "name": "Xixiang",
    "country": "CN",
    "lat": 35.16278,
    "lng": 112.865
  },
  {
    "name": "Xixiang",
    "country": "CN",
    "lat": 32.98703,
    "lng": 107.764
  },
  {
    "name": "Xi Xian Chengguanzhen",
    "country": "CN",
    "lat": 32.34361,
    "lng": 114.72944
  },
  {
    "name": "Xixi",
    "country": "CN",
    "lat": 27.69375,
    "lng": 110.95333
  },
  {
    "name": "Xiuying",
    "country": "CN",
    "lat": 20.00073,
    "lng": 110.29359
  },
  {
    "name": "Xiuwu",
    "country": "CN",
    "lat": 35.22946,
    "lng": 113.44041
  },
  {
    "name": "Xiushan",
    "country": "CN",
    "lat": 24.10999,
    "lng": 102.76153
  },
  {
    "name": "Xiuqi",
    "country": "CN",
    "lat": 31.87737,
    "lng": 108.78159
  },
  {
    "name": "Xiulin",
    "country": "CN",
    "lat": 29.71667,
    "lng": 112.4
  },
  {
    "name": "Xiugu",
    "country": "CN",
    "lat": 27.91132,
    "lng": 116.77637
  },
  {
    "name": "Xituo",
    "country": "CN",
    "lat": 30.40793,
    "lng": 108.21732
  },
  {
    "name": "Xitangtuo",
    "country": "CN",
    "lat": 39.3224,
    "lng": 117.48821
  },
  {
    "name": "Xishan",
    "country": "CN",
    "lat": 25.68528,
    "lng": 108.96389
  },
  {
    "name": "Xisa",
    "country": "CN",
    "lat": 23.45,
    "lng": 104.70775
  },
  {
    "name": "Xiongzhou",
    "country": "CN",
    "lat": 38.99159,
    "lng": 116.10053
  },
  {
    "name": "Xiongzhou",
    "country": "CN",
    "lat": 25.11667,
    "lng": 114.3
  },
  {
    "name": "Xiongshan",
    "country": "CN",
    "lat": 27.36439,
    "lng": 118.85711
  },
  {
    "name": "Xinzhou",
    "country": "CN",
    "lat": 38.40917,
    "lng": 112.73333
  },
  {
    "name": "Xinzhou",
    "country": "CN",
    "lat": 30.86667,
    "lng": 114.8
  },
  {
    "name": "Xinzhou",
    "country": "CN",
    "lat": 24.87234,
    "lng": 105.35117
  },
  {
    "name": "Xinzhou",
    "country": "CN",
    "lat": 19.71446,
    "lng": 109.31146
  },
  {
    "name": "Xinzhi",
    "country": "CN",
    "lat": 36.49889,
    "lng": 111.70472
  },
  {
    "name": "Xinzheng",
    "country": "CN",
    "lat": 34.3966,
    "lng": 113.74162
  },
  {
    "name": "Xinzheng",
    "country": "CN",
    "lat": 31.27491,
    "lng": 106.28714
  },
  {
    "name": "Xinzhan",
    "country": "CN",
    "lat": 28.38833,
    "lng": 106.85667
  },
  {
    "name": "Xinzhai",
    "country": "CN",
    "lat": 36.4,
    "lng": 118.61667
  },
  {
    "name": "Xinzhai",
    "country": "CN",
    "lat": 33.64387,
    "lng": 104.68386
  },
  {
    "name": "Xinyu",
    "country": "CN",
    "lat": 27.80429,
    "lng": 114.93335
  },
  {
    "name": "Xinyang",
    "country": "CN",
    "lat": 32.12278,
    "lng": 114.06556
  },
  {
    "name": "Xinxing",
    "country": "CN",
    "lat": 36.04917,
    "lng": 119.54139
  },
  {
    "name": "Xincheng",
    "country": "CN",
    "lat": 22.70155,
    "lng": 112.22464
  },
  {
    "name": "Xinxiang",
    "country": "CN",
    "lat": 35.19033,
    "lng": 113.80151
  },
  {
    "name": "Xinji",
    "country": "CN",
    "lat": 31.6232,
    "lng": 114.874
  },
  {
    "name": "Xintian",
    "country": "CN",
    "lat": 30.69866,
    "lng": 108.40193
  },
  {
    "name": "Xintai",
    "country": "CN",
    "lat": 35.90056,
    "lng": 117.75194
  },
  {
    "name": "Xinshiba",
    "country": "CN",
    "lat": 28.97091,
    "lng": 102.77126
  },
  {
    "name": "Xinshi",
    "country": "CN",
    "lat": 31.04704,
    "lng": 113.14098
  },
  {
    "name": "Xinshan",
    "country": "CN",
    "lat": 25.13784,
    "lng": 115.38625
  },
  {
    "name": "Xinmin",
    "country": "CN",
    "lat": 30.90343,
    "lng": 109.46682
  },
  {
    "name": "Xinmiao",
    "country": "CN",
    "lat": 29.65528,
    "lng": 107.04988
  },
  {
    "name": "Xinmian",
    "country": "CN",
    "lat": 29.23992,
    "lng": 102.37208
  },
  {
    "name": "Xinling",
    "country": "CN",
    "lat": 31.04371,
    "lng": 110.33213
  },
  {
    "name": "Xinli",
    "country": "CN",
    "lat": 39.08472,
    "lng": 117.33556
  },
  {
    "name": "Xinkaikou",
    "country": "CN",
    "lat": 39.67889,
    "lng": 117.19028
  },
  {
    "name": "Xinji",
    "country": "CN",
    "lat": 37.92595,
    "lng": 115.21907
  },
  {
    "name": "Xining",
    "country": "CN",
    "lat": 36.62554,
    "lng": 101.75739
  },
  {
    "name": "Xinhuang",
    "country": "CN",
    "lat": 27.37359,
    "lng": 109.13376
  },
  {
    "name": "Xinhua",
    "country": "CN",
    "lat": 26.88838,
    "lng": 102.93324
  },
  {
    "name": "Xinhua",
    "country": "CN",
    "lat": 23.6431,
    "lng": 105.65317
  },
  {
    "name": "Xinhe",
    "country": "CN",
    "lat": 37.52441,
    "lng": 115.24288
  },
  {
    "name": "Xinhe",
    "country": "CN",
    "lat": 36.925,
    "lng": 119.59306
  },
  {
    "name": "Xingyang",
    "country": "CN",
    "lat": 34.7883,
    "lng": 113.39345
  },
  {
    "name": "Xingtai",
    "country": "CN",
    "lat": 37.06217,
    "lng": 114.49272
  },
  {
    "name": "Xingren",
    "country": "CN",
    "lat": 25.43333,
    "lng": 105.23333
  },
  {
    "name": "Xinglong",
    "country": "CN",
    "lat": 29.88931,
    "lng": 106.70622
  },
  {
    "name": "Xinglong",
    "country": "CN",
    "lat": 30.65723,
    "lng": 109.44599
  },
  {
    "name": "Xinglong",
    "country": "CN",
    "lat": 29.25841,
    "lng": 109.03714
  },
  {
    "name": "Xingguo",
    "country": "CN",
    "lat": 34.85861,
    "lng": 105.66861
  },
  {
    "name": "Xingguo",
    "country": "CN",
    "lat": 29.92253,
    "lng": 115.30208
  },
  {
    "name": "Xing’an",
    "country": "CN",
    "lat": 25.61405,
    "lng": 110.66854
  },
  {
    "name": "Xindu",
    "country": "CN",
    "lat": 30.82236,
    "lng": 104.15742
  },
  {
    "name": "Xindou",
    "country": "CN",
    "lat": 31.39648,
    "lng": 100.67847
  },
  {
    "name": "Xindian",
    "country": "CN",
    "lat": 36.7975,
    "lng": 118.29444
  },
  {
    "name": "Xindian",
    "country": "CN",
    "lat": 26.12238,
    "lng": 119.30153
  },
  {
    "name": "Xindian",
    "country": "CN",
    "lat": 24.61006,
    "lng": 118.24068
  },
  {
    "name": "Xindi",
    "country": "CN",
    "lat": 29.81667,
    "lng": 113.46667
  },
  {
    "name": "Xincheng",
    "country": "CN",
    "lat": 35.3,
    "lng": 111.66417
  },
  {
    "name": "Xincheng",
    "country": "CN",
    "lat": 34.67431,
    "lng": 103.5868
  },
  {
    "name": "Xincheng",
    "country": "CN",
    "lat": 28.01512,
    "lng": 102.84233
  },
  {
    "name": "Xincheng",
    "country": "CN",
    "lat": 24.08613,
    "lng": 108.65261
  },
  {
    "name": "Xinshi",
    "country": "CN",
    "lat": 29.95996,
    "lng": 107.10408
  },
  {
    "name": "Xin’anjiang",
    "country": "CN",
    "lat": 29.47478,
    "lng": 119.27148
  },
  {
    "name": "Xin’an",
    "country": "CN",
    "lat": 34.72665,
    "lng": 112.13287
  },
  {
    "name": "Xinyi",
    "country": "CN",
    "lat": 34.38424,
    "lng": 118.34617
  },
  {
    "name": "Xin’an",
    "country": "CN",
    "lat": 32.43799,
    "lng": 118.40888
  },
  {
    "name": "Xinan",
    "country": "CN",
    "lat": 26.72,
    "lng": 119.85556
  },
  {
    "name": "Xin’an",
    "country": "CN",
    "lat": 22.57274,
    "lng": 113.91615
  },
  {
    "name": "Xinli",
    "country": "CN",
    "lat": 39.84417,
    "lng": 108.73472
  },
  {
    "name": "Ximeicun",
    "country": "CN",
    "lat": 24.98773,
    "lng": 118.3858
  },
  {
    "name": "Xiling",
    "country": "CN",
    "lat": 26.81444,
    "lng": 119.04722
  },
  {
    "name": "Xihuachi",
    "country": "CN",
    "lat": 35.81639,
    "lng": 108.0125
  },
  {
    "name": "Xihe",
    "country": "CN",
    "lat": 31.68635,
    "lng": 113.46585
  },
  {
    "name": "Xigang",
    "country": "CN",
    "lat": 38.55258,
    "lng": 106.34805
  },
  {
    "name": "Xiema",
    "country": "CN",
    "lat": 29.77415,
    "lng": 106.3688
  },
  {
    "name": "Xiedian",
    "country": "CN",
    "lat": 35.42816,
    "lng": 110.81181
  },
  {
    "name": "Xidu",
    "country": "CN",
    "lat": 26.95629,
    "lng": 112.36829
  },
  {
    "name": "Xiditou",
    "country": "CN",
    "lat": 39.25375,
    "lng": 117.34814
  },
  {
    "name": "Xichang",
    "country": "CN",
    "lat": 27.89642,
    "lng": 102.26341
  },
  {
    "name": "Xichang",
    "country": "CN",
    "lat": 21.63333,
    "lng": 108.95
  },
  {
    "name": "Xipu",
    "country": "CN",
    "lat": 23.69906,
    "lng": 117.42511
  },
  {
    "name": "Xibing",
    "country": "CN",
    "lat": 26.98139,
    "lng": 119.72472
  },
  {
    "name": "Xiazhuang",
    "country": "CN",
    "lat": 36.44917,
    "lng": 119.83556
  },
  {
    "name": "Xiazhuang",
    "country": "CN",
    "lat": 34.91611,
    "lng": 118.63889
  },
  {
    "name": "Xiazhuang",
    "country": "CN",
    "lat": 25.4,
    "lng": 100.83333
  },
  {
    "name": "Xiazhen",
    "country": "CN",
    "lat": 34.80222,
    "lng": 117.11167
  },
  {
    "name": "Xiayi Chengguanzhen",
    "country": "CN",
    "lat": 34.2368,
    "lng": 116.11608
  },
  {
    "name": "Xiawuqi",
    "country": "CN",
    "lat": 39.61361,
    "lng": 117.05333
  },
  {
    "name": "Xiasi",
    "country": "CN",
    "lat": 26.51667,
    "lng": 107.78333
  },
  {
    "name": "Xiaoxita",
    "country": "CN",
    "lat": 30.77135,
    "lng": 111.32146
  },
  {
    "name": "Xiaoxi",
    "country": "CN",
    "lat": 24.35249,
    "lng": 117.29071
  },
  {
    "name": "Xiaoweizhai",
    "country": "CN",
    "lat": 26.19028,
    "lng": 107.5125
  },
  {
    "name": "Xiaoshan",
    "country": "CN",
    "lat": 30.16746,
    "lng": 120.25883
  },
  {
    "name": "Xiaoshajiang",
    "country": "CN",
    "lat": 27.52139,
    "lng": 110.74806
  },
  {
    "name": "Xiaomian",
    "country": "CN",
    "lat": 30.12268,
    "lng": 106.53435
  },
  {
    "name": "Xiaolongmen",
    "country": "CN",
    "lat": 27.80194,
    "lng": 110.16056
  },
  {
    "name": "Xiaolingwei",
    "country": "CN",
    "lat": 32.03244,
    "lng": 118.854
  },
  {
    "name": "Xiaojiang",
    "country": "CN",
    "lat": 22.27296,
    "lng": 109.55184
  },
  {
    "name": "Xiaohenglong",
    "country": "CN",
    "lat": 27.605,
    "lng": 110.51694
  },
  {
    "name": "Xiaogan",
    "country": "CN",
    "lat": 30.92689,
    "lng": 113.92221
  },
  {
    "name": "Xiaodongzhuang",
    "country": "CN",
    "lat": 39.06029,
    "lng": 117.41544
  },
  {
    "name": "Xiaodian",
    "country": "CN",
    "lat": 39.25412,
    "lng": 117.22747
  },
  {
    "name": "Xiaodian",
    "country": "CN",
    "lat": 37.73639,
    "lng": 112.55639
  },
  {
    "name": "Xiaochuan",
    "country": "CN",
    "lat": 33.6806,
    "lng": 105.56156
  },
  {
    "name": "Xianyang",
    "country": "CN",
    "lat": 34.33778,
    "lng": 108.70261
  },
  {
    "name": "Xianxi",
    "country": "CN",
    "lat": 26.33472,
    "lng": 109.64306
  },
  {
    "name": "Xiantao",
    "country": "CN",
    "lat": 30.3708,
    "lng": 113.44294
  },
  {
    "name": "Xiantan",
    "country": "CN",
    "lat": 28.81859,
    "lng": 106.1927
  },
  {
    "name": "Xianshuigu",
    "country": "CN",
    "lat": 38.985,
    "lng": 117.38278
  },
  {
    "name": "Xianrenwan",
    "country": "CN",
    "lat": 27.75444,
    "lng": 110.32972
  },
  {
    "name": "Xiannü",
    "country": "CN",
    "lat": 32.42806,
    "lng": 119.56048
  },
  {
    "name": "Xianning",
    "country": "CN",
    "lat": 29.84347,
    "lng": 114.32201
  },
  {
    "name": "Xianju",
    "country": "CN",
    "lat": 28.8547,
    "lng": 120.73168
  },
  {
    "name": "Xiangzhou",
    "country": "CN",
    "lat": 36.16444,
    "lng": 119.41889
  },
  {
    "name": "Xiangzhou",
    "country": "CN",
    "lat": 23.97526,
    "lng": 109.70081
  },
  {
    "name": "Xiangcheng",
    "country": "CN",
    "lat": 25.46687,
    "lng": 100.56248
  },
  {
    "name": "Xiangxiang",
    "country": "CN",
    "lat": 27.73333,
    "lng": 112.53333
  },
  {
    "name": "Xiangtan",
    "country": "CN",
    "lat": 27.85,
    "lng": 112.9
  },
  {
    "name": "Xiangshui",
    "country": "CN",
    "lat": 30.655,
    "lng": 108.193
  },
  {
    "name": "Xiangkou",
    "country": "CN",
    "lat": 29.32801,
    "lng": 107.76417
  },
  {
    "name": "Xianghu",
    "country": "CN",
    "lat": 25.8,
    "lng": 116.0
  },
  {
    "name": "Xianghe",
    "country": "CN",
    "lat": 39.75845,
    "lng": 116.99943
  },
  {
    "name": "Xiangyang",
    "country": "CN",
    "lat": 32.0422,
    "lng": 112.14479
  },
  {
    "name": "Xiangdong",
    "country": "CN",
    "lat": 27.65207,
    "lng": 113.72406
  },
  {
    "name": "Xiangcheng Chengguanzhen",
    "country": "CN",
    "lat": 33.84703,
    "lng": 113.4778
  },
  {
    "name": "Xianfeng",
    "country": "CN",
    "lat": 29.21004,
    "lng": 106.30012
  },
  {
    "name": "Xiancun",
    "country": "CN",
    "lat": 26.93861,
    "lng": 119.36028
  },
  {
    "name": "Xi’an",
    "country": "CN",
    "lat": 34.25833,
    "lng": 108.92861
  },
  {
    "name": "Xiamen",
    "country": "CN",
    "lat": 24.47979,
    "lng": 118.08187
  },
  {
    "name": "Xialiang",
    "country": "CN",
    "lat": 32.07673,
    "lng": 106.77151
  },
  {
    "name": "Xiajin",
    "country": "CN",
    "lat": 36.95922,
    "lng": 116.00011
  },
  {
    "name": "Xiajiang",
    "country": "CN",
    "lat": 25.75556,
    "lng": 108.69194
  },
  {
    "name": "Xiahu",
    "country": "CN",
    "lat": 26.61056,
    "lng": 119.94833
  },
  {
    "name": "Xiagezhuang",
    "country": "CN",
    "lat": 36.69306,
    "lng": 120.43472
  },
  {
    "name": "Xiacang",
    "country": "CN",
    "lat": 39.78639,
    "lng": 117.41667
  },
  {
    "name": "Xiabaishi",
    "country": "CN",
    "lat": 26.81528,
    "lng": 119.67917
  },
  {
    "name": "Xingye Xian",
    "country": "CN",
    "lat": 22.74342,
    "lng": 109.87508
  },
  {
    "name": "Xianglong",
    "country": "CN",
    "lat": 30.26125,
    "lng": 106.57588
  },
  {
    "name": "Xincheng",
    "country": "CN",
    "lat": 35.875,
    "lng": 111.43528
  },
  {
    "name": "Xincheng",
    "country": "CN",
    "lat": 33.54194,
    "lng": 114.59833
  },
  {
    "name": "Xiaodu",
    "country": "CN",
    "lat": 29.96207,
    "lng": 105.88678
  },
  {
    "name": "Xinguan",
    "country": "CN",
    "lat": 39.45527,
    "lng": 111.53001
  },
  {
    "name": "Xinning",
    "country": "CN",
    "lat": 35.49506,
    "lng": 107.92038
  },
  {
    "name": "Xinmatou",
    "country": "CN",
    "lat": 36.81512,
    "lng": 115.1714
  },
  {
    "name": "Xiguan",
    "country": "CN",
    "lat": 33.86667,
    "lng": 115.46667
  },
  {
    "name": "Xiayang",
    "country": "CN",
    "lat": 26.48885,
    "lng": 113.76796
  },
  {
    "name": "Xishan",
    "country": "CN",
    "lat": 27.66667,
    "lng": 113.5
  },
  {
    "name": "Xincheng",
    "country": "CN",
    "lat": 39.98677,
    "lng": 112.46135
  },
  {
    "name": "Xiangfeng",
    "country": "CN",
    "lat": 29.50761,
    "lng": 109.40266
  },
  {
    "name": "Xixiang",
    "country": "CN",
    "lat": 22.59306,
    "lng": 113.8889
  },
  {
    "name": "Xiangshui",
    "country": "CN",
    "lat": 35.47695,
    "lng": 106.33112
  },
  {
    "name": "Xiaopu",
    "country": "CN",
    "lat": 25.23917,
    "lng": 111.31664
  },
  {
    "name": "Xingyi",
    "country": "CN",
    "lat": 25.09617,
    "lng": 104.90639
  },
  {
    "name": "Xintian",
    "country": "CN",
    "lat": 35.61358,
    "lng": 111.3566
  },
  {
    "name": "Xinyi",
    "country": "CN",
    "lat": 22.37303,
    "lng": 110.94746
  },
  {
    "name": "Xinle",
    "country": "CN",
    "lat": 38.34898,
    "lng": 114.68531
  },
  {
    "name": "Xinshui",
    "country": "CN",
    "lat": 36.47839,
    "lng": 110.75522
  },
  {
    "name": "Xincheng",
    "country": "CN",
    "lat": 33.63333,
    "lng": 115.18333
  },
  {
    "name": "Xinshancun",
    "country": "CN",
    "lat": 29.486,
    "lng": 106.47861
  },
  {
    "name": "Xinxing",
    "country": "CN",
    "lat": 39.86694,
    "lng": 124.12304
  },
  {
    "name": "Xilin",
    "country": "CN",
    "lat": 24.49885,
    "lng": 105.09377
  },
  {
    "name": "Xipo",
    "country": "CN",
    "lat": 33.84772,
    "lng": 106.43039
  },
  {
    "name": "Xiliguantun",
    "country": "CN",
    "lat": 37.07833,
    "lng": 115.94139
  },
  {
    "name": "Xinsheng",
    "country": "CN",
    "lat": 29.95673,
    "lng": 105.75092
  },
  {
    "name": "Xiaolin",
    "country": "CN",
    "lat": 29.7877,
    "lng": 105.85195
  },
  {
    "name": "Xianlong",
    "country": "CN",
    "lat": 29.15107,
    "lng": 105.78403
  },
  {
    "name": "Xingfeng",
    "country": "CN",
    "lat": 34.86111,
    "lng": 105.8375
  },
  {
    "name": "Xinglong",
    "country": "CN",
    "lat": 34.03821,
    "lng": 105.34422
  },
  {
    "name": "Xinxing",
    "country": "CN",
    "lat": 34.77597,
    "lng": 105.32216
  },
  {
    "name": "Xiasi",
    "country": "CN",
    "lat": 32.28998,
    "lng": 105.51326
  },
  {
    "name": "Xiaba",
    "country": "CN",
    "lat": 29.11684,
    "lng": 106.51006
  },
  {
    "name": "Xinluoqu",
    "country": "CN",
    "lat": 25.10222,
    "lng": 117.03028
  },
  {
    "name": "Xiangyun",
    "country": "CN",
    "lat": 24.97111,
    "lng": 118.16028
  },
  {
    "name": "Xiaochangshan",
    "country": "CN",
    "lat": 39.23583,
    "lng": 122.72361
  },
  {
    "name": "Xiaping",
    "country": "CN",
    "lat": 26.73139,
    "lng": 114.27028
  },
  {
    "name": "Xingsha",
    "country": "CN",
    "lat": 28.23972,
    "lng": 113.08778
  },
  {
    "name": "Xinzhuang",
    "country": "CN",
    "lat": 39.0249,
    "lng": 117.34377
  },
  {
    "name": "Xiuyan",
    "country": "CN",
    "lat": 40.29278,
    "lng": 123.27444
  },
  {
    "name": "Xiping",
    "country": "CN",
    "lat": 40.03952,
    "lng": 113.60455
  },
  {
    "name": "Xinqing",
    "country": "CN",
    "lat": 48.28701,
    "lng": 129.52337
  },
  {
    "name": "Xinmin",
    "country": "CN",
    "lat": 41.99083,
    "lng": 122.82528
  },
  {
    "name": "Xinlin",
    "country": "CN",
    "lat": 51.7,
    "lng": 124.33333
  },
  {
    "name": "Xinlin",
    "country": "CN",
    "lat": 51.66667,
    "lng": 124.4
  },
  {
    "name": "Xinhui",
    "country": "CN",
    "lat": 42.28389,
    "lng": 119.89833
  },
  {
    "name": "Xinglongshan",
    "country": "CN",
    "lat": 43.95611,
    "lng": 125.46611
  },
  {
    "name": "Xinglong",
    "country": "CN",
    "lat": 40.41881,
    "lng": 117.48995
  },
  {
    "name": "Xinghe Chengguanzhen",
    "country": "CN",
    "lat": 40.87556,
    "lng": 113.88389
  },
  {
    "name": "Xingcheng",
    "country": "CN",
    "lat": 40.61667,
    "lng": 120.71667
  },
  {
    "name": "Xin Bulag",
    "country": "CN",
    "lat": 42.2375,
    "lng": 113.83639
  },
  {
    "name": "Xilin Hot",
    "country": "CN",
    "lat": 43.96667,
    "lng": 116.03333
  },
  {
    "name": "Xilin",
    "country": "CN",
    "lat": 47.47606,
    "lng": 129.30369
  },
  {
    "name": "Xifeng",
    "country": "CN",
    "lat": 42.73722,
    "lng": 124.72222
  },
  {
    "name": "Xicheng",
    "country": "CN",
    "lat": 40.11267,
    "lng": 114.15537
  },
  {
    "name": "Xiaoshi",
    "country": "CN",
    "lat": 41.29711,
    "lng": 124.12092
  },
  {
    "name": "Xiahuayuan",
    "country": "CN",
    "lat": 40.50083,
    "lng": 115.28089
  },
  {
    "name": "Xiqu",
    "country": "CN",
    "lat": 26.60566,
    "lng": 101.59828
  },
  {
    "name": "Xikou",
    "country": "CN",
    "lat": 30.6102,
    "lng": 108.33924
  },
  {
    "name": "Xihai",
    "country": "CN",
    "lat": 36.87509,
    "lng": 100.96092
  },
  {
    "name": "Xiling",
    "country": "CN",
    "lat": 30.71606,
    "lng": 111.2839
  },
  {
    "name": "Xinan",
    "country": "CN",
    "lat": 23.15445,
    "lng": 112.89344
  },
  {
    "name": "Xinfa",
    "country": "CN",
    "lat": 28.83071,
    "lng": 104.32077
  },
  {
    "name": "Xilinji",
    "country": "CN",
    "lat": 52.99063,
    "lng": 123.23522
  },
  {
    "name": "Xiasha",
    "country": "CN",
    "lat": 22.65422,
    "lng": 113.81726
  },
  {
    "name": "Xiwai",
    "country": "CN",
    "lat": 31.21682,
    "lng": 107.47525
  },
  {
    "name": "Xia’er",
    "country": "CN",
    "lat": 29.00594,
    "lng": 101.51439
  },
  {
    "name": "Xiasha",
    "country": "CN",
    "lat": 22.52923,
    "lng": 114.02086
  },
  {
    "name": "Xincheng",
    "country": "CN",
    "lat": 34.26321,
    "lng": 108.94954
  },
  {
    "name": "Xinchengzi",
    "country": "CN",
    "lat": 34.01663,
    "lng": 104.44226
  },
  {
    "name": "Xinghua",
    "country": "CN",
    "lat": 34.08026,
    "lng": 104.58402
  },
  {
    "name": "Xiaoliang",
    "country": "CN",
    "lat": 33.75888,
    "lng": 105.08629
  },
  {
    "name": "Xigaoshan",
    "country": "CN",
    "lat": 33.73475,
    "lng": 105.38817
  },
  {
    "name": "Xiyu",
    "country": "CN",
    "lat": 34.05163,
    "lng": 105.3036
  },
  {
    "name": "Xianlong",
    "country": "CN",
    "lat": 33.8142,
    "lng": 106.24476
  },
  {
    "name": "Xinghua",
    "country": "CN",
    "lat": 33.86151,
    "lng": 106.36176
  },
  {
    "name": "Xiayang",
    "country": "CN",
    "lat": 31.14967,
    "lng": 121.11588
  },
  {
    "name": "Xinchenglu",
    "country": "CN",
    "lat": 31.38864,
    "lng": 121.26305
  },
  {
    "name": "Xingong",
    "country": "CN",
    "lat": 49.29031,
    "lng": 120.70609
  },
  {
    "name": "Xilinhot",
    "country": "CN",
    "lat": 43.93889,
    "lng": 116.07021
  },
  {
    "name": "Xinghua",
    "country": "CN",
    "lat": 48.01449,
    "lng": 122.69839
  },
  {
    "name": "Xiongzhou",
    "country": "CN",
    "lat": 32.34359,
    "lng": 118.84986
  },
  {
    "name": "Xili",
    "country": "CN",
    "lat": 22.58809,
    "lng": 113.94786
  },
  {
    "name": "Xiangcheng",
    "country": "CN",
    "lat": 31.93667,
    "lng": 111.91778
  },
  {
    "name": "Xingfeng",
    "country": "CN",
    "lat": 39.72965,
    "lng": 116.33661
  },
  {
    "name": "Xianyi",
    "country": "CN",
    "lat": 31.68939,
    "lng": 108.65414
  },
  {
    "name": "Xiongjia",
    "country": "CN",
    "lat": 30.90155,
    "lng": 108.43367
  },
  {
    "name": "Xinxiang",
    "country": "CN",
    "lat": 30.49999,
    "lng": 108.27278
  },
  {
    "name": "Xiaozhou",
    "country": "CN",
    "lat": 30.90951,
    "lng": 108.51264
  },
  {
    "name": "Xinle",
    "country": "CN",
    "lat": 29.92679,
    "lng": 108.4677
  },
  {
    "name": "Xixin",
    "country": "CN",
    "lat": 29.9189,
    "lng": 108.39533
  },
  {
    "name": "Xialu",
    "country": "CN",
    "lat": 29.94167,
    "lng": 108.08442
  },
  {
    "name": "Xinmin",
    "country": "CN",
    "lat": 30.39759,
    "lng": 107.3895
  },
  {
    "name": "Xinsheng",
    "country": "CN",
    "lat": 30.84367,
    "lng": 107.72413
  },
  {
    "name": "Xingyi",
    "country": "CN",
    "lat": 29.95552,
    "lng": 107.81646
  },
  {
    "name": "Xiaoxi",
    "country": "CN",
    "lat": 28.38037,
    "lng": 108.91068
  },
  {
    "name": "Xikou",
    "country": "CN",
    "lat": 28.60059,
    "lng": 108.91853
  },
  {
    "name": "Xiaohe",
    "country": "CN",
    "lat": 28.65852,
    "lng": 108.63655
  },
  {
    "name": "Xinhua",
    "country": "CN",
    "lat": 29.32363,
    "lng": 108.60395
  },
  {
    "name": "Xiaonanhai",
    "country": "CN",
    "lat": 29.66147,
    "lng": 108.76251
  },
  {
    "name": "Xiaochang",
    "country": "CN",
    "lat": 29.34272,
    "lng": 108.51231
  },
  {
    "name": "Xintian",
    "country": "CN",
    "lat": 29.19634,
    "lng": 108.2705
  },
  {
    "name": "Xiyuzhuang",
    "country": "CN",
    "lat": 39.16631,
    "lng": 117.15679
  },
  {
    "name": "Xiaobailou",
    "country": "CN",
    "lat": 39.11766,
    "lng": 117.20565
  },
  {
    "name": "Xiaojia",
    "country": "CN",
    "lat": 30.28838,
    "lng": 106.47031
  },
  {
    "name": "Xihe",
    "country": "CN",
    "lat": 29.57423,
    "lng": 105.92275
  },
  {
    "name": "Xiangyang",
    "country": "CN",
    "lat": 37.53157,
    "lng": 121.39388
  },
  {
    "name": "Xiaoduchuan",
    "country": "CN",
    "lat": 30.29113,
    "lng": 109.47616
  },
  {
    "name": "Xiangyang",
    "country": "CN",
    "lat": 46.80554,
    "lng": 130.35704
  },
  {
    "name": "Xing’an",
    "country": "CN",
    "lat": 47.25069,
    "lng": 130.23159
  },
  {
    "name": "Xiangyang",
    "country": "CN",
    "lat": 47.34009,
    "lng": 130.2862
  },
  {
    "name": "Xingshan",
    "country": "CN",
    "lat": 47.35554,
    "lng": 130.29568
  },
  {
    "name": "Xinxing",
    "country": "CN",
    "lat": 45.81362,
    "lng": 130.92454
  },
  {
    "name": "Xi’an",
    "country": "CN",
    "lat": 44.57568,
    "lng": 129.60862
  },
  {
    "name": "Xinjia",
    "country": "CN",
    "lat": 37.6574,
    "lng": 120.485
  },
  {
    "name": "Xingning",
    "country": "CN",
    "lat": 24.1483,
    "lng": 115.72272
  },
  {
    "name": "Xihu",
    "country": "CN",
    "lat": 36.06735,
    "lng": 103.77654
  },
  {
    "name": "Xingpinglu",
    "country": "CN",
    "lat": 36.72752,
    "lng": 104.81379
  },
  {
    "name": "Xingfulu",
    "country": "CN",
    "lat": 43.7852,
    "lng": 87.63545
  },
  {
    "name": "Xiping",
    "country": "CN",
    "lat": 34.6057,
    "lng": 105.115
  },
  {
    "name": "Xichuan",
    "country": "CN",
    "lat": 35.0305,
    "lng": 106.063
  },
  {
    "name": "Xiannüshan",
    "country": "CN",
    "lat": 29.42187,
    "lng": 107.76122
  },
  {
    "name": "Xixiangtang",
    "country": "CN",
    "lat": 22.83761,
    "lng": 108.31164
  },
  {
    "name": "Xingning",
    "country": "CN",
    "lat": 22.87589,
    "lng": 108.41992
  },
  {
    "name": "Xindian",
    "country": "CN",
    "lat": 34.14281,
    "lng": 118.33531
  },
  {
    "name": "Xinhe",
    "country": "CN",
    "lat": 34.18613,
    "lng": 117.98775
  },
  {
    "name": "Xingbin",
    "country": "CN",
    "lat": 23.70789,
    "lng": 109.18215
  },
  {
    "name": "Xiaying",
    "country": "CN",
    "lat": 37.04248,
    "lng": 119.47654
  },
  {
    "name": "Xiangshan",
    "country": "CN",
    "lat": 25.26252,
    "lng": 110.27627
  },
  {
    "name": "Xiufeng",
    "country": "CN",
    "lat": 25.27608,
    "lng": 110.25865
  },
  {
    "name": "Xihu",
    "country": "CN",
    "lat": 35.44934,
    "lng": 119.23607
  },
  {
    "name": "Xingdaohu",
    "country": "CN",
    "lat": 21.71479,
    "lng": 109.13207
  },
  {
    "name": "Xinhua",
    "country": "CN",
    "lat": 24.75252,
    "lng": 98.48296
  },
  {
    "name": "Xinyingpan",
    "country": "CN",
    "lat": 27.16757,
    "lng": 100.92005
  },
  {
    "name": "Xiejiawan",
    "country": "CN",
    "lat": 34.81213,
    "lng": 105.17148
  },
  {
    "name": "Xincheng",
    "country": "CN",
    "lat": 34.8558,
    "lng": 106.22065
  },
  {
    "name": "Xicang",
    "country": "CN",
    "lat": 34.56878,
    "lng": 102.56289
  },
  {
    "name": "Xiwule",
    "country": "CN",
    "lat": 36.98171,
    "lng": 81.36469
  },
  {
    "name": "Xihu",
    "country": "CN",
    "lat": 29.10023,
    "lng": 106.39536
  },
  {
    "name": "Xiangfang",
    "country": "CN",
    "lat": 45.71215,
    "lng": 126.6605
  },
  {
    "name": "Xinglong",
    "country": "CN",
    "lat": 29.1685,
    "lng": 107.0064
  },
  {
    "name": "Xinsheng",
    "country": "CN",
    "lat": 29.10488,
    "lng": 106.63274
  },
  {
    "name": "Xiabao",
    "country": "CN",
    "lat": 31.57485,
    "lng": 109.52092
  },
  {
    "name": "Xiamengxiang",
    "country": "CN",
    "lat": 31.60676,
    "lng": 103.21294
  },
  {
    "name": "Xinhua",
    "country": "CN",
    "lat": 38.30299,
    "lng": 116.8696
  },
  {
    "name": "Xiangdu",
    "country": "CN",
    "lat": 37.06983,
    "lng": 114.50025
  },
  {
    "name": "Xindu",
    "country": "CN",
    "lat": 37.08186,
    "lng": 114.46777
  },
  {
    "name": "Xinhua",
    "country": "CN",
    "lat": 38.06795,
    "lng": 114.45753
  },
  {
    "name": "Xigong",
    "country": "CN",
    "lat": 34.67094,
    "lng": 112.43019
  },
  {
    "name": "Xinwucun",
    "country": "CN",
    "lat": 22.57001,
    "lng": 113.9672
  },
  {
    "name": "Xintian",
    "country": "CN",
    "lat": 22.55763,
    "lng": 113.93974
  },
  {
    "name": "Xinzhou",
    "country": "CN",
    "lat": 22.5241,
    "lng": 114.04804
  },
  {
    "name": "Xihai Town",
    "country": "CN",
    "lat": 36.95462,
    "lng": 100.89951
  },
  {
    "name": "Xixona",
    "country": "ES",
    "lat": 38.54086,
    "lng": -0.50263
  },
  {
    "name": "Xirivella",
    "country": "ES",
    "lat": 39.46588,
    "lng": -0.42589
  },
  {
    "name": "Xinzo de Limia",
    "country": "ES",
    "lat": 42.0635,
    "lng": -7.72459
  },
  {
    "name": "Xiropótamos",
    "country": "GR",
    "lat": 41.19206,
    "lng": 24.10385
  },
  {
    "name": "Xinó Neró",
    "country": "GR",
    "lat": 40.69028,
    "lng": 21.62324
  },
  {
    "name": "Xilópolis",
    "country": "GR",
    "lat": 40.92669,
    "lng": 23.17854
  },
  {
    "name": "Xinos",
    "country": "GR",
    "lat": 37.05724,
    "lng": 22.0055
  },
  {
    "name": "Xitole",
    "country": "GW",
    "lat": 11.73333,
    "lng": -14.81667
  },
  {
    "name": "Xicoténcatl",
    "country": "MX",
    "lat": 22.99799,
    "lng": -98.94063
  },
  {
    "name": "Xitlama",
    "country": "MX",
    "lat": 18.30344,
    "lng": -97.01743
  },
  {
    "name": "Xilocuautla",
    "country": "MX",
    "lat": 20.13948,
    "lng": -98.02341
  },
  {
    "name": "Xilitla",
    "country": "MX",
    "lat": 21.38681,
    "lng": -98.99009
  },
  {
    "name": "Xicotepec de Juárez",
    "country": "MX",
    "lat": 20.27605,
    "lng": -97.96111
  },
  {
    "name": "Xicoténcatl",
    "country": "MX",
    "lat": 17.51703,
    "lng": -92.70374
  },
  {
    "name": "Xico",
    "country": "MX",
    "lat": 19.42178,
    "lng": -97.00819
  },
  {
    "name": "Xico",
    "country": "MX",
    "lat": 19.27032,
    "lng": -98.95088
  },
  {
    "name": "Xiquila",
    "country": "MX",
    "lat": 21.07803,
    "lng": -98.44315
  },
  {
    "name": "Xiteje de Zapata",
    "country": "MX",
    "lat": 20.09728,
    "lng": -99.38872
  },
  {
    "name": "Xicohtzinco",
    "country": "MX",
    "lat": 19.17371,
    "lng": -98.23377
  },
  {
    "name": "Xicotlán",
    "country": "MX",
    "lat": 18.05918,
    "lng": -98.52457
  },
  {
    "name": "Xichú",
    "country": "MX",
    "lat": 21.29931,
    "lng": -100.0574
  },
  {
    "name": "Xiloxochico de Rafael Ávila Camacho",
    "country": "MX",
    "lat": 20.04583,
    "lng": -97.49083
  },
  {
    "name": "Xilembene",
    "country": "MZ",
    "lat": -24.68941,
    "lng": 33.25844
  },
  {
    "name": "Xinavane",
    "country": "MZ",
    "lat": -25.16047,
    "lng": 32.80038
  },
  {
    "name": "Xinying",
    "country": "TW",
    "lat": 23.30694,
    "lng": 120.31056
  },
  {
    "name": "Xindian",
    "country": "TW",
    "lat": 24.96005,
    "lng": 121.53892
  },
  {
    "name": "Xiluo",
    "country": "TW",
    "lat": 23.79891,
    "lng": 120.46337
  },
  {
    "name": "Xihu",
    "country": "TW",
    "lat": 23.95683,
    "lng": 120.47918
  },
  {
    "name": "Xizhi",
    "country": "TW",
    "lat": 25.06615,
    "lng": 121.65985
  },
  {
    "name": "Xizhou",
    "country": "TW",
    "lat": 24.27667,
    "lng": 120.68917
  },
  {
    "name": "Xikou Village",
    "country": "TW",
    "lat": 24.44324,
    "lng": 118.23595
  },
  {
    "name": "Xiva",
    "country": "UZ",
    "lat": 41.38555,
    "lng": 60.36408
  },
  {
    "name": "Xikhusese",
    "country": "ZA",
    "lat": -24.60238,
    "lng": 31.13456
  }
]