[
  {
    "name": "Zdounky",
    "country": "CZ",
    "lat": 49.22771,
    "lng": 17.31899
  },
  {
    "name": "Zdíkov",
    "country": "CZ",
    "lat": 49.08456,
    "lng": 13.69738
  },
  {
    "name": "Zdice",
    "country": "CZ",
    "lat": 49.91207,
    "lng": 13.97747
  },
  {
    "name": "Zdiby",
    "country": "CZ",
    "lat": 50.16799,
    "lng": 14.45118
  },
  {
    "name": "Zdenci Brdovečki",
    "country": "HR",
    "lat": 45.86667,
    "lng": 15.75
  },
  {
    "name": "Zdenci",
    "country": "HR",
    "lat": 45.58917,
    "lng": 17.95028
  },
  {
    "name": "Zdzieszowice",
    "country": "PL",
    "lat": 50.42482,
    "lng": 18.12349
  },
  {
    "name": "Zduny",
    "country": "PL",
    "lat": 51.6458,
    "lng": 17.37694
  },
  {
    "name": "Zduńska Wola",
    "country": "PL",
    "lat": 51.59915,
    "lng": 18.93974
  },
  {
    "name": "Zdziechowice Drugie",
    "country": "PL",
    "lat": 50.78478,
    "lng": 22.10999
  },
  {
    "name": "Zdrapți",
    "country": "RO",
    "lat": 46.15612,
    "lng": 22.86954
  },
  {
    "name": "Zdvinsk",
    "country": "RU",
    "lat": 54.70473,
    "lng": 78.67026
  },
  {
    "name": "Zdolbuniv",
    "country": "UA",
    "lat": 50.5206,
    "lng": 26.24251
  },
  {
    "name": "Zdovbytsia",
    "country": "UA",
    "lat": 50.49607,
    "lng": 26.24111
  }
]