[
  {
    "name": "Zghartā",
    "country": "LB",
    "lat": 34.39739,
    "lng": 35.89493
  },
  {
    "name": "Zgłobień",
    "country": "PL",
    "lat": 50.0127,
    "lng": 21.8549
  },
  {
    "name": "Zgorzelec",
    "country": "PL",
    "lat": 51.14942,
    "lng": 15.00835
  },
  {
    "name": "Zgierz",
    "country": "PL",
    "lat": 51.85561,
    "lng": 19.40623
  },
  {
    "name": "Zgorzelisko",
    "country": "PL",
    "lat": 51.13833,
    "lng": 17.13365
  },
  {
    "name": "Zgornji Duplek",
    "country": "SI",
    "lat": 46.51361,
    "lng": 15.72083
  },
  {
    "name": "Zgornje Pirniče",
    "country": "SI",
    "lat": 46.14251,
    "lng": 14.43158
  },
  {
    "name": "Zgornje Jezersko",
    "country": "SI",
    "lat": 46.3941,
    "lng": 14.50659
  },
  {
    "name": "Zgornje Gorje",
    "country": "SI",
    "lat": 46.37962,
    "lng": 14.06937
  },
  {
    "name": "Zgornje Bitnje",
    "country": "SI",
    "lat": 46.22,
    "lng": 14.33667
  },
  {
    "name": "Zgornja Polskava",
    "country": "SI",
    "lat": 46.42556,
    "lng": 15.61222
  },
  {
    "name": "Zgornja Kungota",
    "country": "SI",
    "lat": 46.63867,
    "lng": 15.61489
  },
  {
    "name": "Zgornja Hajdina",
    "country": "SI",
    "lat": 46.40609,
    "lng": 15.83837
  },
  {
    "name": "Zghurivka",
    "country": "UA",
    "lat": 50.50276,
    "lng": 31.78492
  }
]