[
  {
    "name": "Zlatograd",
    "country": "BG",
    "lat": 41.3795,
    "lng": 25.09605
  },
  {
    "name": "Zlatitsa",
    "country": "BG",
    "lat": 42.71667,
    "lng": 24.13333
  },
  {
    "name": "Zlataritsa",
    "country": "BG",
    "lat": 43.05,
    "lng": 25.9
  },
  {
    "name": "Zlatni Pyasatsi",
    "country": "BG",
    "lat": 43.285,
    "lng": 28.0418
  },
  {
    "name": "Zlonice",
    "country": "CZ",
    "lat": 50.2875,
    "lng": 14.09214
  },
  {
    "name": "Zliv",
    "country": "CZ",
    "lat": 49.06608,
    "lng": 14.36613
  },
  {
    "name": "Zlín",
    "country": "CZ",
    "lat": 49.22645,
    "lng": 17.67065
  },
  {
    "name": "Zlíčín",
    "country": "CZ",
    "lat": 50.06182,
    "lng": 14.28965
  },
  {
    "name": "Zlechov",
    "country": "CZ",
    "lat": 49.07396,
    "lng": 17.37938
  },
  {
    "name": "Zlaté Hory",
    "country": "CZ",
    "lat": 50.2638,
    "lng": 17.39602
  },
  {
    "name": "Zlatar",
    "country": "HR",
    "lat": 46.09417,
    "lng": 16.07083
  },
  {
    "name": "Zlatar bistrica",
    "country": "HR",
    "lat": 46.04972,
    "lng": 16.08611
  },
  {
    "name": "Zliten",
    "country": "LY",
    "lat": 32.46739,
    "lng": 14.56874
  },
  {
    "name": "Zletovo",
    "country": "MK",
    "lat": 41.98861,
    "lng": 22.23611
  },
  {
    "name": "Zlătunoaia",
    "country": "RO",
    "lat": 47.65026,
    "lng": 27.00743
  },
  {
    "name": "Zlatna",
    "country": "RO",
    "lat": 46.10633,
    "lng": 23.23162
  },
  {
    "name": "Zlătărei",
    "country": "RO",
    "lat": 44.63057,
    "lng": 24.25788
  },
  {
    "name": "Zlatibor",
    "country": "RS",
    "lat": 43.729,
    "lng": 19.70029
  },
  {
    "name": "Zlynka",
    "country": "RU",
    "lat": 52.42679,
    "lng": 31.73859
  },
  {
    "name": "Zlatoust",
    "country": "RU",
    "lat": 55.17182,
    "lng": 59.65471
  },
  {
    "name": "Zlaté Moravce",
    "country": "SK",
    "lat": 48.38553,
    "lng": 18.40063
  },
  {
    "name": "Zlynka",
    "country": "UA",
    "lat": 48.48529,
    "lng": 31.54227
  },
  {
    "name": "Zlatopil",
    "country": "UA",
    "lat": 49.37646,
    "lng": 36.21848
  }
]