[
  {
    "name": "Zschortau",
    "country": "DE",
    "lat": 51.4793,
    "lng": 12.35893
  },
  {
    "name": "Zschornewitz",
    "country": "DE",
    "lat": 51.71585,
    "lng": 12.39998
  },
  {
    "name": "Zschorlau",
    "country": "DE",
    "lat": 50.56667,
    "lng": 12.65
  },
  {
    "name": "Zschopau",
    "country": "DE",
    "lat": 50.74818,
    "lng": 13.07691
  },
  {
    "name": "Zscherndorf",
    "country": "DE",
    "lat": 51.61087,
    "lng": 12.26755
  },
  {
    "name": "Zscherben",
    "country": "DE",
    "lat": 51.46709,
    "lng": 11.87058
  },
  {
    "name": "Zscherben",
    "country": "DE",
    "lat": 51.33576,
    "lng": 11.96969
  },
  {
    "name": "Zschepplin",
    "country": "DE",
    "lat": 51.5,
    "lng": 12.6
  },
  {
    "name": "Zschadrass",
    "country": "DE",
    "lat": 51.13828,
    "lng": 12.81848
  },
  {
    "name": "Zsombó",
    "country": "HU",
    "lat": 46.32566,
    "lng": 19.97464
  },
  {
    "name": "Zsámbok",
    "country": "HU",
    "lat": 47.54381,
    "lng": 19.61048
  },
  {
    "name": "Zsámbék",
    "country": "HU",
    "lat": 47.54814,
    "lng": 18.72011
  }
]